#------------------------------------------------------------
~VERSION INFORMATION
VERS.               2.0  :CWLS LOG ASCII STANDARD - VERSION 2.0
WRAP.                NO  :ONE LINE PER DEPTH STEP
#------------------------------------------------------------
~WELL INFORMATION
STRT.FT        0.100000  :FIRST INDEX VALUE
STOP.FT         110.000  :LAST INDEX VALUE
STEP.FT        0.100000  :STEP
NULL.            -99999  :NULL VALUE
COMP.                    :
WELL.                    :
FLD.                     :
LOC.                     :LOCATION
SRVC.              USGS  :SERVICE COMPANY
CTRY.                    :
STAT.                    :
CNTY.                    :
DATE.          05/06/18  :DATE
API.                     :
#------------------------------------------------------------
~CURVE INFORMATION
DEPT.FT                  :DEPTH
GAM(NAT).API-GR          :GAM(NAT)
TEMP.DEG_F               :TEMP
SP.MV                    :SP
DEL_TEMP.DEG_F           :DEL TEMP
IND_RES.OHM-M            :IND_RES
RES(16N).OHM-M           :RES(16N)
RES(64N).OHM-M           :RES(64N)
RES(FL).OHM/M            :RES(FL)
RES.OHM                  :RES
TENSION.CPS              :TENSION
TIME.SECONDS             :TIME
LATERAL.OHM-M            :LATERAL
COND.MMHO/M              :COND
SP_COND.µS/CM            :SP COND
#------------------------------------------------------------
~PARAMETER INFORMATION
sys_serial.    1         :sys serial
state.               TX  :state
fluid_ph.                :fluid ph
elev_gl.            984  :elev gl
other2serv.          ZE  :other2serv
casing_thick.         0  :casing thick
other1serv.          ZI  :other1serv
fluid_type.         H2O  :fluid type
other3serv.      ZM,OBI  :other3serv
temp_mud_filtrate.       :temp mud filtrate
RUN1.                    :RUN1
depth_driller.      110  :depth driller
section.             NA  :section
density_matrix.    2.71  :density matrix
RUN2.                    :RUN2
eng_units_or_cps.     E  :eng units or cps
fluid_density.           :fluid density
elev_df.             NA  :elev df
PROVINCE.                :PROVINCE
UNIQUE_WELL_ID.          :UNIQUE WELL ID
RUN3.                    :RUN3
township.            NA  :township
log_top.           0.90  :log top
delta_t_matrix.          :delta t matrix
RUN4.                    :RUN4
tool_serial_num.   2842  :tool serial num
field.            GAULT  :field
RUN5.                    :RUN5
bit_size.         7.875  :bit size
time.            18_50_  :time
RUN6.                    :RUN6
Name_Prn_AP.             :Name Prn AP
longitude.      97.7102  :longitude
fluid_viscosity.         :fluid viscosity
deltat_fluid.            :deltat fluid
elev_kb.             NA  :elev kb
permanent_datum.    LSD  :permanent datum
county.            BELL  :county
sys_version.   3.6XH     :sys version
logging_unit.       302  :logging unit
casing_diameter.    10.  :casing diameter
casing_type.        PVC  :casing type
file_type_id.    8144A   :file type id
temp_gradient.        0  :temp gradient
latitude.       30.8855  :latitude
feet_or_meter.        F  :feet or meter
mag_declination.      0  :mag declination
file_type.    ORIGINAL   :file type
mud_sample_source.   NA  :mud sample source
time_circ_stopped.   NA  :time circ stopped
mud_temp.            NA  :mud temp
res_mud_filtrate.        :res mud filtrate
remarks1.                :remarks1
company.                 :company
neutron_matrix. LIMESTONE  :neutron matrix
remarks2.                :remarks2
log_sample_int.     .10  :log sample int
elect_cutoff.      9999  :elect cutoff
range.               NA  :range
mean_surface_temp.       :mean surface temp
recorded_by.     THOMAS  :recorded by
mud_res.             NA  :mud res
log_bottom.      109.80  :log bottom
res_mud_cake.        NA  :res mud cake
elev_perm_datum.    984  :elev perm datum
truck_cal_num. 0.5956    :truck cal num
field_office.      USGS  :field office
log_meas_from.      LSD  :log meas from
drl_meas_from.       NA  :drl meas from
temp_mud_cake.           :temp mud cake
log_direction.        D  :log direction
casing_bottom.      110  :casing bottom
Cooperator. Clearwater UWCD  :Cooperator
Date_of_Logging. 05 / 06 / 2018  :Date of Logging
County.                  :County
Logging_probe_serial_number#1.   :Logging probe serial number#1
State.            Texas  :State
Well_Name.    M-14-001P  :Well Name
#------------------------------------------------------------
~OTHER
#------------------------------------------------------------
~A  DEPT[FT]    GAM(NAT)        TEMP          SP    DEL_TEMP     IND_RES    RES(16N)    RES(64N)     RES(FL)         RES     TENSION        TIME     LATERAL        COND     SP_COND
# ...
     94.1000     20.0000     71.1317     31.6018  -0.00340271     41.8617     2773.27     2554.77     19.6857     834.745     260.500    0.300000     2846.10     23.8882     507.982
     94.2000     13.3333     71.1306     30.9306  -0.00112915     42.9841     2782.58     2554.38     19.6899     837.788     260.600    0.200000     2858.64     23.2644     507.875
     94.3000     15.0000     71.1232     30.2628  -0.00737762     42.3931     2791.64     2553.96     19.6843     841.447     260.700    0.200000     2870.86     23.5888     508.018
     94.4000     5.00000     71.1317     29.5334  0.00850677     41.7309     2800.23     2553.61     19.7023     845.067     260.700    0.300000     2882.43     23.9630     507.554
     94.5000     10.0000     71.1249     28.7629  -0.00679779     42.4718     2806.53     2553.22     19.6857     847.930     260.400    0.200000     2890.97     23.5450     507.982
     94.6000     10.0000     71.1300     28.0644  0.00509644     44.1430     2813.67     2552.59     19.6899     851.430     260.200    0.200000     2900.70     22.6536     507.875
     94.7000     15.0000     71.1249     27.1569  -0.00509644     44.2649     2820.42     2552.04     19.6871     854.851     260.000    0.300000     2909.88     22.5913     507.947
     94.8000     6.66667     71.1266     26.3076  0.00169373     44.7461     2825.46     2551.57     19.6733     858.073     260.200    0.200000     2916.76     22.3483     508.304
     94.9000     15.0000     71.1272     25.5338  0.000572205     44.0462     2830.51     2550.88     19.6940     861.294     260.500    0.300000     2923.72     22.7034     507.768
     95.0000     3.33333     71.1249     24.6742  -0.00226593     42.9495     2833.12     2550.13     19.6926     864.258     260.500    0.200000     2927.45     23.2831     507.804
     95.1000     5.00000     71.1266     23.9654  0.00169373     41.5148     2833.62     2549.54     19.6816     867.141     260.500    0.200000     2928.32     24.0878     508.090
     95.2000     13.3333     71.1260     23.0819  -0.000564575     42.3931     2833.67     2548.77     19.6816     869.259     260.600    0.300000     2928.63     23.5888     508.090
     95.3000     15.0000     71.1266     22.2600  0.000564575     44.3750     2833.74     2547.66     19.6788     871.795     260.600    0.200000     2929.10     22.5352     508.161
     95.4000     10.0000     71.1283     21.4587  0.00170135     41.9495     2833.83     2546.73     19.6899     874.122     260.600    0.300000     2929.53     23.8382     507.875
     95.5000     6.66667     71.1272     20.9142  -0.00112915     43.4028     2833.62     2546.04     19.6816     875.583     260.500    0.200000     2929.48     23.0400     508.090
     95.6000     5.00000     71.1283     20.5341  0.00112915     42.9495     2833.08     2544.96     19.6899     877.085     260.200    0.200000     2929.12     23.2831     507.875
     95.7000    0.000000     71.1300     20.1985  0.00170135     43.9016     2832.75     2543.74     19.6816     877.850     260.100    0.300000     2929.09     22.7782     508.090
     95.8000     10.0000     71.1260     19.8663  -0.00396729     44.0099     2832.75     2542.58     19.6857     878.119     260.000    0.200000     2929.47     22.7221     507.982
     95.9000     5.00000     71.1334     19.6095  0.00737000     43.8777     2832.77     2541.34     19.6899     878.208     260.000    0.200000     2929.92     22.7906     507.875
     96.0000     15.0000     71.1249     19.2602  -0.00849915     41.3009     2832.44     2540.15     19.6857     878.278     260.000    0.300000     2929.87     24.2125     507.982
     96.1000     10.0000     71.1260     18.7568  0.00112915     44.1917     2831.70     2539.32     19.6816     878.507     259.800    0.200000     2929.16     22.6287     508.090
     96.2000     16.6667     71.1283     18.1610  0.00226593     40.2426     2831.26     2538.69     19.6899     878.656     259.800    0.200000     2928.79     24.8493     507.875
     96.3000     25.0000     71.1260     17.4385  -0.00226593     47.5261     2831.03     2537.80     19.6843     878.696     259.800    0.300000     2928.78     21.0411     508.018
     96.4000     15.0000     71.1266     16.8768  0.000564575     43.1693     2830.85     2536.93     19.6774     878.477     259.700    0.200000     2928.82     23.1646     508.197
     96.5000     3.33333     71.1249     16.3529  -0.00169373     45.5070     2830.34     2536.28     19.6733     878.119     259.700    0.200000     2928.37     21.9746     508.304
     96.6000    0.000000     71.1232     15.5482  -0.00170898     44.3626     2829.59     2535.75     19.6871     877.761     259.900    0.300000     2927.54     22.5415     507.947
     96.7000     5.00000     71.1249     14.8633  0.00170898     43.8296     2829.34     2535.01     19.6816     876.945     260.000    0.199000     2927.45     22.8156     508.090
     96.8000     15.0000     71.1192     14.2880  -0.00567627     42.7093     2829.20     2534.29     19.6816     876.150     260.000    0.201000     2927.50     23.4141     508.090
     96.9000     6.66667     71.1249     13.7127  0.00567627     41.7745     2829.20     2533.99     19.6816     875.355     260.200    0.200000     2927.60     23.9380     508.090
     97.0000     20.0000     71.1266     12.8772  0.00169373     44.6094     2828.59     2533.35     19.6857     874.450     260.200    0.300000     2927.00     22.4168     507.982
     97.1000     13.3333     71.1226     12.1409  -0.00396729     41.9056     2827.96     2532.71     19.6816     873.764     260.400    0.200000     2926.38     23.8632     508.090
     97.2000     5.00000     71.1249     11.5964  0.00227356     41.8182     2827.75     2532.13     19.6774     873.087     260.300    0.200000     2926.30     23.9130     508.197
     97.3000     10.0000     71.1232     10.8156  -0.00170898     40.3236     2827.56     2531.27     19.6816     872.391     260.300    0.300000     2926.33     24.7994     508.090
     97.4000     20.0000     71.1283     10.0965  0.00510406     43.4733     2827.20     2530.72     19.6816     871.884     260.400    0.200000     2926.03     23.0026     508.090
     97.5000     25.0000     71.1203     9.51094  -0.00793457     42.6867     2826.68     2530.23     19.6691     871.377     260.400    0.199000     2925.49     23.4265     508.412
     97.6000     15.0000     71.1232     8.83631  0.00283051     49.9618     2826.11     2529.70     19.6760     871.079     260.500    0.301000     2924.92     20.0153     508.233
     97.7000     20.0000     71.1249     8.24734  0.00170898     44.8337     2825.74     2529.14     19.6816     870.562     260.600    0.199000     2924.60     22.3047     508.090
     97.8000     10.0000     71.1192     7.73368  -0.00567627     46.2539     2825.62     2528.50     19.6940     870.094     260.700    0.200000     2924.66     21.6198     507.768
     97.9000    0.000000     71.1215     7.20634  0.00227356     44.5103     2825.21     2527.43     19.6816     869.766     260.600    0.300000     2924.47     22.4667     508.090
     98.0000     5.00000     71.1215     6.74745    0.000000     44.1552     2824.52     2526.00     19.6843     869.150     260.500    0.200000     2924.03     22.6474     508.018
     98.1000     15.0000     71.1181     6.20637  -0.00340271     45.0854     2824.11     2524.44     19.6774     868.633     260.700    0.300000     2924.00     22.1801     508.197
     98.2000     13.3333     71.1203     5.68931  0.00226593     46.5217     2824.02     2523.16     19.6843     868.096     260.700    0.200000     2924.30     21.4953     508.018
     98.3000     20.0000     71.1198     5.22701  -0.000564575     46.4545     2823.99     2521.49     19.6733     867.380     260.500    0.201000     2924.82     21.5264     508.304
     98.4000    0.000000     71.1181     4.72022  -0.00170135     46.9293     2823.79     2519.71     19.6774     866.515     260.400    0.299000     2925.15     21.3087     508.197
     98.5000     3.33333     71.1215     4.17914  0.00340271     47.0668     2823.33     2518.51     19.6843     865.978     260.300    0.200000     2924.94     21.2464     508.018
