#------------------------------------------------------------
~VERSION INFORMATION
VERS.               2.0  :CWLS LOG ASCII STANDARD - VERSION 2.0
WRAP.                NO  :ONE LINE PER DEPTH STEP
#------------------------------------------------------------
~WELL INFORMATION
STRT.FT        0.100000  :FIRST INDEX VALUE
STOP.FT         110.000  :LAST INDEX VALUE
STEP.FT        0.100000  :STEP
NULL.            -99999  :NULL VALUE
COMP.                    :
WELL.                    :
FLD.                     :
LOC.                     :LOCATION
SRVC.              USGS  :SERVICE COMPANY
CTRY.                    :
STAT.                    :
CNTY.                    :
DATE.          05/06/18  :DATE
API.                     :
#------------------------------------------------------------
~CURVE INFORMATION
DEPT.FT                  :DEPTH
GAM(NAT).API-GR          :GAM(NAT)
TEMP.DEG_F               :TEMP
SP.MV                    :SP
DEL_TEMP.DEG_F           :DEL TEMP
IND_RES.OHM-M            :IND_RES
RES(16N).OHM-M           :RES(16N)
RES(64N).OHM-M           :RES(64N)
RES(FL).OHM/M            :RES(FL)
RES.OHM                  :RES
TENSION.CPS              :TENSION
TIME.SECONDS             :TIME
LATERAL.OHM-M            :LATERAL
COND.MMHO/M              :COND
SP_COND.µS/CM            :SP COND
#------------------------------------------------------------
~PARAMETER INFORMATION
sys_serial.    1         :sys serial
state.               TX  :state
fluid_ph.                :fluid ph
elev_gl.            984  :elev gl
other2serv.          ZE  :other2serv
casing_thick.         0  :casing thick
other1serv.          ZI  :other1serv
fluid_type.         H2O  :fluid type
other3serv.      ZM,OBI  :other3serv
temp_mud_filtrate.       :temp mud filtrate
RUN1.                    :RUN1
depth_driller.      110  :depth driller
section.             NA  :section
density_matrix.    2.71  :density matrix
RUN2.                    :RUN2
eng_units_or_cps.     E  :eng units or cps
fluid_density.           :fluid density
elev_df.             NA  :elev df
PROVINCE.                :PROVINCE
UNIQUE_WELL_ID.          :UNIQUE WELL ID
RUN3.                    :RUN3
township.            NA  :township
log_top.           0.90  :log top
delta_t_matrix.          :delta t matrix
RUN4.                    :RUN4
tool_serial_num.   2842  :tool serial num
field.            GAULT  :field
RUN5.                    :RUN5
bit_size.         7.875  :bit size
time.            18_50_  :time
RUN6.                    :RUN6
Name_Prn_AP.             :Name Prn AP
longitude.      97.7102  :longitude
fluid_viscosity.         :fluid viscosity
deltat_fluid.            :deltat fluid
elev_kb.             NA  :elev kb
permanent_datum.    LSD  :permanent datum
county.            BELL  :county
sys_version.   3.6XH     :sys version
logging_unit.       302  :logging unit
casing_diameter.    10.  :casing diameter
casing_type.        PVC  :casing type
file_type_id.    8144A   :file type id
temp_gradient.        0  :temp gradient
latitude.       30.8855  :latitude
feet_or_meter.        F  :feet or meter
mag_declination.      0  :mag declination
file_type.    ORIGINAL   :file type
mud_sample_source.   NA  :mud sample source
time_circ_stopped.   NA  :time circ stopped
mud_temp.            NA  :mud temp
res_mud_filtrate.        :res mud filtrate
remarks1.                :remarks1
company.                 :company
neutron_matrix. LIMESTONE  :neutron matrix
remarks2.                :remarks2
log_sample_int.     .10  :log sample int
elect_cutoff.      9999  :elect cutoff
range.               NA  :range
mean_surface_temp.       :mean surface temp
recorded_by.     THOMAS  :recorded by
mud_res.             NA  :mud res
log_bottom.      109.80  :log bottom
res_mud_cake.        NA  :res mud cake
elev_perm_datum.    984  :elev perm datum
truck_cal_num. 0.5956    :truck cal num
field_office.      USGS  :field office
log_meas_from.      LSD  :log meas from
drl_meas_from.       NA  :drl meas from
temp_mud_cake.           :temp mud cake
log_direction.        D  :log direction
casing_bottom.      110  :casing bottom
Cooperator. Clearwater UWCD  :Cooperator
Date_of_Logging. 05 / 06 / 2018  :Date of Logging
County.                  :County
Logging_probe_serial_number#1.   :Logging probe serial number#1
State.            Texas  :State
Well_Name.    M-14-001P  :Well Name
#------------------------------------------------------------
~OTHER
#------------------------------------------------------------
~A  DEPT[FT]    GAM(NAT)        TEMP          SP    DEL_TEMP     IND_RES    RES(16N)    RES(64N)     RES(FL)         RES     TENSION        TIME     LATERAL        COND     SP_COND
# ...
     53.8000     5.00000     88.1030     370.536  0.00203705     77.5734     479.923     857.068    -99999.0     3606.29     265.800    0.300000     354.208     12.8910    -99999.0
     53.9000     10.0000     88.1010     368.662  -0.00203705     79.7414     479.938     858.126    -99999.0     3606.29     265.600    0.200000     353.875     12.5405    -99999.0
     54.0000     6.66667     88.0933     367.265  -0.00763702     79.2751     479.991     859.099    -99999.0     3606.26     265.300    0.200000     353.622     12.6143    -99999.0
     54.1000     35.0000     88.0938     365.543  0.000511169     76.3707     479.945     860.281    -99999.0     3606.29     265.100    0.300000     353.167     13.0940    -99999.0
     54.2000     15.0000     88.0903     363.659  -0.00356293     85.9275     479.854     861.416    -99999.0     3606.29     265.200    0.200000     352.666     11.6377    -99999.0
     54.3000     15.0000     88.0842     362.447  -0.00611115     82.7834     479.968     860.953    -99999.0     3606.32     265.300    0.200000     352.974     12.0797    -99999.0
     54.4000     16.6667     88.0796     361.153  -0.00458527     70.4096     479.900     858.612    -99999.0     3606.26     265.400    0.300000     353.662     14.2026    -99999.0
     54.5000     40.0000     88.0826     359.591  0.00305176     78.8141     479.739     856.635    -99999.0     3606.29     265.600    0.200000     354.107     12.6881    -99999.0
     54.6000    0.000000     88.0786     358.605  -0.00406647     82.7834     479.785     855.067    -99999.0     3606.29     265.600    0.200000     354.691     12.0797    -99999.0
     54.7000     25.0000     88.0811     357.855  0.00254059     73.2705     479.670     838.869    -99999.0     3606.32     265.300    0.200000     359.938     13.6481    -99999.0
     54.8000     10.0000     88.0720     356.948  -0.00916290     81.1327     479.464     823.899    -99999.0     3606.26     265.000    0.300000     364.652     12.3255    -99999.0
     54.9000     10.0000     88.0704     356.057  -0.00152588     80.4512     479.418     811.617    -99999.0     3606.29     264.700    0.200000     368.685     12.4299    -99999.0
     55.0000     5.00000     88.0643     355.092  -0.00611115     75.8361     479.327     802.000    -99999.0     3606.29     264.400    0.200000     371.769     13.1863    -99999.0
     55.1000    0.000000     88.0643     354.051    0.000000     70.8710     479.143     794.400    -99999.0     3606.29     264.300    0.300000     374.058     14.1101    -99999.0
     55.2000     6.66667     88.0628     353.078  -0.00152588     76.3707     478.975     786.559    -99999.0     3606.29     264.300    0.200000     376.447     13.0940    -99999.0
     55.3000     5.00000     88.0582     352.133  -0.00458527     66.1028     478.914     780.264    -99999.0     3606.29     264.600    0.200000     378.464     15.1280    -99999.0
     55.4000     5.00000     88.0552     351.311  -0.00305176     65.3032     478.708     455.793    -99999.0     3606.29     264.500    0.200000     486.346     15.3132    -99999.0
     55.5000     6.66667     88.0552     350.277    0.000000     72.7778     478.471     202.742    -99999.0     3606.29     264.600    0.300000     570.380     13.7404    -99999.0
     55.6000     5.00000     88.0521     349.637  -0.00305939     66.9219     478.341     90.0201    -99999.0     3606.29     264.600    0.200000     607.781     14.9428    -99999.0
     55.7000     10.0000     88.0460     349.133  -0.00610352     64.1390     478.112     49.2430    -99999.0     3606.29     264.200    0.200000     621.068     15.5911    -99999.0
     55.8000     10.0000     88.0460     348.400    0.000000     65.7006     477.921     35.8103    -99999.0     3606.29     263.800    0.300000     625.291     15.2206    -99999.0
     55.9000     20.0000     88.0414     347.757  -0.00458527     68.1890     477.997     30.7045    -99999.0     3606.29     263.800    0.200000     627.095     14.6651    -99999.0
     56.0000     5.00000     88.0399     346.976  -0.00152588     64.1390     477.928     28.3176    -99999.0     3606.29     263.400    0.199000     627.799     15.5911    -99999.0
     56.1000     10.0000     88.0378     346.489  -0.00204468     68.1890     477.798     26.2475    -99999.0     3606.26     263.000    0.301000     628.315     14.6651    -99999.0
     56.2000     10.0000     88.0338     345.928  -0.00406647     64.5225     477.791     25.1197    -99999.0     3606.29     262.800    0.199000     628.681     15.4985    -99999.0
     56.3000     10.0000     88.0322     345.589  -0.00152588     65.3032     477.355     25.2588    -99999.0     3606.32     262.700    0.200000     628.054     15.3132    -99999.0
     56.4000     13.3333     88.0277     345.181  -0.00458527     61.2263     476.576     25.6913    -99999.0     3606.26     262.500    0.300000     626.871     16.3329    -99999.0
     56.5000     15.0000     88.0277     344.767    0.000000     59.2078     476.072     26.1393    -99999.0     3606.29     262.400    0.200000     626.049     16.8897    -99999.0
     56.6000     25.0000     88.0231     344.428  -0.00458527     64.3944     475.636     25.8149    -99999.0     3606.29     262.300    0.201000     625.577     15.5293    -99999.0
     56.7000     6.66667     88.0215     343.949  -0.00152588     60.4706     474.903     29.2600    -99999.0     3606.29     262.100    0.299000     623.450     16.5370    -99999.0
     56.8000     5.00000     88.0175     343.637  -0.00407410     63.3855     473.757     51.4908    -99999.0     3606.29     262.000    0.201000     614.512     15.7765    -99999.0
     56.9000     15.0000     88.0154     343.113  -0.00202942     56.9528     472.144     60.2039    -99999.0     3606.29     261.900    0.200000     609.458     17.5584    -99999.0
     57.0000     6.66667     88.0124     342.634  -0.00305939     65.7006     470.479     63.1392    -99999.0     3606.29     261.900    0.300000     606.259     15.2206    -99999.0
     57.1000    0.000000     88.0103     342.332  -0.00203705     62.3594     469.310     63.1701    -99999.0     3606.29     261.700    0.199000     604.690     16.0361    -99999.0
     57.2000     10.0000     88.0032     342.240  -0.00712585     61.5760     467.927     62.0809    -99999.0     3606.29     261.700    0.200000     603.209     16.2401    -99999.0
     57.3000     10.0000     88.0078     342.158  0.00457764     66.0219     465.642     60.6674    -99999.0     3606.26     261.800    0.200000     600.634     15.1465    -99999.0
     57.4000     10.0000     88.0012     341.777  -0.00661469     60.5385     274.496     59.4006    -99999.0     3606.32     262.000    0.300000     346.194     16.5184    -99999.0
     57.5000    0.000000     88.0002     341.397  -0.00101471     56.0626     124.379     58.4427    -99999.0     3606.29     261.900    0.200000     146.358     17.8372    -99999.0
     57.6000     15.0000     87.9956     341.202  -0.00458527     57.2762     58.4786     57.8866    -99999.0     3606.29     262.000    0.200000     58.6760     17.4592    -99999.0
     57.7000     20.0000     87.9900     341.038  -0.00559998     52.0450     35.9921     57.5004    -99999.0     3606.26     262.000    0.200000     28.8227     19.2141    -99999.0
     57.8000     13.3333     87.9925     340.997  0.00254059     50.2897     29.7650     57.5853    -99999.0     3606.29     261.900    0.200000     20.4915     19.8848    -99999.0
     57.9000     5.00000     87.9864     340.983  -0.00611115     47.8230     27.7631     57.5853    -99999.0     3606.29     261.600    0.300000     17.8224     20.9105    -99999.0
     58.0000     15.0000     87.9808     325.854  -0.00559235     46.2140     27.1213     57.7012    -99999.0     3606.32     261.500    0.200000     16.9280     21.6385    -99999.0
     58.1000     10.0000     87.9834     245.651  0.00254059     46.7791     26.7546     57.8557    -99999.0     2775.75     261.300    0.200000     16.3875     21.3771    -99999.0
     58.2000     5.00000     87.9788     192.549  -0.00458527     45.7272     26.6858     57.7012    -99999.0     1393.47     260.900    0.200000     16.3473     21.8688    -99999.0
