#------------------------------------------------------------
~VERSION INFORMATION
VERS.               2.0  :CWLS LOG ASCII STANDARD - VERSION 2.0
WRAP.                NO  :ONE LINE PER DEPTH STEP
#------------------------------------------------------------
~WELL INFORMATION
STRT.FT        0.100000  :FIRST INDEX VALUE
STOP.FT         110.000  :LAST INDEX VALUE
STEP.FT        0.100000  :STEP
NULL.            -99999  :NULL VALUE
COMP.                    :
WELL.                    :
FLD.                     :
LOC.                     :LOCATION
SRVC.              USGS  :SERVICE COMPANY
CTRY.                    :
STAT.                    :
CNTY.                    :
DATE.          05/06/18  :DATE
API.                     :
#------------------------------------------------------------
~CURVE INFORMATION
DEPT.FT                  :DEPTH
GAM(NAT).API-GR          :GAM(NAT)
TEMP.DEG_F               :TEMP
SP.MV                    :SP
DEL_TEMP.DEG_F           :DEL TEMP
IND_RES.OHM-M            :IND_RES
RES(16N).OHM-M           :RES(16N)
RES(64N).OHM-M           :RES(64N)
RES(FL).OHM/M            :RES(FL)
RES.OHM                  :RES
TENSION.CPS              :TENSION
TIME.SECONDS             :TIME
LATERAL.OHM-M            :LATERAL
COND.MMHO/M              :COND
SP_COND.µS/CM            :SP COND
#------------------------------------------------------------
~PARAMETER INFORMATION
sys_serial.    1         :sys serial
state.               TX  :state
fluid_ph.                :fluid ph
elev_gl.            984  :elev gl
other2serv.          ZE  :other2serv
casing_thick.         0  :casing thick
other1serv.          ZI  :other1serv
fluid_type.         H2O  :fluid type
other3serv.      ZM,OBI  :other3serv
temp_mud_filtrate.       :temp mud filtrate
RUN1.                    :RUN1
depth_driller.      110  :depth driller
section.             NA  :section
density_matrix.    2.71  :density matrix
RUN2.                    :RUN2
eng_units_or_cps.     E  :eng units or cps
fluid_density.           :fluid density
elev_df.             NA  :elev df
PROVINCE.                :PROVINCE
UNIQUE_WELL_ID.          :UNIQUE WELL ID
RUN3.                    :RUN3
township.            NA  :township
log_top.           0.90  :log top
delta_t_matrix.          :delta t matrix
RUN4.                    :RUN4
tool_serial_num.   2842  :tool serial num
field.            GAULT  :field
RUN5.                    :RUN5
bit_size.         7.875  :bit size
time.            18_50_  :time
RUN6.                    :RUN6
Name_Prn_AP.             :Name Prn AP
longitude.      97.7102  :longitude
fluid_viscosity.         :fluid viscosity
deltat_fluid.            :deltat fluid
elev_kb.             NA  :elev kb
permanent_datum.    LSD  :permanent datum
county.            BELL  :county
sys_version.   3.6XH     :sys version
logging_unit.       302  :logging unit
casing_diameter.    10.  :casing diameter
casing_type.        PVC  :casing type
file_type_id.    8144A   :file type id
temp_gradient.        0  :temp gradient
latitude.       30.8855  :latitude
feet_or_meter.        F  :feet or meter
mag_declination.      0  :mag declination
file_type.    ORIGINAL   :file type
mud_sample_source.   NA  :mud sample source
time_circ_stopped.   NA  :time circ stopped
mud_temp.            NA  :mud temp
res_mud_filtrate.        :res mud filtrate
remarks1.                :remarks1
company.                 :company
neutron_matrix. LIMESTONE  :neutron matrix
remarks2.                :remarks2
log_sample_int.     .10  :log sample int
elect_cutoff.      9999  :elect cutoff
range.               NA  :range
mean_surface_temp.       :mean surface temp
recorded_by.     THOMAS  :recorded by
mud_res.             NA  :mud res
log_bottom.      109.80  :log bottom
res_mud_cake.        NA  :res mud cake
elev_perm_datum.    984  :elev perm datum
truck_cal_num. 0.5956    :truck cal num
field_office.      USGS  :field office
log_meas_from.      LSD  :log meas from
drl_meas_from.       NA  :drl meas from
temp_mud_cake.           :temp mud cake
log_direction.        D  :log direction
casing_bottom.      110  :casing bottom
Cooperator. Clearwater UWCD  :Cooperator
Date_of_Logging. 05 / 06 / 2018  :Date of Logging
County.                  :County
Logging_probe_serial_number#1.   :Logging probe serial number#1
State.            Texas  :State
Well_Name.    M-14-001P  :Well Name
#------------------------------------------------------------
~OTHER
#------------------------------------------------------------
~A  DEPT[FT]    GAM(NAT)        TEMP          SP    DEL_TEMP     IND_RES    RES(16N)    RES(64N)     RES(FL)         RES     TENSION        TIME     LATERAL        COND     SP_COND
# ...
     13.6000     55.0000     89.1794    -86.9340  -0.00917053     47.2745     476.744     726.294    -99999.0     3606.20     267.600    0.200000     393.561     21.1531    -99999.0
     13.7000     45.0000     89.1733    -86.9545  -0.00610352     52.3495     476.759     726.386    -99999.0     3606.17     267.600    0.200000     393.550     19.1024    -99999.0
     13.8000     45.0000     89.1641    -86.9751  -0.00917053     49.8689     476.691     727.360    -99999.0     3606.17     267.700    0.200000     393.134     20.0526    -99999.0
     13.9000     35.0000     89.1595    -86.9956  -0.00458527     50.0861     476.782     728.982    -99999.0     3606.20     267.500    0.200000     392.716     19.9656    -99999.0
     14.0000     53.3333     89.1488    -86.8895  -0.0106888     55.0300     476.805     729.306    -99999.0     3606.17     267.400    0.300000     392.638     18.1719    -99999.0
     14.1000     55.0000     89.1396    -86.8621  -0.00916290     51.8440     476.866     728.217    -99999.0     3606.20     267.500    0.200000     393.083     19.2886    -99999.0
     14.2000     65.0000     89.1335    -86.8621  -0.00611115     58.9486     476.920     727.151    -99999.0     3606.20     267.500    0.200000     393.509     16.9639    -99999.0
     14.3000     50.0000     89.1244    -86.8518  -0.00916290     47.6953     476.943     727.020    -99999.0     3606.17     267.700    0.200000     393.584     20.9664    -99999.0
     14.4000     40.0000     89.1167    -86.8826  -0.00763702     47.4840     476.966     727.568    -99999.0     3606.17     267.900    0.300000     393.431     21.0597    -99999.0
     14.5000     43.3333     89.1152    -86.9134  -0.00153351     49.2282     477.057     726.919    -99999.0     3606.20     267.900    0.200000     393.770     20.3136    -99999.0
     14.6000     40.0000     89.0999    -86.9134  -0.0152740     40.9420     476.989     726.989    -99999.0     3606.17     267.600    0.200000     393.655     24.4248    -99999.0
     14.7000    0.000000     89.0923    -86.9032  -0.00762939     46.8472     476.958     728.086    -99999.0     3606.20     267.400    0.199000     393.249     21.3460    -99999.0
     14.8000     35.0000     89.0877    -86.9306  -0.00458527     45.0474     477.080     729.074    -99999.0     3606.17     266.900    0.301000     393.082     22.1988    -99999.0
     14.9000     5.00000     89.0831    -86.9340  -0.00458527     42.0705     477.103     729.885    -99999.0     3606.20     266.500    0.199000     392.842     23.7696    -99999.0
     15.0000     40.0000     89.0785    -87.0162  -0.00458527     48.7803     477.218     730.109    -99999.0     3606.17     266.400    0.200000     392.921     20.5001    -99999.0
     15.1000     20.0000     89.0724    -87.0162  -0.00610352     52.5544     477.241     729.677    -99999.0     3606.20     266.700    0.201000     393.095     19.0279    -99999.0
     15.2000     5.00000     89.0679    -87.0128  -0.00458527     54.7498     477.195     729.584    -99999.0     3606.17     267.100    0.299000     393.065     18.2649    -99999.0
     15.3000     25.0000     89.0572    -86.9340  -0.0106888     52.6401     477.218     729.538    -99999.0     3606.20     267.500    0.201000     393.111     18.9969    -99999.0
     15.4000     20.0000     89.0495    -86.9648  -0.00763702     67.8465     477.233     728.959    -99999.0     3606.17     267.900    0.200000     393.325     14.7392    -99999.0
     15.5000     25.0000     89.0404    -86.9854  -0.00917053     66.9219     477.172     727.452    -99999.0     3606.17     267.700    0.199000     393.745     14.9428    -99999.0
     15.6000     6.66667     89.0404    -86.9922    0.000000     75.9425     477.287     727.823    -99999.0     3606.20     267.400    0.300000     393.774     13.1679    -99999.0
     15.7000     15.0000     89.0327    -86.9340  -0.00763702     70.4096     477.195     728.912    -99999.0     3606.20     267.200    0.200000     393.289     14.2026    -99999.0
     15.8000     35.0000     89.0215    -86.9854  -0.0112000     68.2752     477.332     728.588    -99999.0     3606.17     266.900    0.200000     393.581     14.6466    -99999.0
     15.9000     35.0000     89.0174    -86.9751  -0.00407410     76.3707     477.432     727.105    -99999.0     3606.20     266.800    0.200000     394.207     13.0940    -99999.0
     16.0000     15.0000     89.0113    -87.0059  -0.00610352     69.5044     477.401     725.830    -99999.0     3606.17     266.600    0.200000     394.591     14.3876    -99999.0
     16.1000     5.00000     89.0037    -87.0059  -0.00764465     84.1957     477.424     725.707    -99999.0     3606.17     266.600    0.200000     394.663     11.8771    -99999.0
     16.2000     10.0000     88.9991    -87.1018  -0.00457764     69.6535     477.424     725.251    -99999.0     3606.20     266.400    0.300000     394.815     14.3568    -99999.0
     16.3000     3.33333     88.9950    -87.0984  -0.00407410     78.0201     477.432     726.039    -99999.0     3606.17     266.200    0.200000     394.563     12.8172    -99999.0
     16.4000    0.000000     88.9838    -86.9648  -0.0112000     77.0221     477.585     726.085    -99999.0     3606.20     266.200    0.200000     394.751     12.9833    -99999.0
     16.5000     20.0000     88.9793    -86.8313  -0.00458527     90.3557     477.493     725.367    -99999.0     3606.17     266.100    0.200000     394.868     11.0674    -99999.0
     16.6000     30.0000     88.9732    -86.8210  -0.00611115     78.0201     477.493     726.850    -99999.0     3606.21     266.400    0.200000     394.374     12.8172    -99999.0
     16.7000     20.0000     88.9670    -86.9237  -0.00611115     97.6499     477.661     729.584    -99999.0     3606.17     266.900    0.300000     393.687     10.2407    -99999.0
     16.8000     30.0000     88.9640    -86.9648  -0.00305176     79.8589     477.676     731.508    -99999.0     3606.20     267.100    0.200000     393.066     12.5221    -99999.0
     16.9000     25.0000     88.9513    -86.9237  -0.0127258     83.5479     477.745     731.716    -99999.0     3606.14     267.400    0.200000     393.088     11.9692    -99999.0
     17.0000     40.0000     88.9472    -86.8621  -0.00407410     83.4195     477.768     732.118    -99999.0     3606.19     267.700    0.200000     392.985     11.9876    -99999.0
     17.1000     20.0000     88.9441    -86.8963  -0.00305939     83.6334     477.768     733.153    -99999.0     3606.20     267.800    0.300000     392.640     11.9569    -99999.0
     17.2000     30.0000     88.9426    -86.9340  -0.00152588     74.7889     477.814     735.354    -99999.0     3606.17     267.800    0.200000     391.967     13.3710    -99999.0
     17.3000     10.0000     88.9350    -86.9340  -0.00763702     75.8361     477.745     737.927    -99999.0     3606.20     267.600    0.200000     391.018     13.1863    -99999.0
     17.4000     10.0000     88.9319    -86.9237  -0.00305176     82.7834     477.791     739.610    -99999.0     3606.17     267.600    0.200000     390.518     12.0797    -99999.0
     17.5000     15.0000     88.9258    -86.8758  -0.00611115     74.2759     477.707     739.108    -99999.0     3606.20     267.300    0.300000     390.573     13.4633    -99999.0
     17.6000     20.0000     88.9197    -86.8518  -0.00611115     88.8788     477.768     740.267    -99999.0     3606.17     267.100    0.200000     390.268     11.2513    -99999.0
     17.7000     5.00000     88.9151    -86.8313  -0.00457764     71.8119     477.814     740.406    -99999.0     3606.19     267.300    0.200000     390.283     13.9253    -99999.0
     17.8000     20.0000     88.9121    -86.8826  -0.00305939     74.4458     477.860     736.305    -99999.0     3606.17     267.200    0.300000     391.711     13.4326    -99999.0
     17.9000     33.3333     88.9075    -86.8929  -0.00458527     74.2759     477.745     734.080    -99999.0     3606.20     267.200    0.200000     392.300     13.4633    -99999.0
