#------------------------------------------------------------
~VERSION INFORMATION
VERS.               2.0  :CWLS LOG ASCII STANDARD - VERSION 2.0
WRAP.                NO  :ONE LINE PER DEPTH STEP
#------------------------------------------------------------
~WELL INFORMATION
STRT.FT        0.100000  :FIRST INDEX VALUE
STOP.FT         110.000  :LAST INDEX VALUE
STEP.FT        0.100000  :STEP
NULL.            -99999  :NULL VALUE
COMP.                    :
WELL.                    :
FLD.                     :
LOC.                     :LOCATION
SRVC.              USGS  :SERVICE COMPANY
CTRY.                    :
STAT.                    :
CNTY.                    :
DATE.          05/06/18  :DATE
API.                     :
#------------------------------------------------------------
~CURVE INFORMATION
DEPT.FT                  :DEPTH
GAM(NAT).API-GR          :GAM(NAT)
TEMP.DEG_F               :TEMP
SP.MV                    :SP
DEL_TEMP.DEG_F           :DEL TEMP
IND_RES.OHM-M            :IND_RES
RES(16N).OHM-M           :RES(16N)
RES(64N).OHM-M           :RES(64N)
RES(FL).OHM/M            :RES(FL)
RES.OHM                  :RES
TENSION.CPS              :TENSION
TIME.SECONDS             :TIME
LATERAL.OHM-M            :LATERAL
COND.MMHO/M              :COND
SP_COND.µS/CM            :SP COND
#------------------------------------------------------------
~PARAMETER INFORMATION
sys_serial.    1         :sys serial
state.               TX  :state
fluid_ph.                :fluid ph
elev_gl.            984  :elev gl
other2serv.          ZE  :other2serv
casing_thick.         0  :casing thick
other1serv.          ZI  :other1serv
fluid_type.         H2O  :fluid type
other3serv.      ZM,OBI  :other3serv
temp_mud_filtrate.       :temp mud filtrate
RUN1.                    :RUN1
depth_driller.      110  :depth driller
section.             NA  :section
density_matrix.    2.71  :density matrix
RUN2.                    :RUN2
eng_units_or_cps.     E  :eng units or cps
fluid_density.           :fluid density
elev_df.             NA  :elev df
PROVINCE.                :PROVINCE
UNIQUE_WELL_ID.          :UNIQUE WELL ID
RUN3.                    :RUN3
township.            NA  :township
log_top.           0.90  :log top
delta_t_matrix.          :delta t matrix
RUN4.                    :RUN4
tool_serial_num.   2842  :tool serial num
field.            GAULT  :field
RUN5.                    :RUN5
bit_size.         7.875  :bit size
time.            18_50_  :time
RUN6.                    :RUN6
Name_Prn_AP.             :Name Prn AP
longitude.      97.7102  :longitude
fluid_viscosity.         :fluid viscosity
deltat_fluid.            :deltat fluid
elev_kb.             NA  :elev kb
permanent_datum.    LSD  :permanent datum
county.            BELL  :county
sys_version.   3.6XH     :sys version
logging_unit.       302  :logging unit
casing_diameter.    10.  :casing diameter
casing_type.        PVC  :casing type
file_type_id.    8144A   :file type id
temp_gradient.        0  :temp gradient
latitude.       30.8855  :latitude
feet_or_meter.        F  :feet or meter
mag_declination.      0  :mag declination
file_type.    ORIGINAL   :file type
mud_sample_source.   NA  :mud sample source
time_circ_stopped.   NA  :time circ stopped
mud_temp.            NA  :mud temp
res_mud_filtrate.        :res mud filtrate
remarks1.                :remarks1
company.                 :company
neutron_matrix. LIMESTONE  :neutron matrix
remarks2.                :remarks2
log_sample_int.     .10  :log sample int
elect_cutoff.      9999  :elect cutoff
range.               NA  :range
mean_surface_temp.       :mean surface temp
recorded_by.     THOMAS  :recorded by
mud_res.             NA  :mud res
log_bottom.      109.80  :log bottom
res_mud_cake.        NA  :res mud cake
elev_perm_datum.    984  :elev perm datum
truck_cal_num. 0.5956    :truck cal num
field_office.      USGS  :field office
log_meas_from.      LSD  :log meas from
drl_meas_from.       NA  :drl meas from
temp_mud_cake.           :temp mud cake
log_direction.        D  :log direction
casing_bottom.      110  :casing bottom
Cooperator. Clearwater UWCD  :Cooperator
Date_of_Logging. 05 / 06 / 2018  :Date of Logging
County.                  :County
Logging_probe_serial_number#1.   :Logging probe serial number#1
State.            Texas  :State
Well_Name.    M-14-001P  :Well Name
#------------------------------------------------------------
~OTHER
#------------------------------------------------------------
~A  DEPT[FT]    GAM(NAT)        TEMP          SP    DEL_TEMP     IND_RES    RES(16N)    RES(64N)     RES(FL)         RES     TENSION        TIME     LATERAL        COND     SP_COND
# ...
     71.8000    0.000000     71.4786     142.368  -0.00849915     25.3195     153.422     223.250     19.9931     140.800     259.600    0.299000     130.145     39.4952     500.172
     71.9000     6.66667     71.4837     142.344  0.00509644     25.5646     148.027     213.703     19.9613     139.517     259.700    0.200000     126.135     39.1166     500.970
     72.0000    0.000000     71.4752     142.323  -0.00849915     23.8871     143.726     205.253     19.9350     138.712     259.800    0.201000     123.217     41.8636     501.631
     72.1000     20.0000     71.4741     142.210  -0.00113678     23.3580     141.388     197.644     19.9059     138.413     259.900    0.299000     122.635     42.8119     502.364
     72.2000     10.0000     71.4650     142.159  -0.00907135     22.8417     139.989     191.248     19.8893     137.697     259.700    0.201000     122.903     43.7796     502.784
     72.3000     10.0000     71.4650     142.128    0.000000     23.5563     139.416     183.238     19.8602     136.057     259.500    0.200000     124.809     42.4515     503.520
     72.4000     10.0000     71.4599     142.018  -0.00510406     22.8022     139.714     175.514     19.8422     134.326     259.200    0.300000     127.781     43.8555     503.977
     72.5000     20.0000     71.4582     141.953  -0.00169373     22.2155     140.860     169.767     19.8270     132.895     259.200    0.200000     131.225     45.0136     504.364
     72.6000    0.000000     71.4525     142.005  -0.00567627     22.8913     142.350     164.066     19.8103     132.020     259.000    0.199000     135.112     43.6847     504.787
     72.7000     10.0000     71.4446     142.005  -0.00793457     22.1781     144.344     156.759     19.7937     131.761     258.900    0.200000     140.206     45.0896     505.211
     72.8000     3.33333     71.4412     141.998  -0.00340271     21.8015     146.109     149.629     19.7854     131.045     259.100    0.300000     144.936     45.8684     505.423
     72.9000     5.00000     71.4378     141.933  -0.00339508     22.2155     147.164     144.647     19.7771     130.210     259.200    0.200000     148.003     45.0136     505.635
     73.0000     10.0000     71.4310     141.768  -0.00680542     21.2726     147.890     141.341     19.7730     129.703     259.500    0.200000     150.073     47.0087     505.741
     73.1000     15.0000     71.4276     141.621  -0.00339508     21.0176     148.012     145.087     19.7522     129.653     259.700    0.300000     148.987     47.5791     506.273
     73.2000     10.0000     71.4265     141.491  -0.00113678     21.2297     147.508     153.777     19.7646     130.777     259.600    0.200000     145.418     47.1038     505.954
     73.3000     16.6667     71.4259     141.419  -0.000572205     20.6058     145.307     167.125     19.7522     131.284     259.500    0.201000     138.035     48.5301     506.273
     73.4000     15.0000     71.4174     141.265  -0.00849915     21.1019     133.800     180.334     19.7480     131.324     259.200    0.299000     118.289     47.3890     506.380
     73.5000     30.0000     71.4174     141.214    0.000000     20.9339     122.362     190.043     19.7314     131.314     258.800    0.200000     99.8019     47.7693     506.806
     73.6000     13.3333     71.4157     141.152  -0.00170135     21.8105     111.688     198.223     19.7314     131.612     258.800    0.200000     82.8432     45.8494     506.806
     73.7000     5.00000     71.4140     141.046  -0.00170135     21.3157     103.566     201.607     19.7356     132.716     258.800    0.300000     70.8861     46.9137     506.699
     73.8000     40.0000     71.4089     141.039  -0.00509644     21.5339     98.5692     200.842     19.7273     133.491     259.100    0.200000     64.4783     46.4385     506.913
     73.9000     33.3333     71.4038     140.936  -0.00510406     20.6381     94.6037     196.246     19.7176     133.193     259.400    0.200000     60.7230     48.4540     507.162
     74.0000     15.0000     71.4038     140.806    0.000000     21.2297     90.6611     186.776     19.7106     132.557     259.700    0.300000     58.6229     47.1038     507.340
     74.1000     5.00000     71.3959     140.649  -0.00793457     20.8097     87.5666     172.393     19.7190     130.687     259.700    0.200000     59.2912     48.0546     507.126
     74.2000     10.0000     71.3919     140.505  -0.00397491     20.6868     85.5037     158.087     19.7148     129.315     259.300    0.200000     61.3091     48.3399     507.233
     74.3000     25.0000     71.3885     140.224  -0.00339508     21.0092     83.3261     148.192     19.7190     128.460     258.900    0.300000     61.7039     47.5982     507.126
     74.4000     20.0000     71.3851     140.053  -0.00340271     21.0176     81.5152     138.298     19.7010     127.376     258.700    0.200000     62.5878     47.5791     507.590
     74.5000     26.6667     71.3834     139.792  -0.00170135     21.0597     80.1628     130.882     19.7023     126.093     258.600    0.300000     63.2564     47.4841     507.554
     74.6000    0.000000     71.3822     139.621  -0.00112915     21.0513     79.0167     126.780     19.7106     125.288     258.800    0.200000     63.0955     47.5031     507.340
     74.7000     40.0000     71.3749     139.477  -0.00737762     20.7276     77.6567     123.250     19.6926     124.900     259.000    0.200000     62.4588     48.2448     507.804
     74.8000     50.0000     71.3749     139.354    0.000000     20.4375     76.3807     120.663     19.7023     125.139     259.400    0.300000     61.6200     48.9297     507.554
     74.9000     23.3333     71.3675     139.159  -0.00737000     21.5339     75.5326     119.041     19.6982     125.258     259.600    0.200000     61.0299     46.4385     507.661
     75.0000     10.0000     71.3681     138.995  0.000572205     20.6381     74.8144     117.473     19.6954     124.244     259.700    0.200000     60.5950     48.4540     507.732
     75.1000     30.0000     71.3664     138.751  -0.00170135     21.2297     74.7532     116.167     19.6857     123.170     259.600    0.300000     60.9486     47.1038     507.982
     75.2000     20.0000     71.3596     138.409  -0.00680542     20.3190     75.1429     115.055     19.6857     122.514     259.300    0.200000     61.8389     49.2151     507.982
     75.3000     50.0000     71.3562     138.306  -0.00340271     20.4454     75.9299     113.827     19.6899     122.394     259.300    0.200000     63.2977     48.9107     507.875
     75.4000     30.0000     71.3562     138.173    0.000000     20.0859     76.9767     112.390     19.6899     122.613     259.100    0.200000     65.1723     49.7861     507.875
     75.5000     15.0000     71.3505     137.998  -0.00566864     20.2018     77.7789     110.976     19.6774     121.857     259.100    0.300000     66.7132     49.5006     508.197
     75.6000     33.3333     71.3511     137.762  0.000572205     20.2485     78.2374     110.026     19.6788     120.604     259.300    0.200000     67.6411     49.3864     508.161
     75.7000     20.0000     71.3460     137.536  -0.00510406     19.7090     77.7331     108.914     19.6857     119.550     259.200    0.200000     67.3395     50.7381     507.982
     75.8000     10.0000     71.3460     137.286    0.000000     19.3816     76.6787     107.778     19.6733     119.083     259.100    0.300000     66.3121     51.5953     508.304
     75.9000     16.6667     71.3409     137.032  -0.00510406     18.5984     74.5393     106.852     19.6650     119.411     259.200    0.200000     63.7686     53.7681     508.519
     76.0000     15.0000     71.3409     136.909    0.000000     18.7984     71.5212     105.855     19.6733     119.212     259.100    0.200000     60.0766     53.1961     508.304
     76.1000     15.0000     71.3375     136.734  -0.00340271     17.8936     67.4946     104.998     19.6733     118.337     259.100    0.200000     54.9936     55.8858     508.304
