#------------------------------------------------------------
~VERSION INFORMATION
VERS.               2.0  :CWLS LOG ASCII STANDARD - VERSION 2.0
WRAP.                NO  :ONE LINE PER DEPTH STEP
#------------------------------------------------------------
~WELL INFORMATION
STRT.FT        0.100000  :FIRST INDEX VALUE
STOP.FT         110.000  :LAST INDEX VALUE
STEP.FT        0.100000  :STEP
NULL.            -99999  :NULL VALUE
COMP.                    :
WELL.                    :
FLD.                     :
LOC.                     :LOCATION
SRVC.              USGS  :SERVICE COMPANY
CTRY.                    :
STAT.                    :
CNTY.                    :
DATE.          05/06/18  :DATE
API.                     :
#------------------------------------------------------------
~CURVE INFORMATION
DEPT.FT                  :DEPTH
GAM(NAT).API-GR          :GAM(NAT)
TEMP.DEG_F               :TEMP
SP.MV                    :SP
DEL_TEMP.DEG_F           :DEL TEMP
IND_RES.OHM-M            :IND_RES
RES(16N).OHM-M           :RES(16N)
RES(64N).OHM-M           :RES(64N)
RES(FL).OHM/M            :RES(FL)
RES.OHM                  :RES
TENSION.CPS              :TENSION
TIME.SECONDS             :TIME
LATERAL.OHM-M            :LATERAL
COND.MMHO/M              :COND
SP_COND.µS/CM            :SP COND
#------------------------------------------------------------
~PARAMETER INFORMATION
sys_serial.    1         :sys serial
state.               TX  :state
fluid_ph.                :fluid ph
elev_gl.            984  :elev gl
other2serv.          ZE  :other2serv
casing_thick.         0  :casing thick
other1serv.          ZI  :other1serv
fluid_type.         H2O  :fluid type
other3serv.      ZM,OBI  :other3serv
temp_mud_filtrate.       :temp mud filtrate
RUN1.                    :RUN1
depth_driller.      110  :depth driller
section.             NA  :section
density_matrix.    2.71  :density matrix
RUN2.                    :RUN2
eng_units_or_cps.     E  :eng units or cps
fluid_density.           :fluid density
elev_df.             NA  :elev df
PROVINCE.                :PROVINCE
UNIQUE_WELL_ID.          :UNIQUE WELL ID
RUN3.                    :RUN3
township.            NA  :township
log_top.           0.90  :log top
delta_t_matrix.          :delta t matrix
RUN4.                    :RUN4
tool_serial_num.   2842  :tool serial num
field.            GAULT  :field
RUN5.                    :RUN5
bit_size.         7.875  :bit size
time.            18_50_  :time
RUN6.                    :RUN6
Name_Prn_AP.             :Name Prn AP
longitude.      97.7102  :longitude
fluid_viscosity.         :fluid viscosity
deltat_fluid.            :deltat fluid
elev_kb.             NA  :elev kb
permanent_datum.    LSD  :permanent datum
county.            BELL  :county
sys_version.   3.6XH     :sys version
logging_unit.       302  :logging unit
casing_diameter.    10.  :casing diameter
casing_type.        PVC  :casing type
file_type_id.    8144A   :file type id
temp_gradient.        0  :temp gradient
latitude.       30.8855  :latitude
feet_or_meter.        F  :feet or meter
mag_declination.      0  :mag declination
file_type.    ORIGINAL   :file type
mud_sample_source.   NA  :mud sample source
time_circ_stopped.   NA  :time circ stopped
mud_temp.            NA  :mud temp
res_mud_filtrate.        :res mud filtrate
remarks1.                :remarks1
company.                 :company
neutron_matrix. LIMESTONE  :neutron matrix
remarks2.                :remarks2
log_sample_int.     .10  :log sample int
elect_cutoff.      9999  :elect cutoff
range.               NA  :range
mean_surface_temp.       :mean surface temp
recorded_by.     THOMAS  :recorded by
mud_res.             NA  :mud res
log_bottom.      109.80  :log bottom
res_mud_cake.        NA  :res mud cake
elev_perm_datum.    984  :elev perm datum
truck_cal_num. 0.5956    :truck cal num
field_office.      USGS  :field office
log_meas_from.      LSD  :log meas from
drl_meas_from.       NA  :drl meas from
temp_mud_cake.           :temp mud cake
log_direction.        D  :log direction
casing_bottom.      110  :casing bottom
Cooperator. Clearwater UWCD  :Cooperator
Date_of_Logging. 05 / 06 / 2018  :Date of Logging
County.                  :County
Logging_probe_serial_number#1.   :Logging probe serial number#1
State.            Texas  :State
Well_Name.    M-14-001P  :Well Name
#------------------------------------------------------------
~OTHER
#------------------------------------------------------------
~A  DEPT[FT]    GAM(NAT)        TEMP          SP    DEL_TEMP     IND_RES    RES(16N)    RES(64N)     RES(FL)         RES     TENSION        TIME     LATERAL        COND     SP_COND
# ...
     85.1000     10.0000     71.1878     121.253  -0.00623322     28.9503     75.5937     59.7173     19.6843     130.985     259.400    0.200000     80.8859     34.5419     508.018
     85.2000     10.0000     71.1912     120.965  0.00340271     29.4874     77.7102     59.3928     19.6733     132.716     259.300    0.300000     83.8160     33.9128     508.304
     85.3000    0.000000     71.1895     120.636  -0.00170135     30.6698     79.4293     59.0452     19.6525     133.253     259.400    0.200000     86.2240     32.6053     508.841
     85.4000     25.0000     71.1912     120.359  0.00170135     30.7409     81.4923     58.6745     19.6733     133.581     259.300    0.200000     89.0983     32.5299     508.304
     85.5000     13.3333     71.1878     120.088  -0.00340271     32.3522     83.5553     58.4659     19.6940     134.058     259.700    0.300000     91.9184     30.9098     507.768
     85.6000     5.00000     71.1884     119.660  0.000564575     32.4312     85.1828     58.0565     19.6857     135.380     260.000    0.200000     94.2248     30.8345     507.982
     85.7000     5.00000     71.1861     119.321  -0.00226593     31.6453     87.2839     57.7476     19.6816     136.862     259.800    0.300000     97.1294     31.6002     508.090
     85.8000     13.3333     71.1810     118.962  -0.00510406     33.0912     89.4233     57.4926     19.6705     137.469     259.900    0.200000     100.067     30.2195     508.376
     85.9000    0.000000     71.1861     118.592  0.00510406     33.6925     91.0966     57.3304     19.6816     137.339     259.700    0.200000     102.352     29.6802     508.090
     86.0000     6.66667     71.1827     118.253  -0.00340271     34.5237     93.2589     57.2609     19.6774     137.369     259.800    0.300000     105.258     28.9656     508.197
     86.1000    0.000000     71.1827     117.976    0.000000     35.6176     95.2914     56.9597     19.6843     137.946     260.100    0.200000     108.069     28.0760     508.018
     86.2000     10.0000     71.1793     117.739  -0.00339508     36.1822     96.9417     56.4035     19.6816     139.070     260.100    0.200000     110.454     27.6379     508.090
     86.3000     10.0000     71.1793     117.506    0.000000     36.0841     98.5004     55.8242     19.6899     139.577     260.000    0.300000     112.726     27.7130     507.875
     86.4000     30.0000     71.1827     117.184  0.00339508     38.7989     100.380     54.8123     19.6733     139.577     259.800    0.200000     115.569     25.7739     508.304
     86.5000     15.0000     71.1793     116.842  -0.00339508     34.8098     102.076     53.4373     19.6816     139.666     259.900    0.300000     118.289     28.7276     508.090
     86.6000     6.66667     71.1770     116.496  -0.00227356     39.0832     103.291     51.7689     19.6816     140.412     259.900    0.200000     120.465     25.5864     508.090
     86.7000    0.000000     71.1742     116.332  -0.00283051     37.5422     104.659     48.4783     19.6774     142.420     260.000    0.200000     123.386     26.6367     508.197
     86.8000    0.000000     71.1748     116.006  0.000564575     38.0423     105.881     43.5887     19.6733     144.439     260.000    0.300000     126.646     26.2865     508.304
     86.9000     10.0000     71.1810     115.736  0.00623322     37.9701     106.982     37.8418     19.6788     145.334     259.800    0.200000     130.028     26.3365     508.161
     87.0000     5.00000     71.1759     115.531  -0.00509644     38.5002     108.082     28.5957     19.6857     145.662     259.600    0.199000     134.577     25.9739     507.982
     87.1000    0.000000     71.1714     115.281  -0.00453186     38.1695     109.274     20.3692     19.6816     146.338     259.600    0.301000     138.909     26.1989     508.090
     87.2000    0.000000     71.1725     115.058  0.00112915     41.9274     110.237     14.8772     19.6691     147.333     259.800    0.199000     142.023     23.8507     508.412
     87.3000     6.66667     71.1714     114.863  -0.00112915     39.9415     111.428     10.0108     19.6816     148.526     260.300    0.201000     145.234     25.0366     508.090
     87.4000    0.000000     71.1691     114.589  -0.00227356     39.3136     112.666     4.83547     19.6705     149.321     260.600    0.299000     148.610     25.4365     508.376
     87.5000    0.000000     71.1691     114.287    0.000000     39.8420     113.514    0.393944     19.6733     149.182     260.700    0.201000     151.221     25.0991     508.304
     87.6000     13.3333     71.1680     114.020  -0.00112915     40.3438     114.240    -2.52588     19.6774     148.615     260.500    0.200000     153.162     24.7869     508.197
     87.7000     10.0000     71.1657     113.657  -0.00227356     39.4492     114.729    -5.14444     19.6788     148.625     260.000    0.300000     154.687     25.3491     508.161
     87.8000    0.000000     71.1640     113.373  -0.00170135     40.4458     114.867    -7.83253     19.6733     149.093     259.900    0.200000     155.767     24.7245     508.304
     87.9000     10.0000     71.1657     113.116  0.00170135     40.1417     114.943    -10.2889     19.6733     149.480     259.900    0.199000     156.687     24.9118     508.304
     88.0000     5.00000     71.1623     112.849  -0.00340271     40.4458     115.027    -11.8878     19.6816     149.003     259.800    0.200000     157.332     24.7245     508.090
     88.1000     40.0000     71.1691     112.472  0.00680542     41.2795     114.790    -13.5022     19.6857     147.720     260.000    0.300000     157.555     24.2251     507.982
     88.2000     83.3333     71.1657     112.243  -0.00340271     39.7234     114.569    -14.8772     19.6733     147.064     259.900    0.200000     157.717     25.1741     508.304
     88.3000     30.0000     71.1623     112.007  -0.00340271     41.3862     114.225    -15.9431     19.6816     146.676     259.900    0.200000     157.614     24.1627     508.090
     88.4000     50.0000     71.1589     111.658  -0.00339508     40.1417     113.644    -16.7079     19.6733     146.915     260.100    0.300000     157.095     24.9118     508.304
     88.5000     13.3333     71.1623     111.380  0.00339508     39.0450     113.056    -17.1713     19.6816     146.825     260.100    0.200000     156.465     25.6115     508.090
     88.6000     40.0000     71.1589     111.092  -0.00339508     40.0412     112.552    -17.4108     19.6774     145.602     260.400    0.200000     155.872     24.9743     508.197
     88.7000     20.0000     71.1640     110.719  0.00509644     39.9214     112.131    -17.5189     19.6760     144.499     260.500    0.300000     155.348     25.0492     508.233
     88.8000     16.6667     71.1555     110.373  -0.00849915     39.6250     112.299    -17.4031     19.6774     144.369     260.400    0.200000     155.534     25.2366     508.197
     88.9000     20.0000     71.1589     110.147  0.00340271     41.8182     112.483    -17.0400     19.6816     145.006     260.400    0.200000     155.657     23.9130     508.090
     89.0000     16.6667     71.1606     109.651  0.00170135     40.4254     112.498    -16.4530     19.6788     145.483     260.300    0.300000     155.482     24.7369     508.161
     89.1000     25.0000     71.1572     109.069  -0.00340271     40.4152     113.927    -15.5260     19.6816     145.364     260.400    0.200000     157.078     24.7432     508.090
     89.2000     30.0000     71.1544     108.637  -0.00283813     40.7545     116.242    -14.2515     19.6857     145.543     260.200    0.200000     159.740     24.5372     507.982
     89.3000     33.3333     71.1555     107.918  0.00113678     37.3144     119.703    -13.0002     19.6926     147.243     259.900    0.300000     163.938     26.7993     507.804
     89.4000     15.0000     71.1504     107.106  -0.00510406     38.9501     126.037    -11.1849     19.6774     155.347     259.700    0.200000     171.778     25.6739     508.197
     89.5000     25.0000     71.1566     105.891  0.00623322     38.3894     135.107    -9.03754     19.6857     176.268     259.400    0.300000     183.155     26.0489     507.982
