#------------------------------------------------------------
~VERSION INFORMATION
VERS.               2.0  :CWLS LOG ASCII STANDARD - VERSION 2.0
WRAP.                NO  :ONE LINE PER DEPTH STEP
#------------------------------------------------------------
~WELL INFORMATION
STRT.FT        0.100000  :FIRST INDEX VALUE
STOP.FT         110.000  :LAST INDEX VALUE
STEP.FT        0.100000  :STEP
NULL.            -99999  :NULL VALUE
COMP.                    :
WELL.                    :
FLD.                     :
LOC.                     :LOCATION
SRVC.              USGS  :SERVICE COMPANY
CTRY.                    :
STAT.                    :
CNTY.                    :
DATE.          05/06/18  :DATE
API.                     :
#------------------------------------------------------------
~CURVE INFORMATION
DEPT.FT                  :DEPTH
GAM(NAT).API-GR          :GAM(NAT)
TEMP.DEG_F               :TEMP
SP.MV                    :SP
DEL_TEMP.DEG_F           :DEL TEMP
IND_RES.OHM-M            :IND_RES
RES(16N).OHM-M           :RES(16N)
RES(64N).OHM-M           :RES(64N)
RES(FL).OHM/M            :RES(FL)
RES.OHM                  :RES
TENSION.CPS              :TENSION
TIME.SECONDS             :TIME
LATERAL.OHM-M            :LATERAL
COND.MMHO/M              :COND
SP_COND.µS/CM            :SP COND
#------------------------------------------------------------
~PARAMETER INFORMATION
sys_serial.    1         :sys serial
state.               TX  :state
fluid_ph.                :fluid ph
elev_gl.            984  :elev gl
other2serv.          ZE  :other2serv
casing_thick.         0  :casing thick
other1serv.          ZI  :other1serv
fluid_type.         H2O  :fluid type
other3serv.      ZM,OBI  :other3serv
temp_mud_filtrate.       :temp mud filtrate
RUN1.                    :RUN1
depth_driller.      110  :depth driller
section.             NA  :section
density_matrix.    2.71  :density matrix
RUN2.                    :RUN2
eng_units_or_cps.     E  :eng units or cps
fluid_density.           :fluid density
elev_df.             NA  :elev df
PROVINCE.                :PROVINCE
UNIQUE_WELL_ID.          :UNIQUE WELL ID
RUN3.                    :RUN3
township.            NA  :township
log_top.           0.90  :log top
delta_t_matrix.          :delta t matrix
RUN4.                    :RUN4
tool_serial_num.   2842  :tool serial num
field.            GAULT  :field
RUN5.                    :RUN5
bit_size.         7.875  :bit size
time.            18_50_  :time
RUN6.                    :RUN6
Name_Prn_AP.             :Name Prn AP
longitude.      97.7102  :longitude
fluid_viscosity.         :fluid viscosity
deltat_fluid.            :deltat fluid
elev_kb.             NA  :elev kb
permanent_datum.    LSD  :permanent datum
county.            BELL  :county
sys_version.   3.6XH     :sys version
logging_unit.       302  :logging unit
casing_diameter.    10.  :casing diameter
casing_type.        PVC  :casing type
file_type_id.    8144A   :file type id
temp_gradient.        0  :temp gradient
latitude.       30.8855  :latitude
feet_or_meter.        F  :feet or meter
mag_declination.      0  :mag declination
file_type.    ORIGINAL   :file type
mud_sample_source.   NA  :mud sample source
time_circ_stopped.   NA  :time circ stopped
mud_temp.            NA  :mud temp
res_mud_filtrate.        :res mud filtrate
remarks1.                :remarks1
company.                 :company
neutron_matrix. LIMESTONE  :neutron matrix
remarks2.                :remarks2
log_sample_int.     .10  :log sample int
elect_cutoff.      9999  :elect cutoff
range.               NA  :range
mean_surface_temp.       :mean surface temp
recorded_by.     THOMAS  :recorded by
mud_res.             NA  :mud res
log_bottom.      109.80  :log bottom
res_mud_cake.        NA  :res mud cake
elev_perm_datum.    984  :elev perm datum
truck_cal_num. 0.5956    :truck cal num
field_office.      USGS  :field office
log_meas_from.      LSD  :log meas from
drl_meas_from.       NA  :drl meas from
temp_mud_cake.           :temp mud cake
log_direction.        D  :log direction
casing_bottom.      110  :casing bottom
Cooperator. Clearwater UWCD  :Cooperator
Date_of_Logging. 05 / 06 / 2018  :Date of Logging
County.                  :County
Logging_probe_serial_number#1.   :Logging probe serial number#1
State.            Texas  :State
Well_Name.    M-14-001P  :Well Name
#------------------------------------------------------------
~OTHER
#------------------------------------------------------------
~A  DEPT[FT]    GAM(NAT)        TEMP          SP    DEL_TEMP     IND_RES    RES(16N)    RES(64N)     RES(FL)         RES     TENSION        TIME     LATERAL        COND     SP_COND
# ...
     4.60000    0.000000    -99999.0    -86.9391    -99999.0    -99999.0    0.000000     743.621    -99999.0    0.000000     267.100    0.399000    -271.309    -99999.0    -99999.0
     4.70000    0.000000    -99999.0    -87.0950    -99999.0    -99999.0    0.000000     743.317    -99999.0    0.000000     266.900    0.300000    -271.208    -99999.0    -99999.0
     4.80000    0.000000    -99999.0    -87.1086    -99999.0    -99999.0    0.000000     743.056    -99999.0    0.000000     266.700    0.301000    -271.121    -99999.0    -99999.0
     4.90000    0.000000    -99999.0    -87.0950    -99999.0    -99999.0    0.000000     742.631    -99999.0    0.000000     266.400    0.300000    -270.979    -99999.0    -99999.0
     5.00000    0.000000    -99999.0    -87.0950    -99999.0     70.2267    0.000000     743.210    -99999.0    0.000000     266.400    0.299000    -271.172     14.2396    -99999.0
     5.10000    0.000000    -99999.0    -87.1018    -99999.0     66.3464    0.000000     743.785    -99999.0    0.000000     266.500    0.300000    -271.364     15.0724    -99999.0
     5.20000    0.000000    -99999.0    -87.1018    -99999.0     62.8683    0.000000     743.762    -99999.0    0.000000     266.400    0.300000    -271.356     15.9063    -99999.0
     5.30000    0.000000    -99999.0    -87.0881    -99999.0     68.3611    0.000000     744.364    -99999.0    0.000000     266.400    0.300000    -271.557     14.6282    -99999.0
     5.40000    0.000000    -99999.0    -87.0881    -99999.0     60.4706    0.000000     744.997    -99999.0    0.000000     266.300    0.200000    -271.768     16.5370    -99999.0
     5.50000    0.000000    -99999.0    -87.1360    -99999.0     67.8465     479.310     745.551    -99999.0    0.000000     266.600    0.300000     390.563     14.7392    -99999.0
     5.60000    0.000000    -99999.0    -87.1086    -99999.0     59.6669     479.300     745.679    -99999.0    0.000000     266.700    0.200000     390.508     16.7597    -99999.0
     5.70000    0.000000    -99999.0    -87.0881    -99999.0     64.7547     479.235     745.374    -99999.0    0.000000     266.800    0.300000     390.522     15.4429    -99999.0
     5.80000    0.000000    -99999.0    -87.1292    -99999.0     58.0587     479.223     745.506    -99999.0    0.000000     267.000    0.200000     390.462     17.2240    -99999.0
     5.90000    0.000000    -99999.0    -87.1189    -99999.0     57.5005     479.209     745.523    -99999.0    0.000000     267.000    0.200000     390.437     17.3912    -99999.0
     6.00000    0.000000    -99999.0    -87.1292    -99999.0     57.1949     479.223     745.713    -99999.0    0.000000     267.400    0.300000     390.394     17.4841    -99999.0
     6.10000    0.000000    -99999.0    -87.1703    -99999.0     51.9444     479.178     746.004    -99999.0    0.000000     267.400    0.200000     390.236     19.2514    -99999.0
     6.20000    0.000000    -99999.0    -87.1600    -99999.0     51.1038     479.178     745.960    -99999.0     3606.19     267.600    0.200000     390.250     19.5680    -99999.0
     6.30000    0.000000    -99999.0    -87.0881    -99999.0     52.9168     479.092     746.323    -99999.0     3606.19     267.600    0.200000     390.015     18.8976    -99999.0
     6.40000     53.5616    -99999.0    -87.0778    -99999.0     47.9943     478.873     746.481    -99999.0     3606.19     267.400    0.200000     389.671     20.8358    -99999.0
     6.50000     52.8571    -99999.0    -87.0984    -99999.0     47.5261     478.644     746.489    -99999.0     3606.19     267.300    0.200000     389.362     21.0411    -99999.0
     6.60000     37.5000    -99999.0    -87.1018    -99999.0     46.0947     478.513     747.071    -99999.0     3606.19     267.200    0.300000     388.993     21.6945    -99999.0
     6.70000     50.0000    -99999.0    -87.0984    -99999.0     45.7403     478.433     747.221    -99999.0     3606.19     266.900    0.200000     388.837     21.8626    -99999.0
     6.80000     62.8571    -99999.0    -87.1292    -99999.0     45.5070     478.277     747.408    -99999.0     3606.19     266.700    0.200000     388.567     21.9746    -99999.0
     6.90000     48.7500    -99999.0    -87.1189    -99999.0     44.4118     478.190     747.235    -99999.0     3606.19     266.600    0.200000     388.508     22.5165    -99999.0
     7.00000     42.5000    -99999.0    -87.1292    -99999.0     48.3116     478.103     747.242    -99999.0     3606.19     266.400    0.200000     388.389     20.6990    -99999.0
     7.10000     50.0000    -99999.0    -87.1395    -99999.0     49.9618     478.052     747.381    -99999.0     3606.19     266.500    0.200000     388.276     20.0153    -99999.0
     7.20000     35.0000    -99999.0    -87.1497    -99999.0     44.8211     478.057     747.196    -99999.0     3606.19     266.800    0.200000     388.344     22.3109    -99999.0
     7.30000     40.0000    -99999.0    -87.1189    -99999.0     47.5261     478.038     746.717    -99999.0     3606.19     267.100    0.200000     388.479     21.0411    -99999.0
     7.40000     44.4444    -99999.0    -87.0984    -99999.0     53.9800     477.918     745.852    -99999.0     3606.18     267.000    0.200000     388.607     18.5254    -99999.0
     7.50000     36.2500    -99999.0    -86.9956    -99999.0     49.7764     477.855     745.481    -99999.0     3606.19     267.300    0.200000     388.646     20.0898    -99999.0
     7.60000     43.0000    -99999.0    -86.9956    -99999.0     47.5683     477.776     745.466    -99999.0     3606.18     267.300    0.200000     388.546     21.0224    -99999.0
     7.70000     47.7778    -99999.0    -87.0573    -99999.0     52.4005     477.800     745.496    -99999.0     3606.19     266.700    0.200000     388.568     19.0838    -99999.0
     7.80000     39.0000    -99999.0    -87.1292    -99999.0     56.5339     477.835     745.666    -99999.0     3606.19     266.000    0.300000     388.557     17.6885    -99999.0
     7.90000     45.0000    -99999.0    -87.2935    -99999.0     55.2752     477.780     745.450    -99999.0     3606.18     265.800    0.200000     388.557     18.0913    -99999.0
     8.00000     45.0000    -99999.0    -87.1805    -99999.0     53.7103     477.714     745.064    -99999.0     3606.19     265.800    0.200000     388.598     18.6184    -99999.0
     8.10000     50.0000    -99999.0    -86.9956    -99999.0     50.9582     477.826     744.477    -99999.0     3606.18     265.900    0.200000     388.943     19.6239    -99999.0
     8.20000     64.0000    -99999.0    -87.0059    -99999.0     54.5276     477.818     744.137    -99999.0     3606.19     267.300    0.200000     389.044     18.3393    -99999.0
     8.30000     40.9091    -99999.0    -87.1086    -99999.0     51.6446     477.852     743.983    -99999.0     3606.19     267.400    0.200000     389.142     19.3631    -99999.0
     8.40000     52.0000    -99999.0    -87.1908    -99999.0     47.7378     477.848     743.743    -99999.0     3606.19     267.800    0.200000     389.217     20.9478    -99999.0
     8.50000     40.0000    -99999.0    -87.2319    -99999.0     49.9618     477.802     743.187    -99999.0     3606.19     267.800    0.300000     389.341     20.0153    -99999.0
     8.60000     50.0000    -99999.0    -87.1086    -99999.0     47.1082     477.796     742.685    -99999.0     3606.18     267.800    0.200000     389.500     21.2277    -99999.0
     8.70000     55.4545    -99999.0    -87.0573    -99999.0     45.8318     477.786     742.283    -99999.0     3606.19     267.700    0.200000     389.620     21.8189    -99999.0
     8.80000     34.5455    -99999.0    -87.0881    -99999.0     43.1227     477.825     741.912    -99999.0     3606.18     267.600    0.200000     389.796     23.1896    -99999.0
     8.90000     49.1667    -99999.0    -87.1600    -99999.0     49.0481     477.831     741.750    -99999.0     3606.19     267.800    0.200000     389.858     20.3882    -99999.0
     9.00000     40.0000    -99999.0    -87.2525    -99999.0     53.4432     477.810     741.588    -99999.0     3606.19     267.900    0.299000     389.884     18.7115    -99999.0
