#------------------------------------------------------------
~VERSION INFORMATION
VERS.               2.0  :CWLS LOG ASCII STANDARD - VERSION 2.0
WRAP.                NO  :ONE LINE PER DEPTH STEP
#------------------------------------------------------------
~WELL INFORMATION
STRT.FT        0.100000  :FIRST INDEX VALUE
STOP.FT         110.000  :LAST INDEX VALUE
STEP.FT        0.100000  :STEP
NULL.            -99999  :NULL VALUE
COMP.                    :
WELL.                    :
FLD.                     :
LOC.                     :LOCATION
SRVC.              USGS  :SERVICE COMPANY
CTRY.                    :
STAT.                    :
CNTY.                    :
DATE.          05/06/18  :DATE
API.                     :
#------------------------------------------------------------
~CURVE INFORMATION
DEPT.FT                  :DEPTH
GAM(NAT).API-GR          :GAM(NAT)
TEMP.DEG_F               :TEMP
SP.MV                    :SP
DEL_TEMP.DEG_F           :DEL TEMP
IND_RES.OHM-M            :IND_RES
RES(16N).OHM-M           :RES(16N)
RES(64N).OHM-M           :RES(64N)
RES(FL).OHM/M            :RES(FL)
RES.OHM                  :RES
TENSION.CPS              :TENSION
TIME.SECONDS             :TIME
LATERAL.OHM-M            :LATERAL
COND.MMHO/M              :COND
SP_COND.µS/CM            :SP COND
#------------------------------------------------------------
~PARAMETER INFORMATION
sys_serial.    1         :sys serial
state.               TX  :state
fluid_ph.                :fluid ph
elev_gl.            984  :elev gl
other2serv.          ZE  :other2serv
casing_thick.         0  :casing thick
other1serv.          ZI  :other1serv
fluid_type.         H2O  :fluid type
other3serv.      ZM,OBI  :other3serv
temp_mud_filtrate.       :temp mud filtrate
RUN1.                    :RUN1
depth_driller.      110  :depth driller
section.             NA  :section
density_matrix.    2.71  :density matrix
RUN2.                    :RUN2
eng_units_or_cps.     E  :eng units or cps
fluid_density.           :fluid density
elev_df.             NA  :elev df
PROVINCE.                :PROVINCE
UNIQUE_WELL_ID.          :UNIQUE WELL ID
RUN3.                    :RUN3
township.            NA  :township
log_top.           0.90  :log top
delta_t_matrix.          :delta t matrix
RUN4.                    :RUN4
tool_serial_num.   2842  :tool serial num
field.            GAULT  :field
RUN5.                    :RUN5
bit_size.         7.875  :bit size
time.            18_50_  :time
RUN6.                    :RUN6
Name_Prn_AP.             :Name Prn AP
longitude.      97.7102  :longitude
fluid_viscosity.         :fluid viscosity
deltat_fluid.            :deltat fluid
elev_kb.             NA  :elev kb
permanent_datum.    LSD  :permanent datum
county.            BELL  :county
sys_version.   3.6XH     :sys version
logging_unit.       302  :logging unit
casing_diameter.    10.  :casing diameter
casing_type.        PVC  :casing type
file_type_id.    8144A   :file type id
temp_gradient.        0  :temp gradient
latitude.       30.8855  :latitude
feet_or_meter.        F  :feet or meter
mag_declination.      0  :mag declination
file_type.    ORIGINAL   :file type
mud_sample_source.   NA  :mud sample source
time_circ_stopped.   NA  :time circ stopped
mud_temp.            NA  :mud temp
res_mud_filtrate.        :res mud filtrate
remarks1.                :remarks1
company.                 :company
neutron_matrix. LIMESTONE  :neutron matrix
remarks2.                :remarks2
log_sample_int.     .10  :log sample int
elect_cutoff.      9999  :elect cutoff
range.               NA  :range
mean_surface_temp.       :mean surface temp
recorded_by.     THOMAS  :recorded by
mud_res.             NA  :mud res
log_bottom.      109.80  :log bottom
res_mud_cake.        NA  :res mud cake
elev_perm_datum.    984  :elev perm datum
truck_cal_num. 0.5956    :truck cal num
field_office.      USGS  :field office
log_meas_from.      LSD  :log meas from
drl_meas_from.       NA  :drl meas from
temp_mud_cake.           :temp mud cake
log_direction.        D  :log direction
casing_bottom.      110  :casing bottom
Cooperator. Clearwater UWCD  :Cooperator
Date_of_Logging. 05 / 06 / 2018  :Date of Logging
County.                  :County
Logging_probe_serial_number#1.   :Logging probe serial number#1
State.            Texas  :State
Well_Name.    M-14-001P  :Well Name
#------------------------------------------------------------
~OTHER
#------------------------------------------------------------
~A  DEPT[FT]    GAM(NAT)        TEMP          SP    DEL_TEMP     IND_RES    RES(16N)    RES(64N)     RES(FL)         RES     TENSION        TIME     LATERAL        COND     SP_COND
# ...
     98.6000     5.00000     71.1164     3.71685  -0.00510406     43.4380     2822.99     2517.18     19.6691     865.192     260.000    0.200000     2924.92     23.0213     508.412
     98.7000     5.00000     71.1226     3.11760  0.00623322     44.7087     2822.73     2515.98     19.6691     864.516     260.100    0.300000     2924.99     22.3670     508.412
     98.8000     3.33333     71.1198     2.53543  -0.00283051     43.2623     2822.64     2515.29     19.6788     864.069     260.200    0.200000     2925.10     23.1148     508.161
     98.9000     5.00000     71.1181     2.09368  -0.00170135     44.2160     2822.39     2514.60     19.6774     863.800     260.200    0.200000     2924.99     22.6163     508.197
     99.0000    0.000000     71.1215     1.48756  0.00340271     46.4545     2821.73     2513.85     19.6733     863.383     260.400    0.300000     2924.35     21.5264     508.304
     99.1000     10.0000     71.1232    0.871168  0.00169373     43.4380     2821.06     2513.29     19.6733     863.084     260.300    0.200000     2923.65     23.0213     508.304
     99.2000     10.0000     71.1226    0.480786  -0.000564575     46.2539     2820.83     2512.39     19.6816     862.726     260.200    0.200000     2923.65     21.6198     508.090
     99.3000     25.0000     71.1181   -0.176699  -0.00453186     51.3482     2820.55     2511.35     19.6760     862.547     260.100    0.300000     2923.62     19.4749     508.233
     99.4000     10.0000     71.1198   -0.854731  0.00170135     47.0668     2820.19     2510.40     19.6691     862.030     259.900    0.200000     2923.46     21.2464     508.412
     99.5000     5.00000     71.1215    -1.24511  0.00170135     44.8586     2819.48     2509.42     19.6691     861.533     259.900    0.200000     2922.83     22.2923     508.412
     99.6000    0.000000     71.1215    -1.75877    0.000000     48.1235     2818.91     2508.20     19.6705     861.175     259.900    0.300000     2922.47     20.7799     508.376
     99.7000     10.0000     71.1215    -2.27243    0.000000     45.1868     2818.72     2506.71     19.6774     860.559     260.000    0.200000     2922.73     22.1304     508.197
     99.8000     10.0000     71.1249    -2.80664  0.00340271     48.3405     2818.56     2505.69     19.6650     859.863     260.000    0.200000     2922.85     20.6866     508.519
     99.9000     13.3333     71.1198    -3.20730  -0.00510406     48.7803     2818.08     2504.12     19.6733     859.296     259.900    0.200000     2922.73     20.5001     508.304
     100.000     15.0000     71.1215    -3.82709  0.00170135     46.9020     2817.34     2502.54     19.6774     858.510     259.600    0.300000     2922.27     21.3211     508.197
     100.100     5.00000     71.1215    -4.44008    0.000000     50.5740     2816.87     2501.52     19.6691     857.834     259.500    0.200000     2921.98     19.7730     508.412
     100.200     3.33333     71.1215    -4.91265    0.000000     46.8610     2816.75     2500.23     19.6733     857.138     259.500    0.200000     2922.26     21.3397     508.304
     100.300    0.000000     71.1232    -5.50509  0.00169373     49.8071     2816.48     2498.86     19.6760     856.611     259.500    0.300000     2922.36     20.0775     508.233
     100.400     10.0000     71.1249    -6.18653  0.00170898     48.5155     2815.84     2497.70     19.6691     856.223     259.800    0.200000     2921.88     20.6120     508.412
     100.500     35.0000     71.1249    -6.72074    0.000000     45.5715     2815.38     2496.49     19.6691     855.726     260.000    0.200000     2921.67     21.9436     508.412
     100.600     10.0000     71.1181    -7.37482  -0.00680542     51.1038     2814.94     2495.19     19.6774     855.239     259.900    0.300000     2921.52     19.5680     508.197
     100.700     16.6667     71.1266    -7.98434  0.00849915     46.8200     2814.74     2494.10     19.6760     854.712     259.700    0.200000     2921.61     21.3584     508.233
     100.800     20.0000     71.1215    -8.53909  -0.00509644     44.8337     2814.57     2492.83     19.6691     854.314     259.700    0.200000     2921.82     22.3047     508.412
     100.900     20.0000     71.1192    -9.24454  -0.00227356     49.6382     2813.98     2491.79     19.6774     853.807     259.800    0.300000     2921.38     20.1458     508.197
     101.000     5.00000     71.1164    -9.96707  -0.00283051     47.4419     2813.47     2490.44     19.6816     853.280     259.900    0.200000     2921.15     21.0784     508.090
     101.100     10.0000     71.1215    -10.4807  0.00510406     49.6536     2813.31     2488.94     19.6816     852.614     260.200    0.200000     2921.44     20.1395     508.090
     101.200     20.0000     71.1181    -11.1211  -0.00340271     46.2140     2813.18     2487.73     19.6774     852.077     260.400    0.300000     2921.67     21.6385     508.197
     101.300     5.00000     71.1147    -11.8573  -0.00340271     47.5683     2812.90     2486.08     19.6760     851.510     260.400    0.200000     2921.84     21.0224     508.233
     101.400     10.0000     71.1164    -12.5593  0.00170135     45.2761     2812.47     2484.26     19.6774     850.794     260.300    0.300000     2921.87     22.0867     508.197
     101.500     16.6667     71.1135    -13.1620  -0.00283051     52.5544     2811.96     2482.94     19.6733     850.317     260.100    0.200000     2921.64     19.0279     508.304
     101.600    0.000000     71.1130    -13.6757  -0.000572205     48.7509     2811.76     2481.46     19.6691     849.740     260.000    0.200000     2921.86     20.5124     508.412
     101.700     10.0000     71.1124    -14.2852  -0.000564575     46.4143     2811.59     2480.11     19.6733     849.213     260.200    0.300000     2922.09     21.5451     508.304
     101.800     6.66667     71.1198    -14.9085  0.00737000     45.0474     2811.39     2479.00     19.6760     848.766     260.200    0.200000     2922.19     22.1988     508.233
     101.900     20.0000     71.1147    -15.4530  -0.00510406     45.0347     2810.62     2477.32     19.6774     848.328     259.900    0.200000     2921.72     22.2051     508.197
     102.000     5.00000     71.1181    -16.2371  0.00340271     46.8200     2809.83     2475.78     19.6760     847.841     259.200    0.300000     2921.18     21.3584     508.233
     102.100     16.6667     71.1147    -16.9529  -0.00340271     48.2970     2809.46     2474.50     19.6774     847.543     258.300    0.200000     2921.12     20.7052     508.197
     102.200     15.0000     71.1181    -17.4049  0.00340271     49.1982     2809.07     2472.75     19.6774     847.185     257.300    0.200000     2921.18     20.3260     508.197
     102.300     15.0000     71.1181    -17.8124    0.000000     45.4298     2808.45     2471.14     19.6705     846.837     255.600    0.300000     2920.89     22.0120     508.376
     102.400     40.0000     71.1164    -18.2473  -0.00170135     44.4487     2807.63     2469.61     19.6733     846.469     254.800    0.200000     2920.30     22.4978     508.304
     102.500     6.66667     71.1135    -18.8123  -0.00283051     48.2823     2806.86     2467.99     19.6816     846.081     252.100    0.199000     2919.81     20.7115     508.090
     102.600     5.00000     71.1147    -19.5040  0.00112915     48.0804     2806.32     2465.94     19.6733     845.504     248.300    0.300000     2919.79     20.7985     508.304
     102.700     5.00000     71.1198    -19.7574  0.00510406     47.6529     2805.94     2463.77     19.6650     844.798     246.300    0.200000     2920.00     20.9851     508.519
     102.800    0.000000     71.1158    -20.7368  -0.00397491     48.2535     2805.31     2462.17     19.6857     844.410     242.700    0.300000     2919.69     20.7239     507.982
     102.900     10.0000     71.1164    -21.4833  0.000572205     48.8989     2804.63     2460.22     19.6677     843.655     242.300    0.200000     2919.43     20.4504     508.447
     103.000     15.0000     71.1147    0.000000    0.000000     48.5155     2804.00     2458.07     19.6774     842.889     243.000    0.000000    0.000000     20.6120     508.197
