#------------------------------------------------------------
~VERSION INFORMATION
VERS.               2.0  :CWLS LOG ASCII STANDARD - VERSION 2.0
WRAP.                NO  :ONE LINE PER DEPTH STEP
#------------------------------------------------------------
~WELL INFORMATION
STRT.FT        0.100000  :FIRST INDEX VALUE
STOP.FT         110.000  :LAST INDEX VALUE
STEP.FT        0.100000  :STEP
NULL.            -99999  :NULL VALUE
COMP.                    :
WELL.                    :
FLD.                     :
LOC.                     :LOCATION
SRVC.              USGS  :SERVICE COMPANY
CTRY.                    :
STAT.                    :
CNTY.                    :
DATE.          05/06/18  :DATE
API.                     :
#------------------------------------------------------------
~CURVE INFORMATION
DEPT.FT                  :DEPTH
GAM(NAT).API-GR          :GAM(NAT)
TEMP.DEG_F               :TEMP
SP.MV                    :SP
DEL_TEMP.DEG_F           :DEL TEMP
IND_RES.OHM-M            :IND_RES
RES(16N).OHM-M           :RES(16N)
RES(64N).OHM-M           :RES(64N)
RES(FL).OHM/M            :RES(FL)
RES.OHM                  :RES
TENSION.CPS              :TENSION
TIME.SECONDS             :TIME
LATERAL.OHM-M            :LATERAL
COND.MMHO/M              :COND
SP_COND.µS/CM            :SP COND
#------------------------------------------------------------
~PARAMETER INFORMATION
sys_serial.    1         :sys serial
state.               TX  :state
fluid_ph.                :fluid ph
elev_gl.            984  :elev gl
other2serv.          ZE  :other2serv
casing_thick.         0  :casing thick
other1serv.          ZI  :other1serv
fluid_type.         H2O  :fluid type
other3serv.      ZM,OBI  :other3serv
temp_mud_filtrate.       :temp mud filtrate
RUN1.                    :RUN1
depth_driller.      110  :depth driller
section.             NA  :section
density_matrix.    2.71  :density matrix
RUN2.                    :RUN2
eng_units_or_cps.     E  :eng units or cps
fluid_density.           :fluid density
elev_df.             NA  :elev df
PROVINCE.                :PROVINCE
UNIQUE_WELL_ID.          :UNIQUE WELL ID
RUN3.                    :RUN3
township.            NA  :township
log_top.           0.90  :log top
delta_t_matrix.          :delta t matrix
RUN4.                    :RUN4
tool_serial_num.   2842  :tool serial num
field.            GAULT  :field
RUN5.                    :RUN5
bit_size.         7.875  :bit size
time.            18_50_  :time
RUN6.                    :RUN6
Name_Prn_AP.             :Name Prn AP
longitude.      97.7102  :longitude
fluid_viscosity.         :fluid viscosity
deltat_fluid.            :deltat fluid
elev_kb.             NA  :elev kb
permanent_datum.    LSD  :permanent datum
county.            BELL  :county
sys_version.   3.6XH     :sys version
logging_unit.       302  :logging unit
casing_diameter.    10.  :casing diameter
casing_type.        PVC  :casing type
file_type_id.    8144A   :file type id
temp_gradient.        0  :temp gradient
latitude.       30.8855  :latitude
feet_or_meter.        F  :feet or meter
mag_declination.      0  :mag declination
file_type.    ORIGINAL   :file type
mud_sample_source.   NA  :mud sample source
time_circ_stopped.   NA  :time circ stopped
mud_temp.            NA  :mud temp
res_mud_filtrate.        :res mud filtrate
remarks1.                :remarks1
company.                 :company
neutron_matrix. LIMESTONE  :neutron matrix
remarks2.                :remarks2
log_sample_int.     .10  :log sample int
elect_cutoff.      9999  :elect cutoff
range.               NA  :range
mean_surface_temp.       :mean surface temp
recorded_by.     THOMAS  :recorded by
mud_res.             NA  :mud res
log_bottom.      109.80  :log bottom
res_mud_cake.        NA  :res mud cake
elev_perm_datum.    984  :elev perm datum
truck_cal_num. 0.5956    :truck cal num
field_office.      USGS  :field office
log_meas_from.      LSD  :log meas from
drl_meas_from.       NA  :drl meas from
temp_mud_cake.           :temp mud cake
log_direction.        D  :log direction
casing_bottom.      110  :casing bottom
Cooperator. Clearwater UWCD  :Cooperator
Date_of_Logging. 05 / 06 / 2018  :Date of Logging
County.                  :County
Logging_probe_serial_number#1.   :Logging probe serial number#1
State.            Texas  :State
Well_Name.    M-14-001P  :Well Name
#------------------------------------------------------------
~OTHER
#------------------------------------------------------------
~A  DEPT[FT]    GAM(NAT)        TEMP          SP    DEL_TEMP     IND_RES    RES(16N)    RES(64N)     RES(FL)         RES     TENSION        TIME     LATERAL        COND     SP_COND
# ...
     44.9000     30.0000     88.3627    -81.2871  0.00203705   -0.808926     480.289     831.515    -99999.0     3606.29     267.700    0.300000     363.214    -1236.21    -99999.0
     45.0000     20.0000     88.3561    -81.2324  -0.00662231   -0.808939     479.968     837.757    -99999.0     3606.29     268.100    0.200000     360.706    -1236.19    -99999.0
     45.1000     16.6667     88.3561    -83.6568    0.000000   -0.808939     479.785     841.557    -99999.0     3606.32     268.400    0.200000     359.194    -1236.19    -99999.0
     45.2000     10.0000     88.3525    -82.8829  -0.00356293   -0.808926     479.739     844.353    -99999.0     3606.29     268.400    0.300000     358.201    -1236.21    -99999.0
     45.3000     20.0000     88.3469    -81.0783  -0.00559998    -1.04207     479.709     847.119    -99999.0     3606.26     268.500    0.200000     357.239    -959.628    -99999.0
     45.4000     3.33333     88.3469    -84.2219    0.000000     1.31060     479.945     845.450    -99999.0     3606.29     268.300    0.200000     358.111     763.012    -99999.0
     45.5000     25.0000     88.3464    -85.3280  -0.000511169    0.481770     480.083     844.176    -99999.0     3606.32     267.800    0.300000     358.719     2075.68    -99999.0
     45.6000     10.0000     88.3393    -83.3075  -0.00712585    0.294157     480.175     846.084    -99999.0     3606.29     267.900    0.200000     358.205     3399.54    -99999.0
     45.7000     15.0000     88.3393    -82.3932    0.000000    0.170929     480.503     846.099    -99999.0     3606.26     267.800    0.200000     358.638     5850.39    -99999.0
     45.8000     10.0000     88.3347    -82.4138  -0.00457764    0.135950     480.702     845.983    -99999.0     3606.32     267.500    0.200000     358.942     7355.64    -99999.0
     45.9000     5.00000     88.3316    -81.9309  -0.00305939    0.143927     481.115     845.798    -99999.0     3606.29     267.600    0.299000     359.553     6947.98    -99999.0
     46.0000    0.000000     88.3270    -81.7255  -0.00457764    0.165207     481.711     844.060    -99999.0     3606.29     267.600    0.200000     360.927     6053.01    -99999.0
     46.1000     10.0000     88.3209    -81.5097  -0.00611115    0.196995     482.100     835.416    -99999.0     3606.26     267.600    0.201000     364.328     5076.28    -99999.0
     46.2000     13.3333     88.3179    -81.4995  -0.00305939    0.242669     482.582     829.252    -99999.0     3606.32     267.800    0.200000     367.025     4120.84    -99999.0
     46.3000     20.0000     88.3133    -81.3762  -0.00457764    0.347673     483.208     822.910    -99999.0     3606.29     268.100    0.300000     369.974     2876.27    -99999.0
     46.4000     15.0000     88.3158    -81.5919  0.00254059    0.672618     483.636     817.967    -99999.0     3606.29     268.200    0.200000     372.192     1486.73    -99999.0
     46.5000     10.0000     88.3118    -81.6227  -0.00406647     1.42542     484.232     814.630    -99999.0     3606.26     268.000    0.199000     374.099     701.548    -99999.0
     46.6000     13.3333     88.3133    -81.8796  0.00152588     2.88906     485.027     812.050    -99999.0     3606.32     268.200    0.200000     376.019     346.133    -99999.0
     46.7000     15.0000     88.3087    -81.6433  -0.00458527     5.31707     485.493     811.015    -99999.0     3606.29     268.100    0.300000     376.985     188.073    -99999.0
     46.8000     15.0000     88.3041    -81.6022  -0.00457764     8.73478     485.584     809.115    -99999.0     3606.29     268.200    0.200000     377.741     114.485    -99999.0
     46.9000     16.6667     88.3026    -81.9720  -0.00153351     15.0534     485.653     804.820    -99999.0     3606.26     268.500    0.200000     379.264     66.4304    -99999.0
     47.0000     5.00000     88.3011    -82.5679  -0.00152588     22.8219     486.662     801.583    -99999.0     3606.29     268.300    0.300000     381.688     43.8175    -99999.0
     47.1000     20.0000     88.2985    -82.3521  -0.00254059     29.7466     487.097     801.027    -99999.0     3606.32     268.300    0.200000     382.454     33.6173    -99999.0
     47.2000     6.66667     88.2919    -82.1569  -0.00662231     37.6483     487.716     809.995    -99999.0     3606.29     268.400    0.201000     380.290     26.5616    -99999.0
     47.3000     30.0000     88.2904    -81.7666  -0.00152588     47.9943     488.152     812.822    -99999.0     3606.29     268.100    0.299000     379.928     20.8358    -99999.0
     47.4000    0.000000     88.2904    -81.4173    0.000000     55.9459     488.473     811.548    -99999.0     3606.26     268.100    0.201000     380.781     17.8744    -99999.0
     47.5000     16.6667     88.2853    -81.2632  -0.00509644     66.4555     489.160     810.907    -99999.0     3606.32     268.100    0.199000     381.911     15.0477    -99999.0
     47.6000    0.000000     88.2782    -83.2117  -0.00712585     64.2919     490.161     806.913    -99999.0     3606.29     267.900    0.300000     384.577     15.5541    -99999.0
     47.7000     5.00000     88.2812    -84.1808  0.00305176     72.4854     490.535     806.311    -99999.0     3606.29     267.900    0.200000     385.277     13.7959    -99999.0
     47.8000     13.3333     88.2797    -81.5337  -0.00152588     69.2374     490.833     802.379    -99999.0     3606.29     268.100    0.300000     386.985     14.4431    -99999.0
     47.9000     20.0000     88.2720    -81.5097  -0.00763702     74.9960     490.971     802.070    -99999.0     3606.29     268.300    0.200000     387.271     13.3340    -99999.0
     48.0000     5.00000     88.2751    -81.4378  0.00305176     79.0827     490.726     798.640    -99999.0     3606.29     268.400    0.200000     388.089     12.6450    -99999.0
     48.1000     13.3333     88.2659    -81.3762  -0.00916290     67.5074     489.481     806.257    -99999.0     3606.26     268.700    0.200000     383.889     14.8132    -99999.0
     48.2000     15.0000     88.2629    -81.5885  -0.00305176     78.2453     488.885     813.564    -99999.0     3606.32     268.700    0.300000     380.659     12.7803    -99999.0
     48.3000     25.0000     88.2583    -81.5406  -0.00457764     74.9960     488.511     804.410    -99999.0     3606.29     268.500    0.200000     383.211     13.3340    -99999.0
     48.4000     20.0000     88.2614    -81.6022  0.00305176     72.9741     488.152     797.876    -99999.0     3606.29     268.200    0.200000     384.910     13.7035    -99999.0
     48.5000     20.0000     88.2558    -83.7459  -0.00559998     82.6150     487.693     793.743    -99999.0     3606.26     268.100    0.300000     385.677     12.1043    -99999.0
     48.6000     15.0000     88.2507    -85.5882  -0.00509644     89.1703     487.273     793.519    -99999.0     3606.32     268.100    0.200000     385.191     11.2145    -99999.0
     48.7000     20.0000     88.2537    -82.4651  0.00305939     76.5866     487.120     796.995    -99999.0     3606.29     268.300    0.200000     383.828     13.0571    -99999.0
     48.8000    0.000000     88.2415    -82.1980  -0.0122223     85.6565     486.707     816.461    -99999.0     3606.29     268.400    0.200000     376.790     11.6745    -99999.0
     48.9000     6.66667     88.2430    -82.6090  0.00152588     76.5866     486.050     827.421    -99999.0     3606.26     268.400    0.300000     372.260     13.0571    -99999.0
     49.0000     5.00000     88.2400    -82.6911  -0.00305176     87.7312     485.584     831.013    -99999.0     3606.29     268.100    0.200000     370.441     11.3985    -99999.0
     49.1000     25.0000     88.2405    -82.3624  0.000511169     84.3265     485.378     831.685    -99999.0     3606.32     267.900    0.200000     369.942     11.8587    -99999.0
     49.2000     16.6667     88.2323    -82.1261  -0.00814819     90.3053     486.050     833.076    -99999.0     3606.29     267.600    0.200000     370.375     11.0735    -99999.0
     49.3000     10.0000     88.2308    -81.8898  -0.00153351     92.9810     486.180     834.358    -99999.0     3606.29     267.400    0.300000     370.121     10.7549    -99999.0
