#------------------------------------------------------------
~VERSION INFORMATION
VERS.               2.0  :CWLS LOG ASCII STANDARD - VERSION 2.0
WRAP.                NO  :ONE LINE PER DEPTH STEP
#------------------------------------------------------------
~WELL INFORMATION
STRT.FT        0.100000  :FIRST INDEX VALUE
STOP.FT         110.000  :LAST INDEX VALUE
STEP.FT        0.100000  :STEP
NULL.            -99999  :NULL VALUE
COMP.                    :
WELL.                    :
FLD.                     :
LOC.                     :LOCATION
SRVC.              USGS  :SERVICE COMPANY
CTRY.                    :
STAT.                    :
CNTY.                    :
DATE.          05/06/18  :DATE
API.                     :
#------------------------------------------------------------
~CURVE INFORMATION
DEPT.FT                  :DEPTH
GAM(NAT).API-GR          :GAM(NAT)
TEMP.DEG_F               :TEMP
SP.MV                    :SP
DEL_TEMP.DEG_F           :DEL TEMP
IND_RES.OHM-M            :IND_RES
RES(16N).OHM-M           :RES(16N)
RES(64N).OHM-M           :RES(64N)
RES(FL).OHM/M            :RES(FL)
RES.OHM                  :RES
TENSION.CPS              :TENSION
TIME.SECONDS             :TIME
LATERAL.OHM-M            :LATERAL
COND.MMHO/M              :COND
SP_COND.µS/CM            :SP COND
#------------------------------------------------------------
~PARAMETER INFORMATION
sys_serial.    1         :sys serial
state.               TX  :state
fluid_ph.                :fluid ph
elev_gl.            984  :elev gl
other2serv.          ZE  :other2serv
casing_thick.         0  :casing thick
other1serv.          ZI  :other1serv
fluid_type.         H2O  :fluid type
other3serv.      ZM,OBI  :other3serv
temp_mud_filtrate.       :temp mud filtrate
RUN1.                    :RUN1
depth_driller.      110  :depth driller
section.             NA  :section
density_matrix.    2.71  :density matrix
RUN2.                    :RUN2
eng_units_or_cps.     E  :eng units or cps
fluid_density.           :fluid density
elev_df.             NA  :elev df
PROVINCE.                :PROVINCE
UNIQUE_WELL_ID.          :UNIQUE WELL ID
RUN3.                    :RUN3
township.            NA  :township
log_top.           0.90  :log top
delta_t_matrix.          :delta t matrix
RUN4.                    :RUN4
tool_serial_num.   2842  :tool serial num
field.            GAULT  :field
RUN5.                    :RUN5
bit_size.         7.875  :bit size
time.            18_50_  :time
RUN6.                    :RUN6
Name_Prn_AP.             :Name Prn AP
longitude.      97.7102  :longitude
fluid_viscosity.         :fluid viscosity
deltat_fluid.            :deltat fluid
elev_kb.             NA  :elev kb
permanent_datum.    LSD  :permanent datum
county.            BELL  :county
sys_version.   3.6XH     :sys version
logging_unit.       302  :logging unit
casing_diameter.    10.  :casing diameter
casing_type.        PVC  :casing type
file_type_id.    8144A   :file type id
temp_gradient.        0  :temp gradient
latitude.       30.8855  :latitude
feet_or_meter.        F  :feet or meter
mag_declination.      0  :mag declination
file_type.    ORIGINAL   :file type
mud_sample_source.   NA  :mud sample source
time_circ_stopped.   NA  :time circ stopped
mud_temp.            NA  :mud temp
res_mud_filtrate.        :res mud filtrate
remarks1.                :remarks1
company.                 :company
neutron_matrix. LIMESTONE  :neutron matrix
remarks2.                :remarks2
log_sample_int.     .10  :log sample int
elect_cutoff.      9999  :elect cutoff
range.               NA  :range
mean_surface_temp.       :mean surface temp
recorded_by.     THOMAS  :recorded by
mud_res.             NA  :mud res
log_bottom.      109.80  :log bottom
res_mud_cake.        NA  :res mud cake
elev_perm_datum.    984  :elev perm datum
truck_cal_num. 0.5956    :truck cal num
field_office.      USGS  :field office
log_meas_from.      LSD  :log meas from
drl_meas_from.       NA  :drl meas from
temp_mud_cake.           :temp mud cake
log_direction.        D  :log direction
casing_bottom.      110  :casing bottom
Cooperator. Clearwater UWCD  :Cooperator
Date_of_Logging. 05 / 06 / 2018  :Date of Logging
County.                  :County
Logging_probe_serial_number#1.   :Logging probe serial number#1
State.            Texas  :State
Well_Name.    M-14-001P  :Well Name
#------------------------------------------------------------
~OTHER
#------------------------------------------------------------
~A  DEPT[FT]    GAM(NAT)        TEMP          SP    DEL_TEMP     IND_RES    RES(16N)    RES(64N)     RES(FL)         RES     TENSION        TIME     LATERAL        COND     SP_COND
# ...
     107.600     20.0000     71.1147    0.000000    0.000000    -99999.0    0.000000    0.000000     19.6733     862.985     243.000    0.000000    0.000000    -99999.0     508.304
     107.700     10.0000     71.1158    0.000000    0.000000    -99999.0    0.000000    0.000000     19.6650     884.234     243.000    0.000000    0.000000    -99999.0     508.519
     107.800     26.6667     71.1164    0.000000    0.000000    -99999.0    0.000000    0.000000     19.6622     901.655     243.000    0.000000    0.000000    -99999.0     508.591
     107.900     10.0000     71.1164    0.000000    0.000000    -99999.0    0.000000    0.000000     19.6234     915.089     243.000    0.000000    0.000000    -99999.0     509.595
     108.000     25.0000     71.1158    0.000000    0.000000    -99999.0    0.000000    0.000000     19.5569     920.478     243.000    0.000000    0.000000    -99999.0     511.327
     108.100     3.33333     71.1113    0.000000    0.000000    -99999.0    0.000000    0.000000     19.5237     922.546     243.000    0.000000    0.000000    -99999.0     512.197
     108.200     10.0000     71.1113    0.000000    0.000000    -99999.0    0.000000    0.000000     19.5113     923.670     243.000    0.000000    0.000000    -99999.0     512.525
     108.300     20.0000     71.1130    0.000000    0.000000    -99999.0    0.000000    0.000000     19.5209    0.000000     243.000    0.000000    0.000000    -99999.0     512.270
     108.400    0.000000     71.1130    0.000000    0.000000    -99999.0    0.000000    0.000000     19.5985    0.000000     243.000    0.000000    0.000000    -99999.0     510.243
     108.500    0.000000     71.1135    0.000000    0.000000    -99999.0    0.000000    0.000000     20.4251    0.000000     243.000    0.000000    0.000000    -99999.0     489.593
     108.600    0.000000     71.1079    0.000000    0.000000    -99999.0    0.000000    0.000000     20.9804    0.000000     243.000    0.000000    0.000000    -99999.0     476.636
     108.700    0.000000     71.1113    0.000000    0.000000    -99999.0    0.000000    0.000000     21.4677    0.000000     243.000    0.000000    0.000000    -99999.0     465.815
     108.800    0.000000     71.1147    0.000000    0.000000    -99999.0    0.000000    0.000000     21.6297    0.000000     243.000    0.000000    0.000000    -99999.0     462.326
     108.900    0.000000     71.1113    0.000000    0.000000    -99999.0    0.000000    0.000000     22.5976    0.000000     243.000    0.000000    0.000000    -99999.0     442.525
     109.000    0.000000     71.1096    0.000000    0.000000    -99999.0    0.000000    0.000000     23.8562    0.000000     243.000    0.000000    0.000000    -99999.0     419.178
     109.100    0.000000     71.1158    0.000000    0.000000    -99999.0    0.000000    0.000000     24.2841    0.000000     243.000    0.000000    0.000000    -99999.0     411.792
     109.200    0.000000     71.1181    0.000000    0.000000    -99999.0    0.000000    0.000000     24.4142    0.000000     243.000    0.000000    0.000000    -99999.0     409.597
     109.300    0.000000     71.1215    0.000000    0.000000    -99999.0    0.000000    0.000000     24.4586    0.000000     243.000    0.000000    0.000000    -99999.0     408.855
     109.400    0.000000     71.1226    0.000000    0.000000    -99999.0    0.000000    0.000000     24.4752    0.000000     243.000    0.000000    0.000000    -99999.0     408.577
     109.500    0.000000     71.1300    0.000000    0.000000    -99999.0    0.000000    0.000000     24.4793    0.000000     243.000    0.000000    0.000000    -99999.0     408.508
     109.600    0.000000     71.1272    0.000000    0.000000    -99999.0    0.000000    0.000000    0.000000    0.000000     243.000    0.000000    0.000000    -99999.0    -99999.0
     109.700    0.000000     71.1300    0.000000    0.000000    -99999.0    0.000000    0.000000    0.000000    0.000000     243.000    0.000000    0.000000    -99999.0    -99999.0
     109.800    0.000000    0.000000    0.000000    0.000000    -99999.0    0.000000    0.000000    0.000000    0.000000     243.000    0.000000    0.000000    -99999.0    -99999.0
     109.900    -99999.0    -99999.0    -99999.0    -99999.0    -99999.0    -99999.0    -99999.0    -99999.0    -99999.0    -99999.0    -99999.0    -99999.0    -99999.0    -99999.0
     110.000    -99999.0    -99999.0    -99999.0    -99999.0    -99999.0    -99999.0    -99999.0    -99999.0    -99999.0    -99999.0    -99999.0    -99999.0    -99999.0    -99999.0
