#------------------------------------------------------------
~VERSION INFORMATION
VERS.               2.0  :CWLS LOG ASCII STANDARD - VERSION 2.0
WRAP.                NO  :ONE LINE PER DEPTH STEP
#------------------------------------------------------------
~WELL INFORMATION
STRT.FT        0.100000  :FIRST INDEX VALUE
STOP.FT         110.000  :LAST INDEX VALUE
STEP.FT        0.100000  :STEP
NULL.            -99999  :NULL VALUE
COMP.                    :
WELL.                    :
FLD.                     :
LOC.                     :LOCATION
SRVC.              USGS  :SERVICE COMPANY
CTRY.                    :
STAT.                    :
CNTY.                    :
DATE.          05/06/18  :DATE
API.                     :
#------------------------------------------------------------
~CURVE INFORMATION
DEPT.FT                  :DEPTH
GAM(NAT).API-GR          :GAM(NAT)
TEMP.DEG_F               :TEMP
SP.MV                    :SP
DEL_TEMP.DEG_F           :DEL TEMP
IND_RES.OHM-M            :IND_RES
RES(16N).OHM-M           :RES(16N)
RES(64N).OHM-M           :RES(64N)
RES(FL).OHM/M            :RES(FL)
RES.OHM                  :RES
TENSION.CPS              :TENSION
TIME.SECONDS             :TIME
LATERAL.OHM-M            :LATERAL
COND.MMHO/M              :COND
SP_COND.µS/CM            :SP COND
#------------------------------------------------------------
~PARAMETER INFORMATION
sys_serial.    1         :sys serial
state.               TX  :state
fluid_ph.                :fluid ph
elev_gl.            984  :elev gl
other2serv.          ZE  :other2serv
casing_thick.         0  :casing thick
other1serv.          ZI  :other1serv
fluid_type.         H2O  :fluid type
other3serv.      ZM,OBI  :other3serv
temp_mud_filtrate.       :temp mud filtrate
RUN1.                    :RUN1
depth_driller.      110  :depth driller
section.             NA  :section
density_matrix.    2.71  :density matrix
RUN2.                    :RUN2
eng_units_or_cps.     E  :eng units or cps
fluid_density.           :fluid density
elev_df.             NA  :elev df
PROVINCE.                :PROVINCE
UNIQUE_WELL_ID.          :UNIQUE WELL ID
RUN3.                    :RUN3
township.            NA  :township
log_top.           0.90  :log top
delta_t_matrix.          :delta t matrix
RUN4.                    :RUN4
tool_serial_num.   2842  :tool serial num
field.            GAULT  :field
RUN5.                    :RUN5
bit_size.         7.875  :bit size
time.            18_50_  :time
RUN6.                    :RUN6
Name_Prn_AP.             :Name Prn AP
longitude.      97.7102  :longitude
fluid_viscosity.         :fluid viscosity
deltat_fluid.            :deltat fluid
elev_kb.             NA  :elev kb
permanent_datum.    LSD  :permanent datum
county.            BELL  :county
sys_version.   3.6XH     :sys version
logging_unit.       302  :logging unit
casing_diameter.    10.  :casing diameter
casing_type.        PVC  :casing type
file_type_id.    8144A   :file type id
temp_gradient.        0  :temp gradient
latitude.       30.8855  :latitude
feet_or_meter.        F  :feet or meter
mag_declination.      0  :mag declination
file_type.    ORIGINAL   :file type
mud_sample_source.   NA  :mud sample source
time_circ_stopped.   NA  :time circ stopped
mud_temp.            NA  :mud temp
res_mud_filtrate.        :res mud filtrate
remarks1.                :remarks1
company.                 :company
neutron_matrix. LIMESTONE  :neutron matrix
remarks2.                :remarks2
log_sample_int.     .10  :log sample int
elect_cutoff.      9999  :elect cutoff
range.               NA  :range
mean_surface_temp.       :mean surface temp
recorded_by.     THOMAS  :recorded by
mud_res.             NA  :mud res
log_bottom.      109.80  :log bottom
res_mud_cake.        NA  :res mud cake
elev_perm_datum.    984  :elev perm datum
truck_cal_num. 0.5956    :truck cal num
field_office.      USGS  :field office
log_meas_from.      LSD  :log meas from
drl_meas_from.       NA  :drl meas from
temp_mud_cake.           :temp mud cake
log_direction.        D  :log direction
casing_bottom.      110  :casing bottom
Cooperator. Clearwater UWCD  :Cooperator
Date_of_Logging. 05 / 06 / 2018  :Date of Logging
County.                  :County
Logging_probe_serial_number#1.   :Logging probe serial number#1
State.            Texas  :State
Well_Name.    M-14-001P  :Well Name
#------------------------------------------------------------
~OTHER
#------------------------------------------------------------
~A  DEPT[FT]    GAM(NAT)        TEMP          SP    DEL_TEMP     IND_RES    RES(16N)    RES(64N)     RES(FL)         RES     TENSION        TIME     LATERAL        COND     SP_COND
# ...
     27.0000     25.0000     88.7288    -86.7183  0.00152588     51.4466     479.258     738.946    -99999.0     3606.29     267.300    0.200000     392.695     19.4376    -99999.0
     27.1000     23.3333     88.7257    -86.7319  -0.00305176     51.3974     479.372     736.745    -99999.0     3606.29     266.800    0.300000     393.582     19.4563    -99999.0
     27.2000     30.0000     88.7227    -86.9340  -0.00305176     45.9365     479.403     733.323    -99999.0     3606.32     266.700    0.200000     394.763     21.7692    -99999.0
     27.3000     60.0000     88.7221    -86.9237  -0.000518799     52.1968     479.487     730.789    -99999.0     3606.26     266.500    0.200000     395.720     19.1583    -99999.0
     27.4000     60.0000     88.7272    -86.9443  0.00509644     50.0084     479.441     728.935    -99999.0     3606.29     266.500    0.200000     396.276     19.9966    -99999.0
     27.5000     40.0000     88.7211    -86.6908  -0.00611115     51.8609     479.350     728.541    -99999.0     3606.32     266.500    0.300000     396.286     19.2824    -99999.0
     27.6000     43.3333     88.7191    -86.6463  -0.00203705     53.4964     479.220     727.004    -99999.0     3606.26     266.800    0.200000     396.625     18.6929    -99999.0
     27.7000     55.0000     88.7211    -86.4717  0.00203705     57.4391     479.006     720.547    -99999.0     3606.32     267.300    0.200000     398.492     17.4097    -99999.0
     27.8000     30.0000     88.7181    -86.8929  -0.00305176     58.4368     478.868     721.080    -99999.0     3606.29     267.400    0.200000     398.131     17.1125    -99999.0
     27.9000     20.0000     88.7227    -86.7868  0.00458527     57.7472     478.914     720.083    -99999.0     3606.29     267.700    0.300000     398.524     17.3168    -99999.0
     28.0000     50.0000     88.7181    -86.7285  -0.00458527     65.9413     478.639     717.418    -99999.0     3606.29     267.500    0.200000     399.046     15.1650    -99999.0
     28.1000     26.6667     88.7120    -86.8826  -0.00611115     64.2919     478.387     714.939    -99999.0     3606.29     267.400    0.200000     399.536     15.5541    -99999.0
     28.2000     50.0000     88.7135    -87.0059  0.00152588     63.2368     478.295     711.741    -99999.0     3606.32     267.300    0.200000     400.480     15.8136    -99999.0
     28.3000     35.0000     88.7120    -86.9648  -0.00152588     68.3616     478.181     710.466    -99999.0     3606.29     267.400    0.200000     400.752     14.6281    -99999.0
     28.4000     25.0000     88.7120    -86.9100    0.000000     75.2737     478.135     710.003    -99999.0     3606.26     267.600    0.300000     400.845     13.2848    -99999.0
     28.5000     43.3333     88.7165    -86.9545  0.00457764     75.1000     478.089     710.351    -99999.0     3606.32     267.900    0.200000     400.668     13.3156    -99999.0
     28.6000     10.0000     88.7135    -86.8415  -0.00305176     78.2453     478.158     712.158    -99999.0     3606.29     267.900    0.200000     400.157     12.7803    -99999.0
     28.7000     30.0000     88.7058    -86.8107  -0.00763702     80.0947     478.203     714.846    -99999.0     3606.29     267.800    0.200000     399.323     12.4852    -99999.0
     28.8000     35.0000     88.7120    -86.8621  0.00611115     76.5866     478.150     714.916    -99999.0     3606.29     267.400    0.300000     399.228     13.0571    -99999.0
     28.9000     40.0000     88.7089    -86.8826  -0.00305939     72.0030     478.203     716.862    -99999.0     3606.29     267.700    0.200000     398.651     13.8883    -99999.0
     29.0000     20.0000     88.7074    -86.8107  -0.00152588     80.6905     478.249     718.569    -99999.0     3606.32     267.900    0.200000     398.143     12.3930    -99999.0
     29.1000     30.0000     88.7058    -86.8107  -0.00152588     73.4694     478.341     717.882    -99999.0     3606.29     267.900    0.200000     398.494     13.6111    -99999.0
     29.2000     25.0000     88.7058    -86.8415    0.000000     68.5350     478.288     715.796    -99999.0     3606.26     268.200    0.300000     399.118     14.5911    -99999.0
     29.3000     26.6667     88.7028    -86.9134  -0.00305176     73.4694     478.249     714.182    -99999.0     3606.32     268.400    0.200000     399.605     13.6111    -99999.0
     29.4000     65.0000     88.7008    -86.8723  -0.00204468     76.1560     478.318     713.479    -99999.0     3606.29     268.200    0.200000     399.931     13.1309    -99999.0
     29.5000     25.0000     88.7043    -86.8621  0.00357056     77.6846     478.341     713.803    -99999.0     3606.29     268.200    0.200000     399.854     12.8726    -99999.0
     29.6000     25.0000     88.7028    -86.8963  -0.00152588     76.5866     478.196     714.244    -99999.0     3606.29     268.100    0.300000     399.513     13.0571    -99999.0
     29.7000     30.0000     88.6982    -86.8826  -0.00458527     75.5189     478.226     716.067    -99999.0     3606.29     268.100    0.200000     398.946     13.2417    -99999.0
     29.8000     30.0000     88.7008    -86.8929  0.00254059     65.4616     478.203     716.167    -99999.0     3606.32     267.900    0.200000     398.882     15.2761    -99999.0
     29.9000     40.0000     88.6982    -86.9511  -0.00254059     72.9741     478.158     716.283    -99999.0     3606.29     267.700    0.300000     398.783     13.7035    -99999.0
     30.0000     10.0000     88.6936    -86.9545  -0.00458527     64.9624     478.066     715.472    -99999.0     3606.26     267.800    0.200000     398.931     15.3935    -99999.0
     30.1000     20.0000     88.6997    -86.7902  0.00611115     69.6836     478.135     717.133    -99999.0     3606.32     267.500    0.200000     398.469     14.3506    -99999.0
     30.2000     5.00000     88.6926    -86.8107  -0.00712585     66.2650     477.951     719.156    -99999.0     3606.29     267.300    0.200000     397.550     15.0909    -99999.0
     30.3000     50.0000     88.6890    -86.7593  -0.00356293     66.2650     477.928     721.149    -99999.0     3606.29     267.200    0.300000     396.855     15.0909    -99999.0
     30.4000     15.0000     88.6921    -86.2046  0.00305176     68.7967     477.814     722.030    -99999.0     3606.29     266.900    0.199000     396.408     14.5356    -99999.0
     30.5000     43.3333     88.6936    -86.1738  0.00152588     89.1703     477.814     721.953    -99999.0     3606.29     266.800    0.200000     396.434     11.2145    -99999.0
     30.6000     25.0000     88.6865    -86.2457  -0.00712585     75.9425     477.692     722.841    -99999.0     3606.32     267.000    0.300000     395.975     13.1679    -99999.0
     30.7000     25.0000     88.6860    -86.4409  -0.000511169     71.2444     477.607     724.092    -99999.0     3606.26     267.200    0.200000     395.446     14.0362    -99999.0
     30.8000     15.0000     88.6906    -86.5333  0.00458527     76.4785     477.287     725.807    -99999.0     3606.29     267.300    0.201000     394.446     13.0756    -99999.0
     30.9000     15.0000     88.6875    -86.5025  -0.00305176     72.9741     477.126     726.688    -99999.0     3606.31     267.700    0.200000     393.939     13.7035    -99999.0
     31.0000     40.0000     88.6824    -86.5539  -0.00509644     67.0882     477.248     728.812    -99999.0     3606.29     267.800    0.199000     393.394     14.9058    -99999.0
     31.1000     16.6667     88.6860    -86.6018  0.00356293     61.3657     477.355     728.773    -99999.0     3606.26     268.100    0.301000     393.549     16.2958    -99999.0
     31.2000     15.0000     88.6799    -86.7285  -0.00611115     55.5989     477.401     729.098    -99999.0     3606.32     268.100    0.199000     393.502     17.9860    -99999.0
     31.3000     25.0000     88.6768    -86.7799  -0.00305176     57.4391     477.600     730.697    -99999.0     3606.29     268.200    0.200000     393.234     17.4097    -99999.0
     31.4000     15.0000     88.6763    -86.7388  -0.000511169     61.7170     477.699     732.180    -99999.0     3606.29     268.200    0.200000     392.872     16.2030    -99999.0
