#------------------------------------------------------------
~VERSION INFORMATION
VERS.               2.0  :CWLS LOG ASCII STANDARD - VERSION 2.0
WRAP.                NO  :ONE LINE PER DEPTH STEP
#------------------------------------------------------------
~WELL INFORMATION
STRT.FT        0.100000  :FIRST INDEX VALUE
STOP.FT         110.000  :LAST INDEX VALUE
STEP.FT        0.100000  :STEP
NULL.            -99999  :NULL VALUE
COMP.                    :
WELL.                    :
FLD.                     :
LOC.                     :LOCATION
SRVC.              USGS  :SERVICE COMPANY
CTRY.                    :
STAT.                    :
CNTY.                    :
DATE.          05/06/18  :DATE
API.                     :
#------------------------------------------------------------
~CURVE INFORMATION
DEPT.FT                  :DEPTH
GAM(NAT).API-GR          :GAM(NAT)
TEMP.DEG_F               :TEMP
SP.MV                    :SP
DEL_TEMP.DEG_F           :DEL TEMP
IND_RES.OHM-M            :IND_RES
RES(16N).OHM-M           :RES(16N)
RES(64N).OHM-M           :RES(64N)
RES(FL).OHM/M            :RES(FL)
RES.OHM                  :RES
TENSION.CPS              :TENSION
TIME.SECONDS             :TIME
LATERAL.OHM-M            :LATERAL
COND.MMHO/M              :COND
SP_COND.µS/CM            :SP COND
#------------------------------------------------------------
~PARAMETER INFORMATION
sys_serial.    1         :sys serial
state.               TX  :state
fluid_ph.                :fluid ph
elev_gl.            984  :elev gl
other2serv.          ZE  :other2serv
casing_thick.         0  :casing thick
other1serv.          ZI  :other1serv
fluid_type.         H2O  :fluid type
other3serv.      ZM,OBI  :other3serv
temp_mud_filtrate.       :temp mud filtrate
RUN1.                    :RUN1
depth_driller.      110  :depth driller
section.             NA  :section
density_matrix.    2.71  :density matrix
RUN2.                    :RUN2
eng_units_or_cps.     E  :eng units or cps
fluid_density.           :fluid density
elev_df.             NA  :elev df
PROVINCE.                :PROVINCE
UNIQUE_WELL_ID.          :UNIQUE WELL ID
RUN3.                    :RUN3
township.            NA  :township
log_top.           0.90  :log top
delta_t_matrix.          :delta t matrix
RUN4.                    :RUN4
tool_serial_num.   2842  :tool serial num
field.            GAULT  :field
RUN5.                    :RUN5
bit_size.         7.875  :bit size
time.            18_50_  :time
RUN6.                    :RUN6
Name_Prn_AP.             :Name Prn AP
longitude.      97.7102  :longitude
fluid_viscosity.         :fluid viscosity
deltat_fluid.            :deltat fluid
elev_kb.             NA  :elev kb
permanent_datum.    LSD  :permanent datum
county.            BELL  :county
sys_version.   3.6XH     :sys version
logging_unit.       302  :logging unit
casing_diameter.    10.  :casing diameter
casing_type.        PVC  :casing type
file_type_id.    8144A   :file type id
temp_gradient.        0  :temp gradient
latitude.       30.8855  :latitude
feet_or_meter.        F  :feet or meter
mag_declination.      0  :mag declination
file_type.    ORIGINAL   :file type
mud_sample_source.   NA  :mud sample source
time_circ_stopped.   NA  :time circ stopped
mud_temp.            NA  :mud temp
res_mud_filtrate.        :res mud filtrate
remarks1.                :remarks1
company.                 :company
neutron_matrix. LIMESTONE  :neutron matrix
remarks2.                :remarks2
log_sample_int.     .10  :log sample int
elect_cutoff.      9999  :elect cutoff
range.               NA  :range
mean_surface_temp.       :mean surface temp
recorded_by.     THOMAS  :recorded by
mud_res.             NA  :mud res
log_bottom.      109.80  :log bottom
res_mud_cake.        NA  :res mud cake
elev_perm_datum.    984  :elev perm datum
truck_cal_num. 0.5956    :truck cal num
field_office.      USGS  :field office
log_meas_from.      LSD  :log meas from
drl_meas_from.       NA  :drl meas from
temp_mud_cake.           :temp mud cake
log_direction.        D  :log direction
casing_bottom.      110  :casing bottom
Cooperator. Clearwater UWCD  :Cooperator
Date_of_Logging. 05 / 06 / 2018  :Date of Logging
County.                  :County
Logging_probe_serial_number#1.   :Logging probe serial number#1
State.            Texas  :State
Well_Name.    M-14-001P  :Well Name
#------------------------------------------------------------
~OTHER
#------------------------------------------------------------
~A  DEPT[FT]    GAM(NAT)        TEMP          SP    DEL_TEMP     IND_RES    RES(16N)    RES(64N)     RES(FL)         RES     TENSION        TIME     LATERAL        COND     SP_COND
# ...
     58.3000     10.0000     87.9757     161.144  -0.00305176     47.6105     26.7775     57.3768    -99999.0     737.995     260.800    0.200000     16.5777     21.0038    -99999.0
     58.4000     10.0000     87.9742     142.436  -0.00152588     45.3912     27.0449     57.1451    -99999.0     489.935     260.600    0.200000     17.0115     22.0307    -99999.0
     58.5000     16.6667     87.9666     133.355  -0.00763702     51.7441     27.4422     56.1486    -99999.0     406.241     260.600    0.200000     17.8734     19.3259    -99999.0
     58.6000     5.00000     87.4961     129.738   -0.470459     45.5845     27.9465     56.0559    -99999.0     372.493     260.400    0.300000     18.5767     21.9373    -99999.0
     58.7000    0.000000     85.8663     129.913    -1.62979     41.0364     118.488     55.8165    -99999.0     360.292     260.300    0.200000     139.379     24.3686    -99999.0
     58.8000     5.00000     83.9412     132.091    -1.92513     43.7221     717.715     55.6388    -99999.0     351.631     260.200    0.200000     938.408     22.8717    -99999.0
     58.9000    0.000000     82.5463     135.471    -1.39483     43.5206     961.628     55.7315    -99999.0     346.302     260.100    0.200000     1263.59     22.9776    -99999.0
     59.0000     10.0000     81.3556     139.251    -1.19079     40.2932     1060.14     55.2140     21.1562     343.706     260.000    0.200000     1395.11     24.8181     472.675
     59.1000     10.0000     80.1605     141.546    -1.19504     43.5441     1089.92     54.8277     21.1479     341.927     260.200    0.300000     1434.95     22.9652     472.860
     59.2000     30.0000     79.1924     142.642   -0.968147     39.6643     1093.09     54.8277     21.1160     341.499     260.200    0.200000     1439.17     25.2116     473.573
     59.3000    0.000000     78.5404     143.258   -0.651985     41.0364     1090.89     54.7814     21.0980     340.843     260.200    0.200000     1436.25     24.3686     473.978
     59.4000     5.00000     77.8533     144.172   -0.687057     38.8367     1087.74     54.3874     21.1022     339.818     260.200    0.200000     1432.19     25.7489     473.884
     59.5000     5.00000     77.2619     144.744   -0.591408     39.6643     1085.04     54.2716     21.0648     339.381     260.100    0.300000     1428.63     25.2116     474.725
     59.6000     3.33333     76.8424     145.169   -0.419556     38.3801     1082.82     54.2407     21.0551     339.441     260.100    0.200000     1425.68     26.0552     474.944
     59.7000     5.00000     76.4580     145.323   -0.384338     43.5441     1079.99     54.2252     21.0607     339.978     260.000    0.200000     1421.91     22.9652     474.819
     59.8000     10.0000     76.0317     145.436   -0.426292     42.1702     1078.62     54.0630     21.0607     339.978     259.800    0.200000     1420.14     23.7135     474.819
     59.9000    0.000000     75.6638     145.744   -0.367897     40.5072     1077.52     53.7386     21.0191     338.635     259.600    0.300000     1418.78     24.6870     475.757
     60.0000    0.000000     75.3492     146.001   -0.314613     40.7234     1076.72     52.7885     21.0357     337.054     259.400    0.200000     1418.03     24.5559     475.381
     60.1000     5.00000     75.0703     146.176   -0.278908     39.2269     1075.96     51.8384     21.0551     335.881     259.200    0.200000     1417.33     25.4927     474.944
     60.2000    0.000000     74.8867     146.381   -0.183662     38.0786     1074.95     50.9346     21.0440     335.563     259.300    0.200000     1416.29     26.2615     475.194
     60.3000     3.33333     74.6860     146.566   -0.200676     38.9406     1074.08     50.0309     21.0274     335.533     259.400    0.200000     1415.43     25.6802     475.569
     60.4000     5.00000     74.4870     146.751   -0.198975     40.8480     1073.74     49.2430     21.0247     335.105     259.300    0.200000     1415.24     24.4810     475.632
     60.5000     20.0000     74.3169     146.956   -0.170059     38.1058     1070.65     50.8265     21.0565     334.578     259.300    0.300000     1410.59     26.2427     474.913
     60.6000     13.3333     74.1373     147.254   -0.179695     40.3034     1069.45     711.602     21.0524     334.340     259.400    0.200000     1188.74     24.8118     475.006
     60.7000    0.000000     73.9938     147.398   -0.143425     40.3846     1067.96     2567.96     21.0385     334.668     259.300    0.200000     567.965     24.7619     475.319
     60.8000    0.000000     73.8918     147.593   -0.102036     45.9760     1066.89     2882.44     21.0482     335.443     259.600    0.200000     461.701     21.7505     475.100
     60.9000     5.00000     73.7767     147.645   -0.115074     40.8480     1066.34     2882.46     21.0482     335.682     259.700    0.200000     460.960     24.4810     475.100
     61.0000     3.33333     73.6673     147.829   -0.109406     39.1981     1065.00     2882.44     21.0579     335.175     259.900    0.200000     459.185     25.5114     474.881
     61.1000     5.00000     73.5874     147.881  -0.0799332     38.7989     1063.45     2882.44     21.0565     334.548     259.800    0.200000     457.117     25.7739     474.913
     61.2000     10.0000     73.4808     148.066   -0.106567     42.5280     1062.69     2882.43     21.0607     333.683     259.700    0.300000     456.111     23.5139     474.819
     61.3000     3.33333     73.3884     148.189  -0.0923996     39.0546     1061.36     2882.44     21.0690     333.832     259.500    0.200000     454.336     25.6052     474.632
     61.4000     5.00000     73.3187     148.271  -0.0697250     38.2425     1059.80     2882.46     21.0468     334.111     259.400    0.200000     452.250     26.1489     475.131
     61.5000    0.000000     73.2541     148.415  -0.0646286     42.1369     1059.60     2683.78     21.0440     333.773     259.500    0.199000     518.204     23.7322     475.194
     61.6000     3.33333     73.1826     148.641  -0.0714264     40.0814     1058.89     1610.77     21.0524     333.087     259.700    0.201000     874.926     24.9493     475.006
     61.7000    0.000000     73.1435     148.734  -0.0391159     40.5379     1057.79     903.306     21.0634     332.440     259.600    0.200000     1109.28     24.6683     474.756
     61.8000     5.00000     73.1282     148.894  -0.0153046     40.8480     1056.14     593.233     21.0524     332.550     259.800    0.300000     1210.44     24.4810     475.006
     61.9000     6.66667     73.0976     149.021  -0.0306091     39.6250     1054.90     474.077     21.0856     333.087     259.800    0.200000     1248.51     25.2366     474.258
     62.0000    0.000000     73.0517     149.093  -0.0459213     42.1369     1053.60     403.491     21.0856     333.176     259.700    0.199000     1270.30     23.7322     474.258
     62.1000     10.0000     73.0058     149.299  -0.0459137     40.6924     1052.45     355.446     21.0994     332.520     259.700    0.200000     1284.78     24.5746     473.946
     62.2000     6.66667     72.9667     149.401  -0.0391159     41.8072     1050.43     329.546     21.0980     332.639     259.800    0.200000     1290.72     23.9193     473.978
     62.3000    0.000000     72.8935     149.483  -0.0731277     40.6924     1048.76     317.264     21.0980     333.156     259.800    0.201000     1292.59     24.5746     473.978
     62.4000     5.00000     72.8306     149.607  -0.0629196     40.6924     1046.88     309.177     21.1050     334.340     259.800    0.299000     1292.78     24.5746     473.822
     62.5000     3.33333     72.7830     149.689  -0.0476151     43.9255     1046.04     303.012     21.0980     335.264     259.900    0.201000     1293.71     22.7658     473.978
     62.6000     10.0000     72.7325     149.843  -0.0504532     43.8656     1045.09     298.934     21.0980     335.861     259.900    0.199000     1293.81     22.7969     473.978
     62.7000     5.00000     72.6929     149.966  -0.0396805     44.5969     1043.57     297.150     21.0967     336.617     259.700    0.200000     1292.38     22.4231     474.009
