#------------------------------------------------------------
~VERSION INFORMATION
VERS.               2.0  :CWLS LOG ASCII STANDARD - VERSION 2.0
WRAP.                NO  :ONE LINE PER DEPTH STEP
#------------------------------------------------------------
~WELL INFORMATION
STRT.FT        0.100000  :FIRST INDEX VALUE
STOP.FT         110.000  :LAST INDEX VALUE
STEP.FT        0.100000  :STEP
NULL.            -99999  :NULL VALUE
COMP.                    :
WELL.                    :
FLD.                     :
LOC.                     :LOCATION
SRVC.              USGS  :SERVICE COMPANY
CTRY.                    :
STAT.                    :
CNTY.                    :
DATE.          05/06/18  :DATE
API.                     :
#------------------------------------------------------------
~CURVE INFORMATION
DEPT.FT                  :DEPTH
GAM(NAT).API-GR          :GAM(NAT)
TEMP.DEG_F               :TEMP
SP.MV                    :SP
DEL_TEMP.DEG_F           :DEL TEMP
IND_RES.OHM-M            :IND_RES
RES(16N).OHM-M           :RES(16N)
RES(64N).OHM-M           :RES(64N)
RES(FL).OHM/M            :RES(FL)
RES.OHM                  :RES
TENSION.CPS              :TENSION
TIME.SECONDS             :TIME
LATERAL.OHM-M            :LATERAL
COND.MMHO/M              :COND
SP_COND.µS/CM            :SP COND
#------------------------------------------------------------
~PARAMETER INFORMATION
sys_serial.    1         :sys serial
state.               TX  :state
fluid_ph.                :fluid ph
elev_gl.            984  :elev gl
other2serv.          ZE  :other2serv
casing_thick.         0  :casing thick
other1serv.          ZI  :other1serv
fluid_type.         H2O  :fluid type
other3serv.      ZM,OBI  :other3serv
temp_mud_filtrate.       :temp mud filtrate
RUN1.                    :RUN1
depth_driller.      110  :depth driller
section.             NA  :section
density_matrix.    2.71  :density matrix
RUN2.                    :RUN2
eng_units_or_cps.     E  :eng units or cps
fluid_density.           :fluid density
elev_df.             NA  :elev df
PROVINCE.                :PROVINCE
UNIQUE_WELL_ID.          :UNIQUE WELL ID
RUN3.                    :RUN3
township.            NA  :township
log_top.           0.90  :log top
delta_t_matrix.          :delta t matrix
RUN4.                    :RUN4
tool_serial_num.   2842  :tool serial num
field.            GAULT  :field
RUN5.                    :RUN5
bit_size.         7.875  :bit size
time.            18_50_  :time
RUN6.                    :RUN6
Name_Prn_AP.             :Name Prn AP
longitude.      97.7102  :longitude
fluid_viscosity.         :fluid viscosity
deltat_fluid.            :deltat fluid
elev_kb.             NA  :elev kb
permanent_datum.    LSD  :permanent datum
county.            BELL  :county
sys_version.   3.6XH     :sys version
logging_unit.       302  :logging unit
casing_diameter.    10.  :casing diameter
casing_type.        PVC  :casing type
file_type_id.    8144A   :file type id
temp_gradient.        0  :temp gradient
latitude.       30.8855  :latitude
feet_or_meter.        F  :feet or meter
mag_declination.      0  :mag declination
file_type.    ORIGINAL   :file type
mud_sample_source.   NA  :mud sample source
time_circ_stopped.   NA  :time circ stopped
mud_temp.            NA  :mud temp
res_mud_filtrate.        :res mud filtrate
remarks1.                :remarks1
company.                 :company
neutron_matrix. LIMESTONE  :neutron matrix
remarks2.                :remarks2
log_sample_int.     .10  :log sample int
elect_cutoff.      9999  :elect cutoff
range.               NA  :range
mean_surface_temp.       :mean surface temp
recorded_by.     THOMAS  :recorded by
mud_res.             NA  :mud res
log_bottom.      109.80  :log bottom
res_mud_cake.        NA  :res mud cake
elev_perm_datum.    984  :elev perm datum
truck_cal_num. 0.5956    :truck cal num
field_office.      USGS  :field office
log_meas_from.      LSD  :log meas from
drl_meas_from.       NA  :drl meas from
temp_mud_cake.           :temp mud cake
log_direction.        D  :log direction
casing_bottom.      110  :casing bottom
Cooperator. Clearwater UWCD  :Cooperator
Date_of_Logging. 05 / 06 / 2018  :Date of Logging
County.                  :County
Logging_probe_serial_number#1.   :Logging probe serial number#1
State.            Texas  :State
Well_Name.    M-14-001P  :Well Name
#------------------------------------------------------------
~OTHER
#------------------------------------------------------------
~A  DEPT[FT]    GAM(NAT)        TEMP          SP    DEL_TEMP     IND_RES    RES(16N)    RES(64N)     RES(FL)         RES     TENSION        TIME     LATERAL        COND     SP_COND
# ...
     31.5000     26.6667     88.6799    -86.7525  0.00356293     57.1138     477.791     731.577    -99999.0     3606.29     267.900    0.300000     393.195     17.5089    -99999.0
     31.6000     5.00000     88.6768    -86.7285  -0.00305176     62.0009     477.883     732.133    -99999.0     3606.29     268.100    0.200000     393.132     16.1288    -99999.0
     31.7000     25.0000     88.6738    -86.7491  -0.00305176     63.6097     478.028     732.133    -99999.0     3606.29     268.000    0.201000     393.326     15.7209    -99999.0
     31.8000     30.0000     88.6712    -86.8004  -0.00254822     66.5919     478.089     730.789    -99999.0     3606.29     267.900    0.299000     393.855     15.0168    -99999.0
     31.9000     23.3333     88.6692    -86.8004  -0.00203705     66.6741     478.158     730.488    -99999.0     3606.29     267.800    0.201000     394.047     14.9983    -99999.0
     32.0000     25.0000     88.6661    -86.8929  -0.00305176     66.5919     478.158     729.051    -99999.0     3606.29     267.900    0.199000     394.526     15.0168    -99999.0
     32.1000     30.0000     88.6646    -86.8963  -0.00153351     73.4694     478.257     727.661    -99999.0     3606.32     267.700    0.300000     395.122     13.6111    -99999.0
     32.2000     16.6667     88.6677    -86.9340  0.00305939     78.6997     478.364     726.047    -99999.0     3606.26     267.600    0.200000     395.803     12.7065    -99999.0
     32.3000     10.0000     88.6600    -86.9134  -0.00763702     73.7698     478.478     725.089    -99999.0     3606.32     267.500    0.200000     396.275     13.5557    -99999.0
     32.4000     15.0000     88.6621    -86.9032  0.00203705     76.4785     478.570     724.000    -99999.0     3606.29     267.600    0.200000     396.760     13.0756    -99999.0
     32.5000     30.0000     88.6570    -86.8895  -0.00508881     80.5707     478.578     723.513    -99999.0     3606.29     267.500    0.300000     396.933     12.4115    -99999.0
     32.6000     13.3333     88.6570    -86.8621    0.000000     71.4326     478.662     724.764    -99999.0     3606.29     267.600    0.200000     396.628     13.9992    -99999.0
     32.7000     20.0000     88.6554    -86.8518  -0.00153351     72.3884     478.662     727.336    -99999.0     3606.29     267.800    0.200000     395.770     13.8144    -99999.0
     32.8000     5.00000     88.6509    -86.8552  -0.00457764     94.4328     478.799     728.773    -99999.0     3606.29     267.900    0.300000     395.475     10.5895    -99999.0
     32.9000     15.0000     88.6463    -86.9032  -0.00458527     73.7698     478.754     729.244    -99999.0     3606.32     268.200    0.200000     395.257     13.5557    -99999.0
     33.0000     23.3333     88.6448    -86.8621  -0.00152588     82.2814     478.899     730.558    -99999.0     3606.26     268.200    0.200000     395.012     12.1534    -99999.0
     33.1000     25.0000     88.6463    -86.8552  0.00152588     85.5217     478.776     731.809    -99999.0     3606.32     268.100    0.300000     394.432     11.6929    -99999.0
     33.2000     10.0000     88.6437    -86.9134  -0.00254822     77.0221     478.845     735.161    -99999.0     3606.29     268.000    0.200000     393.407     12.9833    -99999.0
     33.3000     15.0000     88.6417    -86.9340  -0.00203705     68.7092     478.845     737.116    -99999.0     3606.29     267.900    0.200000     392.755     14.5541    -99999.0
     33.4000     30.0000     88.6386    -86.9374  -0.00305176     73.9714     479.006     737.255    -99999.0     3606.29     267.700    0.300000     392.923     13.5187    -99999.0
     33.5000     5.00000     88.6366    -86.9648  -0.00203705     86.3372     478.914     738.367    -99999.0     3606.29     267.600    0.200000     392.430     11.5825    -99999.0
     33.6000     20.0000     88.6325    -86.8107  -0.00407410     77.0221     478.914     742.747    -99999.0     3606.32     267.500    0.200000     390.970     12.9833    -99999.0
     33.7000     40.0000     88.6325    -86.7936    0.000000     85.7463     478.960     747.242    -99999.0     3606.29     267.800    0.300000     389.532     11.6623    -99999.0
     33.8000     15.0000     88.6280    -86.7902  -0.00457764     72.8758     478.853     749.953    -99999.0     3606.26     267.800    0.200000     388.486     13.7220    -99999.0
     33.9000     16.6667     88.6274    -87.0059  -0.000511169     67.0050     478.845     751.228    -99999.0     3606.29     267.900    0.200000     388.051     14.9243    -99999.0
     34.0000     5.00000     88.6234    -87.1189  -0.00407410     69.1488     478.754     753.406    -99999.0     3606.32     268.200    0.200000     387.203     14.4616    -99999.0
     34.1000     10.0000     88.6218    -86.9854  -0.00152588     78.1326     478.754     757.361    -99999.0     3606.29     268.200    0.300000     385.884     12.7988    -99999.0
     34.2000     5.00000     88.6218    -86.9443    0.000000     77.5734     478.563     760.567    -99999.0     3606.26     268.500    0.200000     384.561     12.8910    -99999.0
     34.3000     26.6667     88.6203    -86.8929  -0.00153351     67.4231     478.593     762.722    -99999.0     3606.32     268.700    0.200000     383.884     14.8317    -99999.0
     34.4000     25.0000     88.6188    -86.9443  -0.00152588     78.6997     478.478     764.143    -99999.0     3606.29     268.500    0.200000     383.257     12.7065    -99999.0
     34.5000     20.0000     88.6203    -86.9785  0.00152588     68.7092     478.410     765.989    -99999.0     3606.29     268.400    0.300000     382.550     14.5541    -99999.0
     34.6000     15.0000     88.6157    -87.0059  -0.00457764     81.4582     478.158     766.708    -99999.0     3606.29     268.100    0.200000     381.974     12.2762    -99999.0
     34.7000     10.0000     88.6132    -86.9854  -0.00254822     83.5479     478.158     767.897    -99999.0     3606.29     267.700    0.200000     381.578     11.9692    -99999.0
     34.8000     15.0000     88.6111    -86.9956  -0.00203705     73.8705     478.089     767.588    -99999.0     3606.32     267.600    0.200000     381.589     13.5372    -99999.0
     34.9000     5.00000     88.6081    -86.9100  -0.00305176     70.0448     478.043     768.260    -99999.0     3606.29     267.500    0.300000     381.304     14.2766    -99999.0
     35.0000     5.00000     88.6081    -86.9032    0.000000     70.5014     478.043     768.747    -99999.0     3606.26     267.600    0.200000     381.142     14.1841    -99999.0
     35.1000     13.3333     88.6081    -87.0573    0.000000     70.0448     478.066     768.732    -99999.0     3606.32     267.300    0.199000     381.177     14.2766    -99999.0
     35.2000     20.0000     88.6030    -87.0675  -0.00509644     75.3089     478.257     769.210    -99999.0     3606.29     267.200    0.301000     381.272     13.2786    -99999.0
     35.3000     10.0000     88.5989    -87.0264  -0.00407410     71.7486     478.341     769.882    -99999.0     3606.29     267.300    0.199000     381.160     13.9375    -99999.0
     35.4000     23.3333     88.6035    -86.9340  0.00458527     66.9219     478.410     769.442    -99999.0     3606.26     267.100    0.201000     381.399     14.9428    -99999.0
     35.5000     10.0000     88.5974    -86.9100  -0.00611115     70.5014     478.318     769.164    -99999.0     3606.32     267.400    0.299000     381.369     14.1841    -99999.0
     35.6000     25.0000     88.5918    -86.9545  -0.00559235     74.2759     478.341     770.693    -99999.0     3606.29     267.700    0.201000     380.890     13.4633    -99999.0
     35.7000     20.0000     88.5928    -86.9922  0.00101471     66.5919     478.074     771.265    -99999.0     3606.26     267.600    0.299000     380.343     15.0168    -99999.0
     35.8000     6.66667     88.5898    -87.0573  -0.00305939     71.6848     477.997     771.644    -99999.0     3606.32     267.600    0.201000     380.115     13.9500    -99999.0
     35.9000     10.0000     88.5882    -87.0367  -0.00152588     72.8758     477.928     770.068    -99999.0     3606.29     267.300    0.200000     380.549     13.7220    -99999.0
