#------------------------------------------------------------
~VERSION INFORMATION
VERS.               2.0  :CWLS LOG ASCII STANDARD - VERSION 2.0
WRAP.                NO  :ONE LINE PER DEPTH STEP
#------------------------------------------------------------
~WELL INFORMATION
STRT.FT        0.100000  :FIRST INDEX VALUE
STOP.FT         110.000  :LAST INDEX VALUE
STEP.FT        0.100000  :STEP
NULL.            -99999  :NULL VALUE
COMP.                    :
WELL.                    :
FLD.                     :
LOC.                     :LOCATION
SRVC.              USGS  :SERVICE COMPANY
CTRY.                    :
STAT.                    :
CNTY.                    :
DATE.          05/06/18  :DATE
API.                     :
#------------------------------------------------------------
~CURVE INFORMATION
DEPT.FT                  :DEPTH
GAM(NAT).API-GR          :GAM(NAT)
TEMP.DEG_F               :TEMP
SP.MV                    :SP
DEL_TEMP.DEG_F           :DEL TEMP
IND_RES.OHM-M            :IND_RES
RES(16N).OHM-M           :RES(16N)
RES(64N).OHM-M           :RES(64N)
RES(FL).OHM/M            :RES(FL)
RES.OHM                  :RES
TENSION.CPS              :TENSION
TIME.SECONDS             :TIME
LATERAL.OHM-M            :LATERAL
COND.MMHO/M              :COND
SP_COND.µS/CM            :SP COND
#------------------------------------------------------------
~PARAMETER INFORMATION
sys_serial.    1         :sys serial
state.               TX  :state
fluid_ph.                :fluid ph
elev_gl.            984  :elev gl
other2serv.          ZE  :other2serv
casing_thick.         0  :casing thick
other1serv.          ZI  :other1serv
fluid_type.         H2O  :fluid type
other3serv.      ZM,OBI  :other3serv
temp_mud_filtrate.       :temp mud filtrate
RUN1.                    :RUN1
depth_driller.      110  :depth driller
section.             NA  :section
density_matrix.    2.71  :density matrix
RUN2.                    :RUN2
eng_units_or_cps.     E  :eng units or cps
fluid_density.           :fluid density
elev_df.             NA  :elev df
PROVINCE.                :PROVINCE
UNIQUE_WELL_ID.          :UNIQUE WELL ID
RUN3.                    :RUN3
township.            NA  :township
log_top.           0.90  :log top
delta_t_matrix.          :delta t matrix
RUN4.                    :RUN4
tool_serial_num.   2842  :tool serial num
field.            GAULT  :field
RUN5.                    :RUN5
bit_size.         7.875  :bit size
time.            18_50_  :time
RUN6.                    :RUN6
Name_Prn_AP.             :Name Prn AP
longitude.      97.7102  :longitude
fluid_viscosity.         :fluid viscosity
deltat_fluid.            :deltat fluid
elev_kb.             NA  :elev kb
permanent_datum.    LSD  :permanent datum
county.            BELL  :county
sys_version.   3.6XH     :sys version
logging_unit.       302  :logging unit
casing_diameter.    10.  :casing diameter
casing_type.        PVC  :casing type
file_type_id.    8144A   :file type id
temp_gradient.        0  :temp gradient
latitude.       30.8855  :latitude
feet_or_meter.        F  :feet or meter
mag_declination.      0  :mag declination
file_type.    ORIGINAL   :file type
mud_sample_source.   NA  :mud sample source
time_circ_stopped.   NA  :time circ stopped
mud_temp.            NA  :mud temp
res_mud_filtrate.        :res mud filtrate
remarks1.                :remarks1
company.                 :company
neutron_matrix. LIMESTONE  :neutron matrix
remarks2.                :remarks2
log_sample_int.     .10  :log sample int
elect_cutoff.      9999  :elect cutoff
range.               NA  :range
mean_surface_temp.       :mean surface temp
recorded_by.     THOMAS  :recorded by
mud_res.             NA  :mud res
log_bottom.      109.80  :log bottom
res_mud_cake.        NA  :res mud cake
elev_perm_datum.    984  :elev perm datum
truck_cal_num. 0.5956    :truck cal num
field_office.      USGS  :field office
log_meas_from.      LSD  :log meas from
drl_meas_from.       NA  :drl meas from
temp_mud_cake.           :temp mud cake
log_direction.        D  :log direction
casing_bottom.      110  :casing bottom
Cooperator. Clearwater UWCD  :Cooperator
Date_of_Logging. 05 / 06 / 2018  :Date of Logging
County.                  :County
Logging_probe_serial_number#1.   :Logging probe serial number#1
State.            Texas  :State
Well_Name.    M-14-001P  :Well Name
#------------------------------------------------------------
~OTHER
#------------------------------------------------------------
~A  DEPT[FT]    GAM(NAT)        TEMP          SP    DEL_TEMP     IND_RES    RES(16N)    RES(64N)     RES(FL)         RES     TENSION        TIME     LATERAL        COND     SP_COND
# ...
     67.3000     13.3333     71.8437     149.470  -0.00566864     42.4044     225.672     306.048     21.0482     194.345     258.800    0.301000     198.880     23.5825     475.100
     67.4000     45.0000     71.8306     149.494  -0.0130310     40.9734     224.571     308.358     21.0233     195.568     258.800    0.199000     196.643     24.4061     475.663
     67.5000     30.0000     71.8221     149.576  -0.00850677     41.0995     223.746     312.560     21.0067     195.628     258.700    0.200000     194.142     24.3312     476.039
     67.6000     15.0000     71.8102     149.751  -0.0119095     41.9385     223.425     317.774     20.9776     194.614     258.600    0.200000     191.976     23.8445     476.699
     67.7000     60.0000     71.7966     149.864  -0.0135956     42.4044     223.998     324.031     20.9527     192.078     258.700    0.201000     190.654     23.5825     477.266
     67.8000     5.00000     71.7830     149.833  -0.0136108     43.4733     225.190     330.635     20.9388     188.767     258.800    0.299000     190.042     23.0026     477.582
     67.9000     30.0000     71.7762     149.576  -0.00679779     42.0705     226.749     339.209     20.9028     185.426     259.000    0.201000     189.262     23.7696     478.405
     68.0000     20.0000     71.7734     149.401  -0.00283051     44.0462     228.652     347.922     20.8987     181.101     259.100    0.199000     188.895     22.7034     478.500
     68.1000    0.000000     71.7575     149.093  -0.0158768     43.2623     230.485     355.708     20.8779     174.975     259.000    0.301000     188.744     23.1148     478.976
     68.2000     5.00000     71.7507     148.600  -0.00680542     45.1234     231.127     364.537     20.8654     169.705     258.800    0.199000     186.657     22.1615     479.262
     68.3000     16.6667     71.7388     148.343  -0.0119019     42.6072     230.210     373.621     20.8405     167.229     258.800    0.200000     182.407     23.4702     479.835
     68.4000     5.00000     71.7252     148.079  -0.0136108     43.4380     227.941     386.405     20.8419     166.126     258.900    0.300000     175.120     23.0213     479.803
     68.5000     10.0000     71.7116     147.922  -0.0136032     42.7435     224.594     400.664     20.8239     165.529     258.900    0.200000     165.904     23.3954     480.218
     68.6000     10.0000     71.7031     147.829  -0.00849915     45.3144     220.537     403.723     20.8073     164.604     259.000    0.200000     159.475     22.0680     480.601
     68.7000    0.000000     71.6844     147.285  -0.0187073     43.9738     216.457     409.122     20.7948     163.918     259.000    0.300000     152.235     22.7408     480.889
     68.8000     5.00000     71.6827     146.607  -0.00170135     38.5744     213.019     417.697     20.7782     163.839     258.800    0.200000     144.793     25.9239     481.274
     68.9000     15.0000     71.6759     146.504  -0.00680542     36.0924     210.024     425.761     20.7657     164.843     259.000    0.200000     138.111     27.7067     481.563
     69.0000     20.0000     71.6691     146.086  -0.00679779     36.8414     208.618     431.500     20.7477     166.245     259.100    0.300000     134.324     27.1434     481.980
     69.1000     5.00000     71.6606     145.847  -0.00850677     37.3580     208.893     430.743     20.7408     166.782     259.100    0.200000     134.943     26.7680     482.141
     69.2000     5.00000     71.6464     145.446  -0.0141754     35.4200     209.397     424.950     20.7117     166.603     259.300    0.200000     137.546     28.2327     482.818
     69.3000    0.000000     71.6419     145.241  -0.00453186     35.4908     210.337     414.962     20.6993     166.722     259.300    0.200000     142.129     28.1763     483.109
     69.4000     5.00000     71.6300     144.970  -0.0119019     34.6812     212.209     401.429     20.6647     169.079     259.200    0.300000     149.135     28.8340     483.918
     69.5000    0.000000     71.6232     144.614  -0.00680542     34.9088     214.967     386.065     20.6370     178.505     259.100    0.200000     157.934     28.6461     484.567
     69.6000     5.00000     71.6113     144.439  -0.0119019     31.8733     217.764     370.076     20.5996     206.675     259.100    0.200000     166.993     31.3742     485.447
     69.7000    0.000000     71.6045     144.388  -0.00680542     32.7579     219.781     354.272     20.5663     246.757     258.900    0.300000     174.951     30.5269     486.231
     69.8000    0.000000     71.5960     144.367  -0.00849915     34.8859     219.987     339.811     20.5580     276.349     259.100    0.200000     180.046     28.6649     486.428
     69.9000     10.0000     71.5840     144.367  -0.0119095     35.2557     218.673     324.054     20.5373     298.364     259.400    0.200000     183.546     28.3642     486.920
     70.0000     5.00000     71.5807     144.696  -0.00339508     34.3453     217.259     312.212     20.5248     312.116     259.500    0.200000     185.608     29.1160     487.215
     70.1000     5.00000     71.5772     145.189  -0.00340271     33.7996     216.870     306.998     20.4819     316.829     259.400    0.300000     186.827     29.5862     488.236
     70.2000     10.0000     71.5687     145.539  -0.00850677     33.4803     217.878     305.029     20.4583     308.626     259.300    0.200000     188.828     29.8683     488.798
     70.3000     6.66667     71.5659     145.754  -0.00283051     32.1629     218.497     306.210     20.4500     292.696     259.200    0.200000     189.259     31.0917     488.997
     70.4000     5.00000     71.5602     145.874  -0.00566864     31.9500     217.389     311.834     20.4127     266.833     259.000    0.300000     185.908     31.2989     489.892
     70.5000    0.000000     71.5568     145.939  -0.00340271     31.9693     214.875     320.670     20.3877     232.439     259.100    0.200000     179.610     31.2800     490.491
     70.6000     10.0000     71.5483     145.251  -0.00849915     31.6831     209.030     330.102     20.3628     192.834     259.200    0.200000     168.673     31.5626     491.091
     70.7000    0.000000     71.5381     144.456  -0.0102081     31.7589     203.942     343.488     20.3503     167.259     259.200    0.300000     157.426     31.4872     491.392
     70.8000    0.000000     71.5330     143.905  -0.00509644     30.0671     200.595     356.427     20.3254     157.147     259.300    0.200000     148.651     33.2589     491.995
     70.9000     10.0000     71.5228     143.710  -0.0102081     28.9979     197.523     364.885     20.2908     152.135     259.500    0.200000     141.736     34.4853     492.834
     71.0000     10.0000     71.5211     143.710  -0.00170135     30.3946     193.260     371.327     20.2631     150.345     259.500    0.300000     133.904     32.9006     493.508
     71.1000     10.0000     71.5104     143.802  -0.0107727     30.2386     188.355     373.899     20.2299     148.645     259.400    0.200000     126.507     33.0703     494.318
     71.2000     30.0000     71.5041     143.782  -0.00623322     27.5638     184.000     372.972     20.1967     146.945     259.300    0.200000     121.009     36.2795     495.132
     71.3000     6.66667     71.5007     143.778  -0.00340271     27.5638     179.301     365.549     20.1593     145.065     259.300    0.300000     117.218     36.2795     496.050
     71.4000     20.0000     71.5024     143.669  0.00170135     26.9873     174.189     329.175     20.1330     143.872     259.200    0.200000     122.527     37.0545     496.698
     71.5000     15.0000     71.4990     143.504  -0.00340271     27.2795     168.848     293.233     20.0803     143.813     259.400    0.300000     127.386     36.6575     498.000
     71.6000     10.0000     71.4888     143.155  -0.0102005     25.0671     163.438     260.235     20.0554     143.872     259.400    0.200000     131.173     39.8929     498.618
     71.7000     5.00000     71.4871     142.652  -0.00170135     24.8898     158.281     236.505     20.0305     142.679     259.300    0.200000     132.206     40.1770     499.239
