#------------------------------------------------------------
~VERSION INFORMATION
VERS.               2.0  :CWLS LOG ASCII STANDARD - VERSION 2.0
WRAP.                NO  :ONE LINE PER DEPTH STEP
#------------------------------------------------------------
~WELL INFORMATION
STRT.FT        0.100000  :FIRST INDEX VALUE
STOP.FT         110.000  :LAST INDEX VALUE
STEP.FT        0.100000  :STEP
NULL.            -99999  :NULL VALUE
COMP.                    :
WELL.                    :
FLD.                     :
LOC.                     :LOCATION
SRVC.              USGS  :SERVICE COMPANY
CTRY.                    :
STAT.                    :
CNTY.                    :
DATE.          05/06/18  :DATE
API.                     :
#------------------------------------------------------------
~CURVE INFORMATION
DEPT.FT                  :DEPTH
GAM(NAT).API-GR          :GAM(NAT)
TEMP.DEG_F               :TEMP
SP.MV                    :SP
DEL_TEMP.DEG_F           :DEL TEMP
IND_RES.OHM-M            :IND_RES
RES(16N).OHM-M           :RES(16N)
RES(64N).OHM-M           :RES(64N)
RES(FL).OHM/M            :RES(FL)
RES.OHM                  :RES
TENSION.CPS              :TENSION
TIME.SECONDS             :TIME
LATERAL.OHM-M            :LATERAL
COND.MMHO/M              :COND
SP_COND.µS/CM            :SP COND
#------------------------------------------------------------
~PARAMETER INFORMATION
sys_serial.    1         :sys serial
state.               TX  :state
fluid_ph.                :fluid ph
elev_gl.            984  :elev gl
other2serv.          ZE  :other2serv
casing_thick.         0  :casing thick
other1serv.          ZI  :other1serv
fluid_type.         H2O  :fluid type
other3serv.      ZM,OBI  :other3serv
temp_mud_filtrate.       :temp mud filtrate
RUN1.                    :RUN1
depth_driller.      110  :depth driller
section.             NA  :section
density_matrix.    2.71  :density matrix
RUN2.                    :RUN2
eng_units_or_cps.     E  :eng units or cps
fluid_density.           :fluid density
elev_df.             NA  :elev df
PROVINCE.                :PROVINCE
UNIQUE_WELL_ID.          :UNIQUE WELL ID
RUN3.                    :RUN3
township.            NA  :township
log_top.           0.90  :log top
delta_t_matrix.          :delta t matrix
RUN4.                    :RUN4
tool_serial_num.   2842  :tool serial num
field.            GAULT  :field
RUN5.                    :RUN5
bit_size.         7.875  :bit size
time.            18_50_  :time
RUN6.                    :RUN6
Name_Prn_AP.             :Name Prn AP
longitude.      97.7102  :longitude
fluid_viscosity.         :fluid viscosity
deltat_fluid.            :deltat fluid
elev_kb.             NA  :elev kb
permanent_datum.    LSD  :permanent datum
county.            BELL  :county
sys_version.   3.6XH     :sys version
logging_unit.       302  :logging unit
casing_diameter.    10.  :casing diameter
casing_type.        PVC  :casing type
file_type_id.    8144A   :file type id
temp_gradient.        0  :temp gradient
latitude.       30.8855  :latitude
feet_or_meter.        F  :feet or meter
mag_declination.      0  :mag declination
file_type.    ORIGINAL   :file type
mud_sample_source.   NA  :mud sample source
time_circ_stopped.   NA  :time circ stopped
mud_temp.            NA  :mud temp
res_mud_filtrate.        :res mud filtrate
remarks1.                :remarks1
company.                 :company
neutron_matrix. LIMESTONE  :neutron matrix
remarks2.                :remarks2
log_sample_int.     .10  :log sample int
elect_cutoff.      9999  :elect cutoff
range.               NA  :range
mean_surface_temp.       :mean surface temp
recorded_by.     THOMAS  :recorded by
mud_res.             NA  :mud res
log_bottom.      109.80  :log bottom
res_mud_cake.        NA  :res mud cake
elev_perm_datum.    984  :elev perm datum
truck_cal_num. 0.5956    :truck cal num
field_office.      USGS  :field office
log_meas_from.      LSD  :log meas from
drl_meas_from.       NA  :drl meas from
temp_mud_cake.           :temp mud cake
log_direction.        D  :log direction
casing_bottom.      110  :casing bottom
Cooperator. Clearwater UWCD  :Cooperator
Date_of_Logging. 05 / 06 / 2018  :Date of Logging
County.                  :County
Logging_probe_serial_number#1.   :Logging probe serial number#1
State.            Texas  :State
Well_Name.    M-14-001P  :Well Name
#------------------------------------------------------------
~OTHER
#------------------------------------------------------------
~A  DEPT[FT]    GAM(NAT)        TEMP          SP    DEL_TEMP     IND_RES    RES(16N)    RES(64N)     RES(FL)         RES     TENSION        TIME     LATERAL        COND     SP_COND
# ...
     80.6000     10.0000     71.2456     128.680  -0.00396729     15.6881     44.6796     80.4804     19.6733     108.941     258.700    0.200000     32.7459     63.7425     508.304
     80.7000     5.00000     71.2456     128.506    0.000000     15.5249     44.7483     79.8779     19.6816     109.090     258.900    0.200000     33.0385     64.4126     508.090
     80.8000     10.0000     71.2428     128.362  -0.00283813     15.4331     44.6184     79.0514     19.6691     109.925     259.000    0.300000     33.1408     64.7956     508.412
     80.9000     25.0000     71.2388     128.197  -0.00396729     15.6881     44.5650     78.5339     19.6677     110.074     259.200    0.200000     33.2420     63.7425     508.447
     81.0000     20.0000     71.2456     128.105  0.00680542     15.7354     44.4733     78.0241     19.6650     109.567     259.400    0.200000     33.2897     63.5510     508.519
     81.1000     15.0000     71.2394     128.006  -0.00624084     15.8548     44.4504     77.4602     19.6705     109.289     259.400    0.300000     33.4471     63.0725     508.376
     81.2000     40.0000     71.2354     127.951  -0.00396729     15.9224     44.3587     76.7496     19.6691     109.508     259.400    0.200000     33.5617     62.8045     508.412
     81.3000     10.0000     71.2315     127.869  -0.00396729     15.9760     44.2899     76.1934     19.6774     110.343     259.300    0.200000     33.6554     62.5940     508.197
     81.4000     15.0000     71.2354     127.745  0.00396729     15.6646     44.1753     75.4673     19.6650     111.089     259.200    0.300000     33.7446     63.8382     508.519
     81.5000     15.0000     71.2320     127.653  -0.00340271     16.2559     44.0836     74.7103     19.6650     110.979     259.200    0.200000     33.8747     61.5162     508.519
     81.6000     10.0000     71.2315     127.602  -0.000564575     16.3713     44.0836     74.2700     19.6816     110.462     259.300    0.200000     34.0215     61.0827     508.090
     81.7000     6.66667     71.2235     127.519  -0.00793457     16.4779     44.1447     73.7602     19.6677     110.223     259.200    0.200000     34.2729     60.6875     508.447
     81.8000     20.0000     71.2218     127.307  -0.00170135     16.3508     44.2211     73.1036     19.6691     110.462     259.300    0.300000     34.5936     61.1592     508.412
     81.9000     25.0000     71.2258     127.139  0.00397491     16.9221     44.3892     72.4625     19.6566     111.417     259.400    0.200000     35.0315     59.0944     508.734
     82.0000    0.000000     71.2252     127.026  -0.000572205     17.0378     44.6108     71.9527     19.6691     111.506     259.300    0.200000     35.4968     58.6931     508.412
     82.1000     10.0000     71.2201     126.766  -0.00510406     17.4486     44.8400     71.4043     19.6733     110.840     259.300    0.300000     35.9853     57.3113     508.304
     82.2000    0.000000     71.2235     126.502  0.00340271     17.4350     45.0005     70.9331     19.6650     110.313     259.400    0.199000     36.3563     57.3559     508.519
     82.3000     10.0000     71.2213     126.420  -0.00226593     17.5303     45.2755     70.4233     19.6733     110.432     259.400    0.201000     36.8930     57.0439     508.304
     82.4000     20.0000     71.2201     126.232  -0.00113678     17.4089     45.4818     69.9212     19.6733     111.437     259.600    0.299000     37.3354     57.4418     508.304
     82.5000     10.0000     71.2184     126.030  -0.00170135     18.1498     45.6881     69.3805     19.6691     112.312     259.900    0.201000     37.7907     55.0970     508.412
     82.6000     10.0000     71.2190     125.906  0.000572205     18.1289     45.9861     68.9325     19.6691     112.292     259.900    0.200000     38.3373     55.1606     508.412
     82.7000     5.00000     71.2150     125.746  -0.00397491     17.9059     46.1237     68.4999     19.6650     112.222     260.200    0.299000     38.6649     55.8476     508.519
     82.8000     20.0000     71.2167     125.578  0.00170135     18.4317     46.5133     68.1987     19.6733     112.729     260.200    0.201000     39.2849     54.2545     508.304
     82.9000     10.0000     71.2150     125.465  -0.00170135     18.8682     46.9030     67.6966     19.6733     114.121     260.200    0.200000     39.9718     52.9991     508.304
     83.0000     20.0000     71.2190     125.300  0.00397491     19.0740     47.2927     67.3181     19.6816     115.623     259.900    0.300000     40.6175     52.4273     508.090
     83.1000     6.66667     71.2082     125.033  -0.0107727     19.6795     48.0109     67.0477     19.6816     115.772     259.600    0.199000     41.6653     50.8143     508.090
     83.2000     10.0000     71.2065     124.951  -0.00170135     19.8244     48.7368     66.8314     19.6733     115.295     259.300    0.200000     42.7052     50.4430     508.304
     83.3000     20.0000     71.2110     124.718  0.00453186     20.2511     49.4244     66.7851     19.6691     114.907     259.200    0.300000     43.6375     49.3800     508.412
     83.4000     10.0000     71.2082     124.530  -0.00283051     20.7576     50.4712     66.5534     19.6816     115.056     259.400    0.200000     45.1105     48.1751     508.090
     83.5000     10.0000     71.2048     124.369  -0.00340271     21.4199     51.5791     66.3680     19.6650     115.871     259.600    0.300000     46.6495     46.6856     508.519
     83.6000    0.000000     71.2065     124.252  0.00170135     22.1253     52.5877     66.1594     19.6774     116.190     259.700    0.200000     48.0637     45.1972     508.197
     83.7000     16.6667     71.2014     124.078  -0.00510406     22.9212     53.5275     65.9200     19.6733     116.011     259.500    0.200000     49.3966     43.6278     508.304
     83.8000     20.0000     71.2031     123.835  0.00170135     22.6974     54.6277     65.6264     19.6940     115.931     259.500    0.300000     50.9615     44.0579     507.768
     83.9000     25.0000     71.2008     123.667  -0.00226593     23.0953     55.8655     65.2788     19.6871     116.577     259.600    0.200000     52.7277     43.2988     507.947
     84.0000     10.0000     71.1963     123.533  -0.00453949     23.0113     56.6907     64.6841     19.6774     118.069     259.600    0.200000     54.0262     43.4570     508.197
     84.1000     5.00000     71.2020     123.335  0.00567627     24.3315     57.8674     64.0043     19.6733     119.928     260.000    0.300000     55.8217     41.0990     508.304
     84.2000     5.00000     71.1997     123.102  -0.00227356     25.0315     59.1663     63.4945     19.6788     120.933     260.200    0.200000     57.7235     39.9497     508.161
     84.3000     16.6667     71.1963     122.896  -0.00340271     24.0432     60.1978     63.0774     19.7106     121.559     260.400    0.200000     59.2379     41.5919     507.340
     84.4000     15.0000     71.1997     122.732  0.00340271     25.0315     61.6877     62.5521     19.6650     122.245     260.400    0.300000     61.3996     39.9497     508.519
     84.5000     15.0000     71.1963     122.547  -0.00340271     26.0093     63.3610     62.0346     19.6483     123.767     260.300    0.200000     63.8031     38.4478     508.949
     84.6000     25.0000     71.1946     122.362  -0.00169373     26.7101     65.1871     61.6175     19.6608     125.795     260.000    0.200000     66.3770     37.4390     508.626
     84.7000     13.3333     71.1906     122.218  -0.00397491     27.5065     67.2577     61.1308     19.6982     126.899     259.700    0.200000     69.3000     36.3551     507.661
     84.8000     5.00000     71.1946     121.965  0.00397491     27.2702     69.0227     60.7601     19.6733     127.585     259.300    0.300000     71.7770     36.6701     508.304
     84.9000     20.0000     71.1929     121.653  -0.00170898     28.4833     71.1927     60.5283     19.6940     128.152     259.300    0.200000     74.7475     35.1083     507.768
     85.0000     6.66667     71.1940     121.448  0.00113678     29.6966     73.4008     60.0958     19.6733     129.196     259.400    0.200000     77.8359     33.6739     508.304
