#------------------------------------------------------------
~VERSION INFORMATION
VERS.               2.0  :CWLS LOG ASCII STANDARD - VERSION 2.0
WRAP.                NO  :ONE LINE PER DEPTH STEP
#------------------------------------------------------------
~WELL INFORMATION
STRT.FT        0.100000  :FIRST INDEX VALUE
STOP.FT         110.000  :LAST INDEX VALUE
STEP.FT        0.100000  :STEP
NULL.            -99999  :NULL VALUE
COMP.                    :
WELL.                    :
FLD.                     :
LOC.                     :LOCATION
SRVC.              USGS  :SERVICE COMPANY
CTRY.                    :
STAT.                    :
CNTY.                    :
DATE.          05/06/18  :DATE
API.                     :
#------------------------------------------------------------
~CURVE INFORMATION
DEPT.FT                  :DEPTH
GAM(NAT).API-GR          :GAM(NAT)
TEMP.DEG_F               :TEMP
SP.MV                    :SP
DEL_TEMP.DEG_F           :DEL TEMP
IND_RES.OHM-M            :IND_RES
RES(16N).OHM-M           :RES(16N)
RES(64N).OHM-M           :RES(64N)
RES(FL).OHM/M            :RES(FL)
RES.OHM                  :RES
TENSION.CPS              :TENSION
TIME.SECONDS             :TIME
LATERAL.OHM-M            :LATERAL
COND.MMHO/M              :COND
SP_COND.µS/CM            :SP COND
#------------------------------------------------------------
~PARAMETER INFORMATION
sys_serial.    1         :sys serial
state.               TX  :state
fluid_ph.                :fluid ph
elev_gl.            984  :elev gl
other2serv.          ZE  :other2serv
casing_thick.         0  :casing thick
other1serv.          ZI  :other1serv
fluid_type.         H2O  :fluid type
other3serv.      ZM,OBI  :other3serv
temp_mud_filtrate.       :temp mud filtrate
RUN1.                    :RUN1
depth_driller.      110  :depth driller
section.             NA  :section
density_matrix.    2.71  :density matrix
RUN2.                    :RUN2
eng_units_or_cps.     E  :eng units or cps
fluid_density.           :fluid density
elev_df.             NA  :elev df
PROVINCE.                :PROVINCE
UNIQUE_WELL_ID.          :UNIQUE WELL ID
RUN3.                    :RUN3
township.            NA  :township
log_top.           0.90  :log top
delta_t_matrix.          :delta t matrix
RUN4.                    :RUN4
tool_serial_num.   2842  :tool serial num
field.            GAULT  :field
RUN5.                    :RUN5
bit_size.         7.875  :bit size
time.            18_50_  :time
RUN6.                    :RUN6
Name_Prn_AP.             :Name Prn AP
longitude.      97.7102  :longitude
fluid_viscosity.         :fluid viscosity
deltat_fluid.            :deltat fluid
elev_kb.             NA  :elev kb
permanent_datum.    LSD  :permanent datum
county.            BELL  :county
sys_version.   3.6XH     :sys version
logging_unit.       302  :logging unit
casing_diameter.    10.  :casing diameter
casing_type.        PVC  :casing type
file_type_id.    8144A   :file type id
temp_gradient.        0  :temp gradient
latitude.       30.8855  :latitude
feet_or_meter.        F  :feet or meter
mag_declination.      0  :mag declination
file_type.    ORIGINAL   :file type
mud_sample_source.   NA  :mud sample source
time_circ_stopped.   NA  :time circ stopped
mud_temp.            NA  :mud temp
res_mud_filtrate.        :res mud filtrate
remarks1.                :remarks1
company.                 :company
neutron_matrix. LIMESTONE  :neutron matrix
remarks2.                :remarks2
log_sample_int.     .10  :log sample int
elect_cutoff.      9999  :elect cutoff
range.               NA  :range
mean_surface_temp.       :mean surface temp
recorded_by.     THOMAS  :recorded by
mud_res.             NA  :mud res
log_bottom.      109.80  :log bottom
res_mud_cake.        NA  :res mud cake
elev_perm_datum.    984  :elev perm datum
truck_cal_num. 0.5956    :truck cal num
field_office.      USGS  :field office
log_meas_from.      LSD  :log meas from
drl_meas_from.       NA  :drl meas from
temp_mud_cake.           :temp mud cake
log_direction.        D  :log direction
casing_bottom.      110  :casing bottom
Cooperator. Clearwater UWCD  :Cooperator
Date_of_Logging. 05 / 06 / 2018  :Date of Logging
County.                  :County
Logging_probe_serial_number#1.   :Logging probe serial number#1
State.            Texas  :State
Well_Name.    M-14-001P  :Well Name
#------------------------------------------------------------
~OTHER
#------------------------------------------------------------
~A  DEPT[FT]    GAM(NAT)        TEMP          SP    DEL_TEMP     IND_RES    RES(16N)    RES(64N)     RES(FL)         RES     TENSION        TIME     LATERAL        COND     SP_COND
# ...
     40.4000     16.6667     88.4813    -90.7248    0.000000    0.664994     478.937     836.691    -99999.0     3606.29     268.500    0.200000     359.686     1503.77    -99999.0
     40.5000     30.0000     88.4798    -91.8446  -0.00153351    0.322131     478.960     836.158    -99999.0     3606.29     268.400    0.199000     359.894     3104.32    -99999.0
     40.6000     15.0000     88.4737    -91.4747  -0.00610352    0.186436     479.082     834.512    -99999.0     3606.29     268.400    0.201000     360.605     5363.78    -99999.0
     40.7000     13.3333     88.4737    -89.0400    0.000000    0.141156     479.166     827.267    -99999.0     3606.29     268.300    0.299000     363.133     7084.37    -99999.0
     40.8000     30.0000     88.4752    -87.6326  0.00152588    0.138271     479.097     823.992    -99999.0     3606.29     268.400    0.201000     364.133     7232.17    -99999.0
     40.9000     10.0000     88.4727    -87.4066  -0.00254822    0.154312     479.342     824.293    -99999.0     3606.29     268.600    0.200000     364.358     6480.37    -99999.0
     41.0000     20.0000     88.4645    -87.3244  -0.00814819    0.181108     479.487     823.621    -99999.0     3606.29     268.800    0.200000     364.776     5521.58    -99999.0
     41.1000     10.0000     88.4691    -87.2045  0.00458527    0.231289     479.785     822.949    -99999.0     3606.29     268.900    0.300000     365.397     4323.60    -99999.0
     41.2000     36.6667     88.4630    -87.2216  -0.00611115    0.321026     480.175     821.188    -99999.0     3606.29     268.900    0.200000     366.504     3115.01    -99999.0
     41.3000     20.0000     88.4594    -87.2319  -0.00356293    0.494395     480.687     819.280    -99999.0     3606.29     269.000    0.199000     367.822     2022.67    -99999.0
     41.4000     20.0000     88.4553    -87.1566  -0.00407410    0.972613     481.092     816.461    -99999.0     3606.32     268.500    0.301000     369.302     1028.16    -99999.0
     41.5000     6.66667     88.4523    -87.1600  -0.00305939     2.05716     481.413     814.182    -99999.0     3606.26     268.400    0.199000     370.489     486.107    -99999.0
     41.6000     10.0000     88.4523    -87.1805    0.000000     4.47385     481.894     811.409    -99999.0     3606.29     268.400    0.200000     372.056     223.521    -99999.0
     41.7000     5.00000     88.4503    -87.1908  -0.00202942     8.78241     482.368     810.389    -99999.0     3606.29     268.300    0.300000     373.027     113.864    -99999.0
     41.8000     23.3333     88.4477    -87.1395  -0.00254822     13.8767     482.604     807.771    -99999.0     3606.32     268.500    0.200000     374.216     72.0631    -99999.0
     41.9000     40.0000     88.4416    -87.1086  -0.00611115     19.8957     483.109     805.731    -99999.0     3606.26     268.800    0.200000     375.568     50.2621    -99999.0
     42.0000     40.0000     88.4411    -87.2114  -0.000511169     27.8246     483.475     807.353    -99999.0     3606.29     268.800    0.300000     375.516     35.9394    -99999.0
     42.1000     10.0000     88.4355    -87.2011  -0.00559998     36.1496     483.896     806.867    -99999.0     3606.32     268.800    0.200000     376.239     27.6628    -99999.0
     42.2000     30.0000     88.4355    -87.0059    0.000000     42.8463     484.301     805.252    -99999.0     3606.29     268.800    0.200000     377.317     23.3393    -99999.0
     42.3000     10.0000     88.4319    -86.7319  -0.00356293     50.0551     484.530     804.758    -99999.0     3606.26     268.600    0.300000     377.787     19.9780    -99999.0
     42.4000     25.0000     88.4309    -86.9751  -0.00101471     53.5497     484.965     804.341    -99999.0     3606.29     268.700    0.200000     378.507     18.6742    -99999.0
     42.5000     45.0000     88.4289    -87.0881  -0.00203705     60.0661     485.057     803.306    -99999.0     3606.32     268.700    0.200000     378.974     16.6483    -99999.0
     42.6000     30.0000     88.4233    -87.0744  -0.00559998     61.8586     485.309     803.090    -99999.0     3606.29     268.500    0.300000     379.382     16.1659    -99999.0
     42.7000     20.0000     88.4248    -86.9237  0.00152588     54.0887     485.470     802.951    -99999.0     3606.29     268.400    0.200000     379.643     18.4882    -99999.0
     42.8000     25.0000     88.4146    -86.8929  -0.0101776     55.7719     485.561     802.255    -99999.0     3606.29     268.200    0.200000     379.997     17.9302    -99999.0
     42.9000     35.0000     88.4187    -86.9443  0.00406647     62.5765     485.745     802.549    -99999.0     3606.29     267.900    0.200000     380.143     15.9804    -99999.0
     43.0000     16.6667     88.4110    -87.0128  -0.00763702     57.1949     485.760     803.136    -99999.0     3606.29     267.900    0.300000     379.968     17.4841    -99999.0
     43.1000     30.0000     88.4085    -87.0778  -0.00254059     52.7608     485.699     803.205    -99999.0     3606.29     267.700    0.200000     379.863     18.9534    -99999.0
     43.2000     15.0000     88.4065    -87.0778  -0.00204468     52.9690     485.470     803.391    -99999.0     3606.29     267.700    0.200000     379.496     18.8790    -99999.0
     43.3000     10.0000     88.4049    -87.0059  -0.00152588     55.4842     485.027     804.341    -99999.0     3606.29     267.700    0.200000     378.588     18.0231    -99999.0
     43.4000     5.00000     88.4004    -87.0264  -0.00457764     53.3722     484.874     806.844    -99999.0     3606.29     267.700    0.300000     377.550     18.7363    -99999.0
     43.5000     30.0000     88.3973    -86.8723  -0.00305939     80.6905     484.736     808.837    -99999.0     3606.32     267.800    0.200000     376.703     12.3930    -99999.0
     43.6000     10.0000     88.3942    -86.4511  -0.00305176    -106.869     484.576     809.578    -99999.0     3606.26     268.100    0.200000     376.242    -9.35728    -99999.0
     43.7000     10.0000     88.3912    -86.1155  -0.00305939    -24.6364     484.484     812.992    -99999.0     3606.29     268.000    0.300000     374.981    -40.5904    -99999.0
     43.8000     20.0000     88.3942    -86.0608  0.00305939     45.7794     484.522     814.143    -99999.0     3606.29     267.900    0.200000     374.649     21.8439    -99999.0
     43.9000     6.66667     88.3871    -86.0710  -0.00712585     5.81147     484.392     819.404    -99999.0     3606.32     267.700    0.200000     372.722     172.073    -99999.0
     44.0000     5.00000     88.3820    -82.3624  -0.00509644     1.98196     484.232     828.410    -99999.0     3606.27     267.700    0.300000     369.506     504.551    -99999.0
     44.1000     20.0000     88.3805    -81.7357  -0.00152588    0.889433     483.865     829.600    -99999.0     3606.29     267.600    0.200000     368.620     1124.31    -99999.0
     44.2000     13.3333     88.3805    -81.7357    0.000000    0.637008     482.979     830.272    -99999.0     3606.29     267.600    0.200000     367.215     1569.84    -99999.0
     44.3000     10.0000     88.3769    -80.9378  -0.00357056    0.603247     482.490     833.647    -99999.0     3606.32     267.600    0.300000     365.437     1657.70    -99999.0
     44.4000     26.6667     88.3744    -80.6673  -0.00254059    0.729645     482.306     836.459    -99999.0     3606.26     267.500    0.200000     364.256     1370.53    -99999.0
     44.5000     20.0000     88.3698    -81.3248  -0.00457764     3.46225     481.924     842.530    -99999.0     3606.29     267.600    0.200000     361.722     288.829    -99999.0
     44.6000     10.0000     88.3657    -82.3693  -0.00407410   -0.855809     481.550     847.010    -99999.0     3606.29     267.500    0.300000     359.730    -1168.49    -99999.0
     44.7000     16.6667     88.3637    -82.1467  -0.00203705   -0.808926     481.092     844.778    -99999.0     3606.32     267.400    0.200000     359.863    -1236.21    -99999.0
     44.8000     5.00000     88.3606    -81.9207  -0.00305939   -0.808939     480.587     838.637    -99999.0     3606.26     267.600    0.200000     361.237    -1236.19    -99999.0
