#------------------------------------------------------------
~VERSION INFORMATION
VERS.               2.0  :CWLS LOG ASCII STANDARD - VERSION 2.0
WRAP.                NO  :ONE LINE PER DEPTH STEP
#------------------------------------------------------------
~WELL INFORMATION
STRT.FT        0.100000  :FIRST INDEX VALUE
STOP.FT         110.000  :LAST INDEX VALUE
STEP.FT        0.100000  :STEP
NULL.            -99999  :NULL VALUE
COMP.                    :
WELL.                    :
FLD.                     :
LOC.                     :LOCATION
SRVC.              USGS  :SERVICE COMPANY
CTRY.                    :
STAT.                    :
CNTY.                    :
DATE.          05/06/18  :DATE
API.                     :
#------------------------------------------------------------
~CURVE INFORMATION
DEPT.FT                  :DEPTH
GAM(NAT).API-GR          :GAM(NAT)
TEMP.DEG_F               :TEMP
SP.MV                    :SP
DEL_TEMP.DEG_F           :DEL TEMP
IND_RES.OHM-M            :IND_RES
RES(16N).OHM-M           :RES(16N)
RES(64N).OHM-M           :RES(64N)
RES(FL).OHM/M            :RES(FL)
RES.OHM                  :RES
TENSION.CPS              :TENSION
TIME.SECONDS             :TIME
LATERAL.OHM-M            :LATERAL
COND.MMHO/M              :COND
SP_COND.µS/CM            :SP COND
#------------------------------------------------------------
~PARAMETER INFORMATION
sys_serial.    1         :sys serial
state.               TX  :state
fluid_ph.                :fluid ph
elev_gl.            984  :elev gl
other2serv.          ZE  :other2serv
casing_thick.         0  :casing thick
other1serv.          ZI  :other1serv
fluid_type.         H2O  :fluid type
other3serv.      ZM,OBI  :other3serv
temp_mud_filtrate.       :temp mud filtrate
RUN1.                    :RUN1
depth_driller.      110  :depth driller
section.             NA  :section
density_matrix.    2.71  :density matrix
RUN2.                    :RUN2
eng_units_or_cps.     E  :eng units or cps
fluid_density.           :fluid density
elev_df.             NA  :elev df
PROVINCE.                :PROVINCE
UNIQUE_WELL_ID.          :UNIQUE WELL ID
RUN3.                    :RUN3
township.            NA  :township
log_top.           0.90  :log top
delta_t_matrix.          :delta t matrix
RUN4.                    :RUN4
tool_serial_num.   2842  :tool serial num
field.            GAULT  :field
RUN5.                    :RUN5
bit_size.         7.875  :bit size
time.            18_50_  :time
RUN6.                    :RUN6
Name_Prn_AP.             :Name Prn AP
longitude.      97.7102  :longitude
fluid_viscosity.         :fluid viscosity
deltat_fluid.            :deltat fluid
elev_kb.             NA  :elev kb
permanent_datum.    LSD  :permanent datum
county.            BELL  :county
sys_version.   3.6XH     :sys version
logging_unit.       302  :logging unit
casing_diameter.    10.  :casing diameter
casing_type.        PVC  :casing type
file_type_id.    8144A   :file type id
temp_gradient.        0  :temp gradient
latitude.       30.8855  :latitude
feet_or_meter.        F  :feet or meter
mag_declination.      0  :mag declination
file_type.    ORIGINAL   :file type
mud_sample_source.   NA  :mud sample source
time_circ_stopped.   NA  :time circ stopped
mud_temp.            NA  :mud temp
res_mud_filtrate.        :res mud filtrate
remarks1.                :remarks1
company.                 :company
neutron_matrix. LIMESTONE  :neutron matrix
remarks2.                :remarks2
log_sample_int.     .10  :log sample int
elect_cutoff.      9999  :elect cutoff
range.               NA  :range
mean_surface_temp.       :mean surface temp
recorded_by.     THOMAS  :recorded by
mud_res.             NA  :mud res
log_bottom.      109.80  :log bottom
res_mud_cake.        NA  :res mud cake
elev_perm_datum.    984  :elev perm datum
truck_cal_num. 0.5956    :truck cal num
field_office.      USGS  :field office
log_meas_from.      LSD  :log meas from
drl_meas_from.       NA  :drl meas from
temp_mud_cake.           :temp mud cake
log_direction.        D  :log direction
casing_bottom.      110  :casing bottom
Cooperator. Clearwater UWCD  :Cooperator
Date_of_Logging. 05 / 06 / 2018  :Date of Logging
County.                  :County
Logging_probe_serial_number#1.   :Logging probe serial number#1
State.            Texas  :State
Well_Name.    M-14-001P  :Well Name
#------------------------------------------------------------
~OTHER
#------------------------------------------------------------
~A  DEPT[FT]    GAM(NAT)        TEMP          SP    DEL_TEMP     IND_RES    RES(16N)    RES(64N)     RES(FL)         RES     TENSION        TIME     LATERAL        COND     SP_COND
# ...
     18.0000     40.0000     88.9014    -86.8929  -0.00610352     79.1594     477.585     732.249    -99999.0     3606.17     267.200    0.200000     392.696     12.6327    -99999.0
     18.1000     25.0000     88.8953    -86.9134  -0.00611115     76.3707     477.416     731.091    -99999.0     3606.20     267.200    0.200000     392.858     13.0940    -99999.0
     18.2000    0.000000     88.8922    -86.7868  -0.00305939     72.7778     477.401     729.893    -99999.0     3606.19     267.300    0.300000     393.237     13.7404    -99999.0
     18.3000    0.000000     88.8784    -86.7080  -0.0137482     70.7782     477.562     728.889    -99999.0     3606.14     267.500    0.200000     393.786     14.1286    -99999.0
     18.4000     30.0000     88.8830    -86.7696  0.00458527     72.2917     477.539     727.939    -99999.0     3606.20     267.800    0.200000     394.072     13.8329    -99999.0
     18.5000     60.0000     88.8759    -86.8210  -0.00712585     66.1028     477.401     728.032    -99999.0     3606.17     267.700    0.200000     393.858     15.1280    -99999.0
     18.6000     20.0000     88.8693    -86.8415  -0.00662231     64.1390     477.386     728.263    -99999.0     3606.20     267.900    0.300000     393.760     15.5911    -99999.0
     18.7000     10.0000     88.8693    -86.8313    0.000000     71.7486     477.355     728.541    -99999.0     3606.17     267.900    0.200000     393.627     13.9375    -99999.0
     18.8000     5.00000     88.8616    -86.9032  -0.00763702     73.7698     477.470     726.664    -99999.0     3606.21     267.600    0.200000     394.405     13.5557    -99999.0
     18.9000     10.0000     88.8566    -86.9237  -0.00508881     70.8710     477.585     723.976    -99999.0     3606.17     267.600    0.200000     395.454     14.1101    -99999.0
     19.0000     10.0000     88.8555    -86.9545  -0.00102234     65.6207     477.493     724.069    -99999.0     3606.17     267.500    0.200000     395.301     15.2391    -99999.0
     19.1000     5.00000     88.8494    -87.0059  -0.00610352     55.2562     477.562     723.907    -99999.0     3606.17     267.300    0.300000     395.447     18.0975    -99999.0
     19.2000     15.0000     88.8484    -86.9751  -0.00102234     54.1432     477.493     724.834    -99999.0     3606.17     267.200    0.200000     395.046     18.4696    -99999.0
     19.3000     10.0000     88.8433    -86.8313  -0.00508881     56.3562     477.562     726.634    -99999.0     3606.21     267.200    0.200000     394.538     17.7443    -99999.0
     19.4000     10.0000     88.8448    -86.7902  0.00152588     57.0131     477.478     728.194    -99999.0     3606.17     267.300    0.200000     393.905     17.5398    -99999.0
     19.5000     10.0000     88.8357    -86.7902  -0.00916290     55.8878     477.447     729.074    -99999.0     3606.20     267.500    0.200000     393.571     17.8930    -99999.0
     19.6000     20.0000     88.8342    -86.7799  -0.00152588     51.7940     477.516     731.415    -99999.0     3606.17     267.300    0.300000     392.883     19.3072    -99999.0
     19.7000     10.0000     88.8301    -86.7080  -0.00407410     51.0066     477.355     735.408    -99999.0     3606.17     267.300    0.199000     391.338     19.6053    -99999.0
     19.8000     20.0000     88.8280    -86.7388  -0.00203705     51.0552     477.386     738.460    -99999.0     3606.20     267.300    0.201000     390.361     19.5867    -99999.0
     19.9000     20.0000     88.8250    -86.8004  -0.00305939     48.9585     477.332     738.738    -99999.0     3606.17     267.300    0.200000     390.197     20.4255    -99999.0
     20.0000    0.000000     88.8219    -86.7799  -0.00305176     47.4419     477.332     735.007    -99999.0     3606.20     267.500    0.200000     391.441     21.0784    -99999.0
     20.1000     5.00000     88.8189    -86.8279  -0.00305176     45.5845     477.332     730.867    -99999.0     3606.17     267.700    0.300000     392.821     21.9373    -99999.0
     20.2000     20.0000     88.8219    -86.8929  0.00305176     44.4487     477.371     728.843    -99999.0     3606.20     267.800    0.200000     393.547     22.4978    -99999.0
     20.3000     40.0000     88.8128    -86.9854  -0.00916290     46.2140     477.424     729.005    -99999.0     3606.17     267.700    0.199000     393.564     21.6385    -99999.0
     20.4000     25.0000     88.8112    -86.8621  -0.00153351     42.8235     477.355     730.295    -99999.0     3606.20     267.400    0.200000     393.042     23.3517    -99999.0
     20.5000     10.0000     88.8067    -86.8279  -0.00457764     40.2628     477.424     728.333    -99999.0     3606.17     267.200    0.300000     393.788     24.8368    -99999.0
     20.6000     25.0000     88.8082    -86.8313  0.00152588     40.7234     477.424     726.595    -99999.0     3606.17     266.800    0.200000     394.367     24.5559    -99999.0
     20.7000     20.0000     88.8021    -86.8004  -0.00611115     43.4028     477.447     724.926    -99999.0     3606.20     266.600    0.201000     394.954     23.0400    -99999.0
     20.8000     20.0000     88.7985    -86.8210  -0.00356293     43.7221     477.386     725.336    -99999.0     3606.17     266.700    0.299000     394.736     22.8717    -99999.0
     20.9000     20.0000     88.7990    -86.7696  0.000511169     43.1924     477.287     726.479    -99999.0     3606.21     266.700    0.201000     394.222     23.1522    -99999.0
     21.0000     30.0000     88.8036    -86.7696  0.00457764     43.5441     477.378     728.008    -99999.0     3606.17     266.700    0.199000     393.835     22.9652    -99999.0
     21.1000     20.0000     88.7960    -86.7388  -0.00763702     50.1486     477.264     730.349    -99999.0     3606.17     266.600    0.200000     392.902     19.9407    -99999.0
     21.2000     40.0000     88.7904    -86.7936  -0.00559998     46.9843     477.401     731.469    -99999.0     3606.17     266.200    0.300000     392.712     21.2837    -99999.0
     21.3000     10.0000     88.7929    -86.7902  0.00254822     51.0552     477.447     731.739    -99999.0     3606.20     266.300    0.200000     392.683     19.5867    -99999.0
     21.4000     30.0000     88.7883    -86.8518  -0.00458527     52.7608     477.424     731.670    -99999.0     3606.17     266.600    0.200000     392.676     18.9534    -99999.0
     21.5000     15.0000     88.7868    -86.8723  -0.00152588     51.2501     477.493     730.766    -99999.0     3606.19     267.000    0.200000     393.068     19.5121    -99999.0
     21.6000     20.0000     88.7863    -86.8004  -0.000511169     53.0212     477.493     729.214    -99999.0     3606.20     267.200    0.300000     393.586     18.8604    -99999.0
     21.7000     13.3333     88.7822    -86.7799  -0.00407410     55.4842     477.554     731.438    -99999.0     3606.17     267.500    0.200000     392.926     18.0231    -99999.0
     21.8000     10.0000     88.7838    -86.8107  0.00153351     65.2243     477.516     735.007    -99999.0     3606.20     267.300    0.200000     391.685     15.3317    -99999.0
     21.9000     15.0000     88.7822    -86.8313  -0.00153351     56.0626     477.630     734.427    -99999.0     3606.14     267.200    0.200000     392.031     17.8372    -99999.0
     22.0000     15.0000     88.7792    -86.8518  -0.00305176     61.3657     477.630     736.791    -99999.0     3606.21     267.000    0.200000     391.243     16.2958    -99999.0
     22.1000     5.00000     88.7761    -86.8621  -0.00305939     59.7994     477.615     740.128    -99999.0     3606.17     266.800    0.300000     390.111     16.7226    -99999.0
     22.2000     16.6667     88.7792    -86.8929  0.00305939     64.0629     477.607     741.279    -99999.0     3606.17     267.000    0.200000     389.717     15.6097    -99999.0
     22.3000     15.0000     88.7761    -86.9134  -0.00305939     62.2874     477.585     743.071    -99999.0     3606.20     266.800    0.200000     389.089     16.0546    -99999.0
     22.4000     25.0000     88.7731    -86.8415  -0.00305176     62.5765     477.676     742.167    -99999.0     3606.17     266.800    0.200000     389.513     15.9804    -99999.0
