#------------------------------------------------------------
~VERSION INFORMATION
VERS.               2.0  :CWLS LOG ASCII STANDARD - VERSION 2.0
WRAP.                NO  :ONE LINE PER DEPTH STEP
#------------------------------------------------------------
~WELL INFORMATION
STRT.FT        0.900000  :FIRST INDEX VALUE
STOP.FT         1874.90  :LAST INDEX VALUE
STEP.FT        0.100000  :STEP
NULL.            -99999  :NULL VALUE
COMP.                    :
WELL.                    :
FLD.                     :
LOC.                     :LOCATION
SRVC.              USGS  :SERVICE COMPANY
CTRY.                    :
STAT.                    :
CNTY.                    :
DATE.          11/22/16  :DATE
API.                     :
#------------------------------------------------------------
~CURVE INFORMATION
DEPT.FT                  :DEPTH
GAM(NAT).API             :GAM(NAT)
RES(FL).OHM-M            :RES(FL)
TEMP.°F                  :TEMP
DEL_TEMP.°F              :DEL TEMP
SP_COND.µS/CM            :SP COND
CALIPER.INCH             :CALIPER
CCL.CPS                  :CCL
#------------------------------------------------------------
~PARAMETER INFORMATION
other3serv.              :other3serv
feet_or_meter.        F  :feet or meter
latitude.       31.8774  :latitude
mud_temp.            NA  :mud temp
res_mud_filtrate.        :res mud filtrate
elev_kb.             NA  :elev kb
log_meas_from.      LSD  :log meas from
sys_version.   3.6XH     :sys version
mud_res.             NA  :mud res
temp_gradient.        0  :temp gradient
file_type_id.    8144A   :file type id
township.            NA  :township
field_office. USGS - TXWSC  :field office
eng_units_or_cps.     E  :eng units or cps
time_circ_stopped.   NA  :time circ stopped
recorded_by.     THOMAS  :recorded by
field.          HOLLAND  :field
depth_driller.     1993  :depth driller
range.               NA  :range
mean_surface_temp.       :mean surface temp
casing_bottom.       NA  :casing bottom
casing_type.      STEEL  :casing type
tool_serial_num.     NA  :tool serial num
deltat_fluid.            :deltat fluid
longitude.     -97.4055  :longitude
RUN1.                    :RUN1
fluid_viscosity.         :fluid viscosity
RUN2.                    :RUN2
log_sample_int.     .10  :log sample int
bit_size.           8.5  :bit size
elect_cutoff.      9999  :elect cutoff
log_direction.        D  :log direction
elev_perm_datum.         :elev perm datum
county.            BELL  :county
RUN3.                    :RUN3
truck_cal_num. 0.5956    :truck cal num
mud_sample_source.   NA  :mud sample source
temp_mud_cake.           :temp mud cake
drl_meas_from.       NA  :drl meas from
RUN4.                    :RUN4
permanent_datum.    LSD  :permanent datum
Name_Prn_AP.             :Name Prn AP
casing_diameter.      6  :casing diameter
UNIQUE_WELL_ID.          :UNIQUE WELL ID
RUN5.                    :RUN5
company. CLEARWATER UWCD  :company
fluid_type.         H2O  :fluid type
neutron_matrix. LIMESTONE  :neutron matrix
fluid_ph.                :fluid ph
elev_df.             NA  :elev df
state.               TX  :state
RUN6.                    :RUN6
PROVINCE.                :PROVINCE
file_type.    ORIGINAL   :file type
sys_serial.    1         :sys serial
temp_mud_filtrate.       :temp mud filtrate
other1serv.          ZW  :other1serv
section.             NA  :section
logging_unit.       302  :logging unit
remarks1.                :remarks1
log_bottom.     1883.50  :log bottom
time.            10_11_  :time
density_matrix.    2.71  :density matrix
elev_gl.                 :elev gl
other2serv.          ZE  :other2serv
casing_thick.        NA  :casing thick
res_mud_cake.        NA  :res mud cake
log_top.              0  :log top
fluid_density.       NA  :fluid density
mag_declination.      0  :mag declination
delta_t_matrix.       9  :delta t matrix
remarks2.                :remarks2
#------------------------------------------------------------
~OTHER
#------------------------------------------------------------
~A  DEPT[FT]    GAM(NAT)     RES(FL)        TEMP    DEL TEMP     SP COND     CALIPER         CCL
# ...
     996.500     5.10204     1.84646     88.7316  -0.00106812     5415.76     6.36481     60620.0
     996.600     10.2041     1.84646     88.7375  0.00585938     5415.76     6.36648     62900.0
     996.700     6.80272     1.84996     88.7423  0.00479889     5405.53     6.38650     61935.0
     996.800    0.000000     1.83948     88.7407  -0.00160217     5436.33     6.30863     60080.0
     996.900     10.2041     1.84646     88.7407    0.000000     5415.76     6.38427     61305.0
     997.000     10.2041     1.84879     88.7391  -0.00159454     5408.93     6.38706     61715.0
     997.100     5.10204     1.84996     88.7407  0.00159454     5405.53     6.40597     61220.0
     997.200     5.10204     1.84297     88.7412  0.000534058     5426.02     6.36814     61385.0
     997.300     6.80272     1.84646     88.7439  0.00266266     5415.76     6.43266     61485.0
     997.400     15.3061     1.84646     88.7423  -0.00159454     5415.76     6.39707     61355.0
     997.500    0.000000     1.84646     88.7402  -0.00213623     5415.76     6.42896     61320.0
     997.600     3.40136     1.84297     88.7423  0.00213623     5426.02     6.39874     61290.0
     997.700     10.2041     1.84646     88.7433  0.00106049     5415.76     6.43656     61370.0
     997.800    0.000000     1.84646     88.7439  0.000534058     5415.76     6.41876     61390.0
     997.900    0.000000     1.84646     88.7439    0.000000     5415.76     6.38539     61485.0
     998.000     15.3061     1.84646     88.7444  0.000534058     5415.76     6.36981     61400.0
     998.100     15.3061     1.84413     88.7439  -0.000534058     5422.60     6.35035     61245.0
     998.200     6.80272     1.84646     88.7439    0.000000     5415.76     6.38298     61495.0
     998.300    0.000000     1.84646     88.7444  0.000534058     5415.76     6.26413     61445.0
     998.400    0.000000     1.83482     88.7471  0.00266266     5450.13     6.36258     61265.0
     998.500     10.2041     1.84646     88.7471    0.000000     5415.76     6.40986     61343.3
     998.600     10.2041     1.84646     88.7465  -0.000534058     5415.76     6.43044     61460.0
     998.700     3.40136     1.84413     88.7455  -0.00106049     5422.60     6.46826     61245.0
     998.800    0.000000     1.84646     88.7471  0.00159454     5415.76     6.43378     61410.0
     998.900     17.0068     1.84646     88.7465  -0.000534058     5415.76     6.35962     61540.0
     999.000     10.2041     1.84646     88.7471  0.000534058     5415.76     6.39039     61260.0
     999.100     5.10204     1.84646     88.7487  0.00159454     5415.76     6.41709     61285.0
     999.200     13.6054     1.84297     88.7497  0.00106812     5426.02     6.39929     61435.0
     999.300    0.000000     1.84181     88.7487  -0.00106812     5429.46     6.39874     61425.0
     999.400     10.2041     1.84646     88.7519  0.00319672     5415.76     6.41820     61350.0
     999.500     3.40136     1.84646     88.7508  -0.00106049     5415.76     6.35628     61290.0
     999.600     25.5102     1.84646     88.7503  -0.000534058     5415.76     6.41820     61280.0
     999.700     15.3061     1.84646     88.7519  0.00159454     5415.76     6.42098     61305.0
     999.800     17.0068     1.84413     88.7535  0.00160217     5422.60     6.42321     61430.0
     999.900     20.4082     1.84646     88.7519  -0.00160217     5415.76     6.43545     61285.0
     1000.00    0.000000     1.84181     88.7519    0.000000     5429.46     6.38372     61296.7
     1000.10     10.2041     1.84646     88.7535  0.00160217     5415.76     6.39317     61430.0
     1000.20     5.10204     1.84646     88.7551  0.00159454     5415.76     6.35813     61300.0
     1000.30     5.10204     1.84413     88.7519  -0.00319672     5422.60     6.40096     61260.0
     1000.40     17.0068     1.84646     88.7551  0.00319672     5415.76     6.36870     61445.0
     1000.50     10.2041     1.84646     88.7551    0.000000     5415.76     6.38427     61335.0
     1000.60    0.000000     1.84646     88.7535  -0.00159454     5415.76     6.38483     61310.0
     1000.70     13.6054     1.84646     88.7551  0.00159454     5415.76     6.41876     61323.3
     1000.80     15.3061     1.84646     88.7572  0.00213623     5415.76     6.37630     61330.0
     1000.90     10.2041     1.84413     88.7583  0.00106049     5422.60     6.36592     61360.0
     1001.00     3.40136     1.84646     88.7551  -0.00319672     5415.76     6.40040     61395.0
     1001.10     5.10204     1.84646     88.7615  0.00639343     5415.76     6.41598     61375.0
     1001.20     5.10204     1.84646     88.7599  -0.00159454     5415.76     6.42877     61265.0
     1001.30     13.6054     1.84646     88.7647  0.00479126     5415.76     6.47549     61280.0
     1001.40     5.10204     1.84297     88.7679  0.00319672     5426.02     6.37816     61325.0
     1001.50     13.6054     1.84646     88.7647  -0.00319672     5415.76     6.39540     61340.0
     1001.60     15.3061     1.84646     88.7694  0.00479126     5415.76     6.35591     61305.0
     1001.70     5.10204     1.84646     88.7700  0.000534058     5415.76     6.41153     61310.0
     1001.80     13.6054     1.84646     88.7710  0.00106812     5415.76     6.39206     61395.0
     1001.90     10.2041     1.84646     88.7742  0.00319672     5415.76     6.39373     61295.0
     1002.00     17.0068     1.84297     88.7764  0.00212860     5426.02     6.38539     61350.0
     1002.10     10.2041     1.84646     88.7742  -0.00212860     5415.76     6.24244     61275.0
     1002.20     15.3061     1.84646     88.7774  0.00319672     5415.76     6.30956     61260.0
     1002.30     17.0068     1.84646     88.7764  -0.00106812     5415.76     6.20462     61360.0
     1002.40     15.3061     1.84646     88.7854  0.00905609     5415.76     6.34812     61323.3
     1002.50    0.000000     1.84297     88.7806  -0.00479126     5426.02     6.37538     61205.0
     1002.60     20.4082     1.84646     88.7785  -0.00213623     5415.76     6.44268     61390.0
     1002.70     10.2041     1.84646     88.7758  -0.00266266     5415.76     6.41542     61490.0
     1002.80    0.000000     1.84646     88.7774  0.00160217     5415.76     6.39206     61245.0
     1002.90     6.80272     1.84646     88.7806  0.00319672     5415.76     6.36592     61310.0
     1003.00     10.2041     1.84297     88.7790  -0.00160217     5426.02     6.40893     61660.0
     1003.10     10.2041     1.83482     88.7817  0.00266266     5450.13     6.36981     61253.3
     1003.20    0.000000     1.84646     88.7950   0.0133209     5415.76     6.42210     61235.0
     1003.30     15.3061     1.84646     88.7892  -0.00585938     5415.76     6.29751     61595.0
     1003.40     10.2041     1.84646     88.7886  -0.000534058     5415.76     6.35257     61370.0
     1003.50     6.80272     1.84646     88.7854  -0.00319672     5415.76     6.39262     61230.0
     1003.60    0.000000     1.83249     88.7817  -0.00373077     5457.06     6.39595     61410.0
     1003.70     15.3061     1.84646     88.7886  0.00692749     5415.76     6.37482     61400.0
     1003.80     13.6054     1.83948     88.7886    0.000000     5436.33     6.39095     61295.0
     1003.90     25.5102     1.84646     88.7902  0.00159454     5415.76     6.35702     61360.0
     1004.00    0.000000     1.84646     88.7918  0.00160217     5415.76     6.37093     61375.0
     1004.10     6.80272     1.84646     88.7934  0.00159454     5415.76     6.37927     61295.0
     1004.20     10.2041     1.84297     88.7934    0.000000     5426.02     6.31252     61390.0
     1004.30     10.2041     1.84646     88.7950  0.00160217     5415.76     6.38761     61420.0
     1004.40    0.000000     1.83948     88.8014  0.00638580     5436.33     6.40708     61250.0
     1004.50    0.000000     1.84646     88.7977  -0.00372314     5415.76     6.43044     61405.0
     1004.60     3.40136     1.84646     88.8014  0.00372314     5415.76     6.40541     61395.0
     1004.70    0.000000     1.84297     88.8014    0.000000     5426.02     6.41765     61296.7
