#------------------------------------------------------------
~VERSION INFORMATION
VERS.               2.0  :CWLS LOG ASCII STANDARD - VERSION 2.0
WRAP.                NO  :ONE LINE PER DEPTH STEP
#------------------------------------------------------------
~WELL INFORMATION
STRT.FT        0.900000  :FIRST INDEX VALUE
STOP.FT         1874.90  :LAST INDEX VALUE
STEP.FT        0.100000  :STEP
NULL.            -99999  :NULL VALUE
COMP.                    :
WELL.                    :
FLD.                     :
LOC.                     :LOCATION
SRVC.              USGS  :SERVICE COMPANY
CTRY.                    :
STAT.                    :
CNTY.                    :
DATE.          11/22/16  :DATE
API.                     :
#------------------------------------------------------------
~CURVE INFORMATION
DEPT.FT                  :DEPTH
GAM(NAT).API             :GAM(NAT)
RES(FL).OHM-M            :RES(FL)
TEMP.°F                  :TEMP
DEL_TEMP.°F              :DEL TEMP
SP_COND.µS/CM            :SP COND
CALIPER.INCH             :CALIPER
CCL.CPS                  :CCL
#------------------------------------------------------------
~PARAMETER INFORMATION
other3serv.              :other3serv
feet_or_meter.        F  :feet or meter
latitude.       31.8774  :latitude
mud_temp.            NA  :mud temp
res_mud_filtrate.        :res mud filtrate
elev_kb.             NA  :elev kb
log_meas_from.      LSD  :log meas from
sys_version.   3.6XH     :sys version
mud_res.             NA  :mud res
temp_gradient.        0  :temp gradient
file_type_id.    8144A   :file type id
township.            NA  :township
field_office. USGS - TXWSC  :field office
eng_units_or_cps.     E  :eng units or cps
time_circ_stopped.   NA  :time circ stopped
recorded_by.     THOMAS  :recorded by
field.          HOLLAND  :field
depth_driller.     1993  :depth driller
range.               NA  :range
mean_surface_temp.       :mean surface temp
casing_bottom.       NA  :casing bottom
casing_type.      STEEL  :casing type
tool_serial_num.     NA  :tool serial num
deltat_fluid.            :deltat fluid
longitude.     -97.4055  :longitude
RUN1.                    :RUN1
fluid_viscosity.         :fluid viscosity
RUN2.                    :RUN2
log_sample_int.     .10  :log sample int
bit_size.           8.5  :bit size
elect_cutoff.      9999  :elect cutoff
log_direction.        D  :log direction
elev_perm_datum.         :elev perm datum
county.            BELL  :county
RUN3.                    :RUN3
truck_cal_num. 0.5956    :truck cal num
mud_sample_source.   NA  :mud sample source
temp_mud_cake.           :temp mud cake
drl_meas_from.       NA  :drl meas from
RUN4.                    :RUN4
permanent_datum.    LSD  :permanent datum
Name_Prn_AP.             :Name Prn AP
casing_diameter.      6  :casing diameter
UNIQUE_WELL_ID.          :UNIQUE WELL ID
RUN5.                    :RUN5
company. CLEARWATER UWCD  :company
fluid_type.         H2O  :fluid type
neutron_matrix. LIMESTONE  :neutron matrix
fluid_ph.                :fluid ph
elev_df.             NA  :elev df
state.               TX  :state
RUN6.                    :RUN6
PROVINCE.                :PROVINCE
file_type.    ORIGINAL   :file type
sys_serial.    1         :sys serial
temp_mud_filtrate.       :temp mud filtrate
other1serv.          ZW  :other1serv
section.             NA  :section
logging_unit.       302  :logging unit
remarks1.                :remarks1
log_bottom.     1883.50  :log bottom
time.            10_11_  :time
density_matrix.    2.71  :density matrix
elev_gl.                 :elev gl
other2serv.          ZE  :other2serv
casing_thick.        NA  :casing thick
res_mud_cake.        NA  :res mud cake
log_top.              0  :log top
fluid_density.       NA  :fluid density
mag_declination.      0  :mag declination
delta_t_matrix.       9  :delta t matrix
remarks2.                :remarks2
#------------------------------------------------------------
~OTHER
#------------------------------------------------------------
~A  DEPT[FT]    GAM(NAT)     RES(FL)        TEMP    DEL TEMP     SP COND     CALIPER         CCL
# ...
     1370.00     20.4082     1.84297     94.1694  0.00159454     5426.02     6.35146     61400.0
     1370.10     20.4082     1.83249     94.1726  0.00319672     5457.06     6.35591     61040.0
     1370.20     13.6054     1.83948     94.1679  -0.00479126     5436.33     6.33867     61540.0
     1370.30     25.5102     1.84297     94.1726  0.00479126     5426.02     6.37315     61245.0
     1370.40    0.000000     1.83948     94.1726    0.000000     5436.33     6.40764     61415.0
     1370.50     25.5102     1.83948     94.1758  0.00319672     5436.33     6.44935     61300.0
     1370.60     25.5102     1.83948     94.1774  0.00159454     5436.33     6.47327     61215.0
     1370.70     10.2041     1.84297     94.1758  -0.00159454     5426.02     6.45213     61290.0
     1370.80     5.10204     1.83948     94.1774  0.00159454     5436.33     6.36814     61155.0
     1370.90     10.2041     1.83948     94.1774    0.000000     5436.33     6.35368     61470.0
     1371.00     25.5102     1.83598     94.1865  0.00905609     5446.68     6.34033     61345.0
     1371.10     17.0068     1.83948     94.1838  -0.00266266     5436.33     6.25913     61280.0
     1371.20     20.4082     1.83948     94.1870  0.00320435     5436.33     6.34590     61130.0
     1371.30     20.4082     1.84181     94.1870    0.000000     5429.46     5.93320     61580.0
     1371.40     15.3061     1.84297     94.1934  0.00638580     5426.02     5.78380     61420.0
     1371.50     30.6122     1.83249     94.1886  -0.00479126     5457.06     5.79797     61120.0
     1371.60     40.8163     1.83948     94.1918  0.00319672     5436.33     5.83931     61075.0
     1371.70     30.6122     1.83948     94.1934  0.00159454     5436.33     5.97927     61725.0
     1371.80     10.2041     1.83715     94.1950  0.00159454     5443.22     6.17236     61335.0
     1371.90     40.8163     1.83948     94.1966  0.00160217     5436.33     6.29250     61030.0
     1372.00     40.8163     1.83948     94.1972  0.000534058     5436.33     6.24522     61130.0
     1372.10     34.0136     1.83598     94.1966  -0.000534058     5446.68     6.33922     61265.0
     1372.20     20.4082     1.83948     94.2014  0.00479126     5436.33     6.33255     61380.0
     1372.30     35.7143     1.83948     94.2014    0.000000     5436.33     6.36592     61350.0
     1372.40     15.3061     1.84297     94.2035  0.00213623     5426.02     6.36425     61360.0
     1372.50     20.4082     1.83948     94.2094  0.00585938     5436.33     6.40096     61265.0
     1372.60     5.10204     1.83948     94.2110  0.00160217     5436.33     6.45491     61360.0
     1372.70     25.5102     1.84181     94.2158  0.00479126     5429.46     6.36147     61250.0
     1372.80     23.8095     1.83948     94.2126  -0.00320435     5436.33     6.28916     61290.0
     1372.90     25.5102     1.84297     94.2174  0.00479889     5426.02     6.34033     61560.0
     1373.00     30.6122     1.83948     94.2222  0.00479889     5436.33     6.39317     61340.0
     1373.10     5.10204     1.83249     94.2206  -0.00160217     5457.06     6.37927     61380.0
     1373.20     35.7143     1.84181     94.2238  0.00319672     5429.46     6.40485     61445.0
     1373.30     27.2109     1.83948     94.2302  0.00639343     5436.33     6.34534     61170.0
     1373.40     25.5102     1.82899     94.2270  -0.00319672     5467.48     6.41208     61280.0
     1373.50     15.3061     1.84297     94.2350  0.00798798     5426.02     6.50775     61300.0
     1373.60     5.10204     1.83948     94.2334  -0.00159454     5436.33     6.43378     61385.0
     1373.70     6.80272     1.83948     94.2366  0.00318909     5436.33     6.51109     61445.0
     1373.80     20.4082     1.83598     94.2382  0.00160217     5446.68     6.44824     61260.0
     1373.90     10.2041     1.83948     94.2366  -0.00160217     5436.33     6.42432     61370.0
     1374.00     5.10204     1.83948     94.2414  0.00479889     5436.33     6.35869     61270.0
     1374.10     15.3061     1.84297     94.2408  -0.000534058     5426.02     6.34590     61250.0
     1374.20     20.4082     1.83249     94.2430  0.00212860     5457.06     6.28861     61260.0
     1374.30     20.4082     1.83249     94.2446  0.00160217     5457.06     6.35146     61340.0
     1374.40     25.5102     1.84181     94.2446    0.000000     5429.46     6.34256     61575.0
     1374.50     10.2041     1.83948     94.2430  -0.00160217     5436.33     6.28138     61665.0
     1374.60     20.4082     1.83948     94.2462  0.00320435     5436.33     6.24244     61085.0
     1374.70     13.6054     1.84297     94.2494  0.00318909     5426.02     6.28527     60930.0
     1374.80     20.4082     1.83948     94.2478  -0.00159454     5436.33     6.16235     62060.0
     1374.90     20.4082     1.84297     94.2510  0.00319672     5426.02     6.26024     61295.0
     1375.00     15.3061     1.83948     94.2515  0.000534058     5436.33     6.34367     61340.0
     1375.10     10.2041     1.83948     94.2510  -0.000534058     5436.33     6.29806     61410.0
     1375.20     15.3061     1.84297     94.2542  0.00319672     5426.02     6.27637     61175.0
     1375.30     17.0068     1.83948     94.2557  0.00159454     5436.33     6.38539     61325.0
     1375.40     35.7143     1.83948     94.2525  -0.00319672     5436.33     6.38038     61355.0
     1375.50     10.2041     1.84297     94.2600  0.00746155     5426.02     6.38316     61370.0
     1375.60     20.4082     1.82899     94.2573  -0.00266266     5467.48     6.44490     61125.0
     1375.70     20.4082     1.83948     94.2573    0.000000     5436.33     6.23855     61485.0
     1375.80     30.6122     1.83715     94.2605  0.00319672     5443.22     6.28138     61545.0
     1375.90     13.6054     1.83948     94.2685  0.00798798     5436.33     6.21519     61335.0
     1376.00     30.6122     1.83948     94.2621  -0.00639343     5436.33     5.96627     61230.0
     1376.10     15.3061     1.84297     94.2637  0.00160217     5426.02     5.99344     61515.0
     1376.20     45.9184     1.83948     94.2669  0.00319672     5436.33     6.12175     61385.0
     1376.30     15.3061     1.83948     94.2717  0.00479126     5436.33     6.16513     61400.0
     1376.40     10.2041     1.84181     94.2701  -0.00160217     5429.46     6.11785     61110.0
     1376.50     25.5102     1.83249     94.2717  0.00160217     5457.06     6.28638     61140.0
     1376.60     5.10204     1.83249     94.2696  -0.00213623     5457.06     6.02719     61790.0
     1376.70     10.2041     1.84297     94.2749  0.00533295     5426.02     6.16680     61825.0
     1376.80     37.4150     1.83948     94.2781  0.00319672     5436.33     6.21463     61030.0
     1376.90     15.3061     1.83249     94.2797  0.00159454     5457.06     6.11618     60975.0
     1377.00     45.9184     1.84181     94.2797    0.000000     5429.46     6.08170     61330.0
     1377.10     25.5102     1.83948     94.2781  -0.00159454     5436.33     6.10450     61605.0
     1377.20     47.6190     1.84297     94.2813  0.00319672     5426.02     5.74246     61310.0
     1377.30     20.4082     1.83948     94.2765  -0.00479889     5436.33     5.54936     61165.0
     1377.40     30.6122     1.83249     94.2845  0.00799561     5457.06     5.65684     61300.0
     1377.50     25.5102     1.84181     94.2845    0.000000     5429.46     5.79207     61360.0
     1377.60     15.3061     1.83948     94.2829  -0.00160217     5436.33     6.00995     61260.0
     1377.70     10.2041     1.83948     94.2866  0.00373077     5436.33     6.03998     61350.0
     1377.80     35.7143     1.84297     94.2829  -0.00373077     5426.02     6.17792     61235.0
     1377.90     25.5102     1.83948     94.2877  0.00479126     5436.33     6.29194     61475.0
     1378.00     25.5102     1.83948     94.2941  0.00639343     5436.33     6.28416     61485.0
     1378.10     15.3061     1.84297     94.2898  -0.00425720     5426.02     6.26358     61335.0
     1378.20     10.2041     1.83948     94.2925  0.00266266     5436.33     6.17403     61305.0
