#------------------------------------------------------------
~VERSION INFORMATION
VERS.               2.0  :CWLS LOG ASCII STANDARD - VERSION 2.0
WRAP.                NO  :ONE LINE PER DEPTH STEP
#------------------------------------------------------------
~WELL INFORMATION
STRT.FT        0.900000  :FIRST INDEX VALUE
STOP.FT         1874.90  :LAST INDEX VALUE
STEP.FT        0.100000  :STEP
NULL.            -99999  :NULL VALUE
COMP.                    :
WELL.                    :
FLD.                     :
LOC.                     :LOCATION
SRVC.              USGS  :SERVICE COMPANY
CTRY.                    :
STAT.                    :
CNTY.                    :
DATE.          11/22/16  :DATE
API.                     :
#------------------------------------------------------------
~CURVE INFORMATION
DEPT.FT                  :DEPTH
GAM(NAT).API             :GAM(NAT)
RES(FL).OHM-M            :RES(FL)
TEMP.°F                  :TEMP
DEL_TEMP.°F              :DEL TEMP
SP_COND.µS/CM            :SP COND
CALIPER.INCH             :CALIPER
CCL.CPS                  :CCL
#------------------------------------------------------------
~PARAMETER INFORMATION
other3serv.              :other3serv
feet_or_meter.        F  :feet or meter
latitude.       31.8774  :latitude
mud_temp.            NA  :mud temp
res_mud_filtrate.        :res mud filtrate
elev_kb.             NA  :elev kb
log_meas_from.      LSD  :log meas from
sys_version.   3.6XH     :sys version
mud_res.             NA  :mud res
temp_gradient.        0  :temp gradient
file_type_id.    8144A   :file type id
township.            NA  :township
field_office. USGS - TXWSC  :field office
eng_units_or_cps.     E  :eng units or cps
time_circ_stopped.   NA  :time circ stopped
recorded_by.     THOMAS  :recorded by
field.          HOLLAND  :field
depth_driller.     1993  :depth driller
range.               NA  :range
mean_surface_temp.       :mean surface temp
casing_bottom.       NA  :casing bottom
casing_type.      STEEL  :casing type
tool_serial_num.     NA  :tool serial num
deltat_fluid.            :deltat fluid
longitude.     -97.4055  :longitude
RUN1.                    :RUN1
fluid_viscosity.         :fluid viscosity
RUN2.                    :RUN2
log_sample_int.     .10  :log sample int
bit_size.           8.5  :bit size
elect_cutoff.      9999  :elect cutoff
log_direction.        D  :log direction
elev_perm_datum.         :elev perm datum
county.            BELL  :county
RUN3.                    :RUN3
truck_cal_num. 0.5956    :truck cal num
mud_sample_source.   NA  :mud sample source
temp_mud_cake.           :temp mud cake
drl_meas_from.       NA  :drl meas from
RUN4.                    :RUN4
permanent_datum.    LSD  :permanent datum
Name_Prn_AP.             :Name Prn AP
casing_diameter.      6  :casing diameter
UNIQUE_WELL_ID.          :UNIQUE WELL ID
RUN5.                    :RUN5
company. CLEARWATER UWCD  :company
fluid_type.         H2O  :fluid type
neutron_matrix. LIMESTONE  :neutron matrix
fluid_ph.                :fluid ph
elev_df.             NA  :elev df
state.               TX  :state
RUN6.                    :RUN6
PROVINCE.                :PROVINCE
file_type.    ORIGINAL   :file type
sys_serial.    1         :sys serial
temp_mud_filtrate.       :temp mud filtrate
other1serv.          ZW  :other1serv
section.             NA  :section
logging_unit.       302  :logging unit
remarks1.                :remarks1
log_bottom.     1883.50  :log bottom
time.            10_11_  :time
density_matrix.    2.71  :density matrix
elev_gl.                 :elev gl
other2serv.          ZE  :other2serv
casing_thick.        NA  :casing thick
res_mud_cake.        NA  :res mud cake
log_top.              0  :log top
fluid_density.       NA  :fluid density
mag_declination.      0  :mag declination
delta_t_matrix.       9  :delta t matrix
remarks2.                :remarks2
#------------------------------------------------------------
~OTHER
#------------------------------------------------------------
~A  DEPT[FT]    GAM(NAT)     RES(FL)        TEMP    DEL TEMP     SP COND     CALIPER         CCL
# ...
     880.300     17.0068     1.84413     87.0504  0.00373077     5422.60     6.47660     61340.0
     880.400     15.3061     1.84646     87.0483  -0.00212860     5415.76     6.47215     61455.0
     880.500     10.2041     1.84413     87.0483    0.000000     5422.60     6.44434     61295.0
     880.600     10.2041     1.84646     87.0531  0.00479126     5415.76     6.46826     61280.0
     880.700     15.3061     1.84413     87.0536  0.000534058     5422.60     6.44601     61340.0
     880.800     10.2041     1.84646     87.0483  -0.00532532     5415.76     6.42543     61320.0
     880.900     13.6054     1.84646     87.0547  0.00638580     5415.76     6.46381     61415.0
     881.000     5.10204     1.82550     87.0563  0.00160217     5477.95     6.44212     61400.0
     881.100     10.2041     1.84646     87.0621  0.00585175     5415.76     6.43155     61225.0
     881.200     5.10204     1.84413     87.0643  0.00213623     5422.60     6.45158     61315.0
     881.300     15.3061     1.84646     87.0643    0.000000     5415.76     6.41765     61425.0
     881.400     23.8095     1.84646     87.0653  0.00106049     5415.76     6.44101     61400.0
     881.500     5.10204     1.84297     87.0611  -0.00425720     5426.02     6.47716     61250.0
     881.600     15.3061     1.84646     87.0675  0.00639343     5415.76     6.47104     61435.0
     881.700     10.2041     1.84413     87.0707  0.00319672     5422.60     6.42265     61255.0
     881.800     15.3061     1.84646     87.0739  0.00319672     5415.76     6.45102     61255.0
     881.900     13.6054     1.84646     87.0760  0.00212860     5415.76     6.42655     61445.0
     882.000     10.2041     1.84646     87.0771  0.00106812     5415.76     6.41208     61320.0
     882.100     5.10204     1.84646     87.0787  0.00159454     5415.76     6.39373     61305.0
     882.200     23.8095     1.84413     87.0803  0.00160217     5422.60     6.39707     61335.0
     882.300     5.10204     1.84646     87.0803    0.000000     5415.76     6.44713     61305.0
     882.400     6.80272     1.84646     87.0792  -0.00106812     5415.76     6.47883     61440.0
     882.500     10.2041     1.84413     87.0787  -0.000534058     5422.60     6.43878     61440.0
     882.600     23.8095     1.84646     87.0850  0.00639343     5415.76     6.45324     61300.0
     882.700     10.2041     1.84297     87.0909  0.00585938     5426.02     6.42043     61210.0
     882.800     3.40136     1.84646     87.0850  -0.00585938     5415.76     6.46826     61270.0
     882.900     25.5102     1.84646     87.0882  0.00319672     5415.76     6.48884     61380.0
     883.000     20.4082     1.84413     87.0877  -0.000534058     5422.60     6.44935     61345.0
     883.100     10.2041     1.84646     87.0914  0.00373077     5415.76     6.43322     61200.0
     883.200     20.4082     1.83598     87.0973  0.00585938     5446.68     6.40207     61310.0
     883.300     13.6054     1.84646     87.0930  -0.00426483     5415.76     6.41264     61500.0
     883.400     5.10204     1.81153     87.1010  0.00799561     5520.21     6.42154     61450.0
     883.500     10.2041     1.84413     87.0994  -0.00160217     5422.60     6.38149     61600.0
     883.600     17.0068     1.84646     87.1010  0.00160217     5415.76     6.38427     61545.0
     883.700     20.4082     1.84413     87.1026  0.00159454     5422.60     6.39874     60700.0
     883.800     10.2041     1.84646     87.1026    0.000000     5415.76     6.41653     59805.0
     883.900     3.40136     1.84413     87.1048  0.00213623     5422.60     6.37982     63965.0
     884.000    0.000000     1.84996     87.1010  -0.00373077     5405.53     6.38594     62370.0
     884.100     10.2041     1.83948     87.1016  0.000534058     5436.33     6.43266     59075.0
     884.200    0.000000     1.83948     87.1090  0.00745392     5436.33     6.30363     61350.0
     884.300     20.4082     1.84646     87.1074  -0.00159454     5415.76     6.43600     61735.0
     884.400     6.80272     1.84413     87.1090  0.00159454     5422.60     6.37371     61360.0
     884.500    0.000000     1.84646     87.1154  0.00639343     5415.76     6.40819     61315.0
     884.600    0.000000     1.84646     87.1154    0.000000     5415.76     6.37315     61290.0
     884.700     17.0068     1.84413     87.1074  -0.00798798     5422.60     6.39262     61505.0
     884.800     10.2041     1.84996     87.1138  0.00638580     5405.53     6.36703     61310.0
     884.900     13.6054     1.84297     87.1143  0.000541687     5426.02     6.38594     61315.0
     885.000     10.2041     1.84646     87.1154  0.00106049     5415.76     6.39595     61355.0
     885.100     10.2041     1.84646     87.1122  -0.00319672     5415.76     6.39818     61355.0
     885.200     15.3061     1.84413     87.1165  0.00426483     5422.60     6.42154     61520.0
     885.300     6.80272     1.84646     87.1234  0.00691986     5415.76     6.43545     61375.0
     885.400    0.000000     1.84297     87.1250  0.00160217     5426.02     6.43378     61310.0
     885.500     15.3061     1.84646     87.1234  -0.00160217     5415.76     6.45380     61360.0
     885.600     3.40136     1.84297     87.1282  0.00479889     5426.02     6.43211     61395.0
     885.700     5.10204     1.84646     87.1303  0.00212860     5415.76     6.42488     61390.0
     885.800     6.80272     1.84646     87.1282  -0.00212860     5415.76     6.41709     61200.0
     885.900     5.10204     1.84297     87.1346  0.00639343     5426.02     6.37871     61480.0
     886.000     20.4082     1.84646     87.1314  -0.00319672     5415.76     6.40374     61300.0
     886.100     15.3061     1.84297     87.1330  0.00159454     5426.02     6.36258     61395.0
     886.200     10.2041     1.84646     87.1346  0.00160217     5415.76     6.35646     61590.0
     886.300    0.000000     1.84646     87.1346    0.000000     5415.76     6.36926     61340.0
     886.400     25.5102     1.84413     87.1378  0.00319672     5422.60     6.37148     60870.0
     886.500     6.80272     1.84646     87.1410  0.00319672     5415.76     6.37871     61260.0
     886.600     20.4082     1.84297     87.1399  -0.00106812     5426.02     6.38038     61440.0
     886.700     5.10204     1.84646     87.1442  0.00425720     5415.76     6.36926     61400.0
     886.800     17.0068     1.84646     87.1442    0.000000     5415.76     6.36592     61290.0
     886.900     5.10204     1.84413     87.1484  0.00426483     5422.60     6.36091     61320.0
     887.000     15.3061     1.83948     87.1458  -0.00266266     5436.33     6.35313     61430.0
     887.100     13.6054     1.84413     87.1516  0.00585938     5422.60     6.34757     61670.0
     887.200    0.000000     1.84646     87.1570  0.00532532     5415.76     6.36425     61085.0
     887.300     27.2109     1.84297     87.1538  -0.00319672     5426.02     6.28916     61110.0
     887.400    0.000000     1.84646     87.1650   0.0111923     5415.76     6.34478     61435.0
     887.500     20.4082     1.82899     87.1634  -0.00160217     5467.48     6.33422     61495.0
     887.600     10.2041     1.84413     87.1612  -0.00212860     5422.60     6.34423     61400.0
     887.700     15.3061     1.83948     87.1650  0.00373077     5436.33     6.34868     61255.0
     887.800    0.000000     1.84297     87.1644  -0.000541687     5426.02     6.37760     61350.0
     887.900     15.3061     1.84646     87.1682  0.00373840     5415.76     6.39818     61435.0
     888.000     5.10204     1.84646     87.1665  -0.00160217     5415.76     6.37482     61310.0
     888.100     13.6054     1.84297     87.1687  0.00212860     5426.02     6.39707     61320.0
     888.200     10.2041     1.84646     87.1682  -0.000526428     5415.76     6.36147     61375.0
     888.300     13.6054     1.84297     87.1729  0.00479126     5426.02     6.37816     61300.0
     888.400     10.2041     1.84646     87.1729    0.000000     5415.76     6.36981     61400.0
     888.500     3.40136     1.84646     87.1793  0.00639343     5415.76     6.35146     61375.0
