#------------------------------------------------------------
~VERSION INFORMATION
VERS.               2.0  :CWLS LOG ASCII STANDARD - VERSION 2.0
WRAP.                NO  :ONE LINE PER DEPTH STEP
#------------------------------------------------------------
~WELL INFORMATION
STRT.FT        0.900000  :FIRST INDEX VALUE
STOP.FT         1874.90  :LAST INDEX VALUE
STEP.FT        0.100000  :STEP
NULL.            -99999  :NULL VALUE
COMP.                    :
WELL.                    :
FLD.                     :
LOC.                     :LOCATION
SRVC.              USGS  :SERVICE COMPANY
CTRY.                    :
STAT.                    :
CNTY.                    :
DATE.          11/22/16  :DATE
API.                     :
#------------------------------------------------------------
~CURVE INFORMATION
DEPT.FT                  :DEPTH
GAM(NAT).API             :GAM(NAT)
RES(FL).OHM-M            :RES(FL)
TEMP.°F                  :TEMP
DEL_TEMP.°F              :DEL TEMP
SP_COND.µS/CM            :SP COND
CALIPER.INCH             :CALIPER
CCL.CPS                  :CCL
#------------------------------------------------------------
~PARAMETER INFORMATION
other3serv.              :other3serv
feet_or_meter.        F  :feet or meter
latitude.       31.8774  :latitude
mud_temp.            NA  :mud temp
res_mud_filtrate.        :res mud filtrate
elev_kb.             NA  :elev kb
log_meas_from.      LSD  :log meas from
sys_version.   3.6XH     :sys version
mud_res.             NA  :mud res
temp_gradient.        0  :temp gradient
file_type_id.    8144A   :file type id
township.            NA  :township
field_office. USGS - TXWSC  :field office
eng_units_or_cps.     E  :eng units or cps
time_circ_stopped.   NA  :time circ stopped
recorded_by.     THOMAS  :recorded by
field.          HOLLAND  :field
depth_driller.     1993  :depth driller
range.               NA  :range
mean_surface_temp.       :mean surface temp
casing_bottom.       NA  :casing bottom
casing_type.      STEEL  :casing type
tool_serial_num.     NA  :tool serial num
deltat_fluid.            :deltat fluid
longitude.     -97.4055  :longitude
RUN1.                    :RUN1
fluid_viscosity.         :fluid viscosity
RUN2.                    :RUN2
log_sample_int.     .10  :log sample int
bit_size.           8.5  :bit size
elect_cutoff.      9999  :elect cutoff
log_direction.        D  :log direction
elev_perm_datum.         :elev perm datum
county.            BELL  :county
RUN3.                    :RUN3
truck_cal_num. 0.5956    :truck cal num
mud_sample_source.   NA  :mud sample source
temp_mud_cake.           :temp mud cake
drl_meas_from.       NA  :drl meas from
RUN4.                    :RUN4
permanent_datum.    LSD  :permanent datum
Name_Prn_AP.             :Name Prn AP
casing_diameter.      6  :casing diameter
UNIQUE_WELL_ID.          :UNIQUE WELL ID
RUN5.                    :RUN5
company. CLEARWATER UWCD  :company
fluid_type.         H2O  :fluid type
neutron_matrix. LIMESTONE  :neutron matrix
fluid_ph.                :fluid ph
elev_df.             NA  :elev df
state.               TX  :state
RUN6.                    :RUN6
PROVINCE.                :PROVINCE
file_type.    ORIGINAL   :file type
sys_serial.    1         :sys serial
temp_mud_filtrate.       :temp mud filtrate
other1serv.          ZW  :other1serv
section.             NA  :section
logging_unit.       302  :logging unit
remarks1.                :remarks1
log_bottom.     1883.50  :log bottom
time.            10_11_  :time
density_matrix.    2.71  :density matrix
elev_gl.                 :elev gl
other2serv.          ZE  :other2serv
casing_thick.        NA  :casing thick
res_mud_cake.        NA  :res mud cake
log_top.              0  :log top
fluid_density.       NA  :fluid density
mag_declination.      0  :mag declination
delta_t_matrix.       9  :delta t matrix
remarks2.                :remarks2
#------------------------------------------------------------
~OTHER
#------------------------------------------------------------
~A  DEPT[FT]    GAM(NAT)     RES(FL)        TEMP    DEL TEMP     SP COND     CALIPER         CCL
# ...
     1868.00     30.6122    0.857738     99.2909  0.00258636     11658.6     4.84368     61120.0
     1868.10     27.2109    0.849586     99.2930  0.00208282     11770.4     4.85077     61300.0
     1868.20     25.5102    0.843763     99.2946  0.00154877     11851.7     4.84900     61690.0
     1868.30     25.5102    0.871713     99.2920  -0.00258636     11471.7     4.84487     61645.0
     1868.40     23.8095    0.847256     99.2915  -0.000526428     11802.8     4.83227     60885.0
     1868.50     15.3061    0.861231     99.2977  0.00623322     11611.3     4.82715     61530.0
     1868.60     27.2109    0.850750     99.2961  -0.00156403     11754.3     4.83719     61415.0
     1868.70     25.5102    0.833281     99.2930  -0.00310516     12000.7     4.83719     60805.0
     1868.80     10.2041    0.850750     99.2992  0.00621796     11754.3     4.81298     61400.0
     1868.90     23.8095    0.843763     99.2961  -0.00311279     11851.7     4.77400     61495.0
     1869.00     25.5102    0.854244     99.2977  0.00156403     11706.3     4.84250     61200.0
     1869.10    0.000000    0.850750     99.2977    0.000000     11754.3     4.83109     61415.0
     1869.20     27.2109    0.847256     99.2972  -0.000526428     11802.8     4.84427     61425.0
     1869.30     5.10204    0.843763     99.3008  0.00363159     11851.7     4.82951     61210.0
     1869.40     5.10204    0.833281     99.2992  -0.00155640     12000.7     4.83601     61465.0
     1869.50     10.2041    0.863561     99.3055  0.00622559     11580.0     4.83069     61155.0
     1869.60     10.2041    0.861231     99.3055    0.000000     11611.3     4.79762     61455.0
     1869.70     10.2041    0.856573     99.3065  0.00103760     11674.4     4.73798     61785.0
     1869.80     13.6054    0.840269     99.3101  0.00363159     11901.0     4.75747     61640.0
     1869.90     5.10204    0.857738     99.3096  -0.000518799     11658.6     4.79408     61186.7
     1870.00     15.3061    0.854244     99.3070  -0.00258636     11706.3     4.74330     61010.0
     1870.10     23.8095    0.850750     99.3101  0.00310516     11754.3     4.70314     61325.0
     1870.20     15.3061    0.868219     99.3127  0.00259399     11517.8     4.74034     61440.0
     1870.30     10.2041    0.851915     99.3101  -0.00259399     11738.3     4.79349     61470.0
     1870.40     23.8095    0.861231     99.3117  0.00156403     11611.3     4.74920     61075.0
     1870.50     20.4082    0.843763     99.3096  -0.00208282     11851.7     4.76278     61585.0
     1870.60     15.3061    0.851915     99.3148  0.00518799     11738.3     4.79841     61225.0
     1870.70     13.6054    0.857738     99.3148    0.000000     11658.6     4.79880     61340.0
     1870.80     15.3061    0.840269     99.3210  0.00623322     11901.0     4.81711     61565.0
     1870.90     15.3061    0.861231     99.3210    0.000000     11611.3     4.81770     61070.0
     1871.00     13.6054    0.843763     99.3195  -0.00156403     11851.7     4.84487     61160.0
     1871.10     5.10204    0.847256     99.3241  0.00466919     11802.8     4.85195     61430.0
     1871.20     17.0068    0.851915     99.3241    0.000000     11738.3     4.81298     61483.3
     1871.30     15.3061    0.822800     99.3272  0.00311279     12153.6     4.82715     61265.0
     1871.40     10.2041    0.850750     99.3221  -0.00518799     11754.3     4.78522     61405.0
     1871.50     10.2041    0.856573     99.3257  0.00363922     11674.4     4.75038     61196.7
     1871.60     5.10204    0.854244     99.3210  -0.00466919     11706.3     4.73385     61600.0
     1871.70     6.80272    0.847256     99.3314   0.0103683     11802.8     4.71967     61520.0
     1871.80     15.3061    0.858902     99.3272  -0.00415039     11642.8     4.83542     61113.3
     1871.90     10.2041    0.836775     99.3304  0.00312042     11950.6     4.79113     61025.0
     1872.00     13.6054    0.868219     99.3324  0.00206757     11517.8     4.80707    -99999.0
     1872.10     15.3061    0.833281     99.3350  0.00260162     12000.7     4.79054    -99999.0
     1872.20     20.4082    0.850750     99.3335  -0.00156403     11754.3     4.83483    -99999.0
     1872.30     10.2041    0.858902     99.3345  0.00103760     11642.8     4.83601    -99999.0
     1872.40     20.4082    0.850750     99.3397  0.00519562     11754.3     4.81475    -99999.0
     1872.50     15.3061    0.850750     99.3335  -0.00623322     11754.3     4.79408    -99999.0
     1872.60     10.2041    0.851915     99.3444   0.0109024     11738.3     4.78758    -99999.0
     1872.70     10.2041    0.878700     99.3350  -0.00933838     11380.4     4.80176    -99999.0
     1872.80     25.5102    0.868219     99.3397  0.00466919     11517.8     4.84132    -99999.0
     1872.90     17.0068    0.847256     99.3413  0.00154877     11802.8     4.79585    -99999.0
     1873.00     15.3061    0.847256     99.3438  0.00259399     11802.8     4.82892    -99999.0
     1873.10     10.2041    0.851915     99.3381  -0.00570679     11738.3     4.83837    -99999.0
     1873.20     20.4082    0.857738     99.3428  0.00466919     11658.6     4.84605    -99999.0
     1873.30    0.000000    0.850750     99.3407  -0.00207520     11754.3     4.82892    -99999.0
     1873.40     15.3061    0.851915     99.3428  0.00207520     11738.3     4.84427    -99999.0
     1873.50     5.10204    0.868219     99.3428    0.000000     11517.8     4.83601    -99999.0
     1873.60     17.0068    0.861231     99.3449  0.00207520     11611.3     4.82833    -99999.0
     1873.70     10.2041    0.844927     99.3428  -0.00207520     11835.3     4.80176    -99999.0
     1873.80     13.6054    0.857738     99.3444  0.00156403     11658.6     4.79408    -99999.0
     1873.90     20.4082    0.878700     99.3480  0.00363159     11380.4     4.77873    -99999.0
     1874.00     20.4082    0.842598     99.3459  -0.00208282     11868.1     4.80884    -99999.0
     1874.10     30.6122    0.854244     99.3490  0.00312042     11706.3     4.79526    -99999.0
     1874.20     20.4082    0.847256     99.3470  -0.00208282     11802.8     4.77636    -99999.0
     1874.30     6.80272    0.850750     99.3490  0.00208282     11754.3     4.80353    -99999.0
     1874.40     30.6122    0.849586     99.3521  0.00310516     11770.4     4.75452    -99999.0
     1874.50     23.8095    0.847256     99.3459  -0.00622559     11802.8     4.78050    -99999.0
     1874.60     35.7143    0.836775     99.3501  0.00415039     11950.6     4.77636    -99999.0
     1874.70     51.0204    0.858902     99.3521  0.00207520     11642.8     4.76337    -99999.0
     1874.80     61.2245    0.840269     99.3506  -0.00155640     11901.0     4.75688    -99999.0
     1874.90     40.8163    0.842598     99.3511  0.000518799     11868.1     4.75156    -99999.0
