#------------------------------------------------------------
~VERSION INFORMATION
VERS.               2.0  :CWLS LOG ASCII STANDARD - VERSION 2.0
WRAP.                NO  :ONE LINE PER DEPTH STEP
#------------------------------------------------------------
~WELL INFORMATION
STRT.FT        0.900000  :FIRST INDEX VALUE
STOP.FT         1874.90  :LAST INDEX VALUE
STEP.FT        0.100000  :STEP
NULL.            -99999  :NULL VALUE
COMP.                    :
WELL.                    :
FLD.                     :
LOC.                     :LOCATION
SRVC.              USGS  :SERVICE COMPANY
CTRY.                    :
STAT.                    :
CNTY.                    :
DATE.          11/22/16  :DATE
API.                     :
#------------------------------------------------------------
~CURVE INFORMATION
DEPT.FT                  :DEPTH
GAM(NAT).API             :GAM(NAT)
RES(FL).OHM-M            :RES(FL)
TEMP.°F                  :TEMP
DEL_TEMP.°F              :DEL TEMP
SP_COND.µS/CM            :SP COND
CALIPER.INCH             :CALIPER
CCL.CPS                  :CCL
#------------------------------------------------------------
~PARAMETER INFORMATION
other3serv.              :other3serv
feet_or_meter.        F  :feet or meter
latitude.       31.8774  :latitude
mud_temp.            NA  :mud temp
res_mud_filtrate.        :res mud filtrate
elev_kb.             NA  :elev kb
log_meas_from.      LSD  :log meas from
sys_version.   3.6XH     :sys version
mud_res.             NA  :mud res
temp_gradient.        0  :temp gradient
file_type_id.    8144A   :file type id
township.            NA  :township
field_office. USGS - TXWSC  :field office
eng_units_or_cps.     E  :eng units or cps
time_circ_stopped.   NA  :time circ stopped
recorded_by.     THOMAS  :recorded by
field.          HOLLAND  :field
depth_driller.     1993  :depth driller
range.               NA  :range
mean_surface_temp.       :mean surface temp
casing_bottom.       NA  :casing bottom
casing_type.      STEEL  :casing type
tool_serial_num.     NA  :tool serial num
deltat_fluid.            :deltat fluid
longitude.     -97.4055  :longitude
RUN1.                    :RUN1
fluid_viscosity.         :fluid viscosity
RUN2.                    :RUN2
log_sample_int.     .10  :log sample int
bit_size.           8.5  :bit size
elect_cutoff.      9999  :elect cutoff
log_direction.        D  :log direction
elev_perm_datum.         :elev perm datum
county.            BELL  :county
RUN3.                    :RUN3
truck_cal_num. 0.5956    :truck cal num
mud_sample_source.   NA  :mud sample source
temp_mud_cake.           :temp mud cake
drl_meas_from.       NA  :drl meas from
RUN4.                    :RUN4
permanent_datum.    LSD  :permanent datum
Name_Prn_AP.             :Name Prn AP
casing_diameter.      6  :casing diameter
UNIQUE_WELL_ID.          :UNIQUE WELL ID
RUN5.                    :RUN5
company. CLEARWATER UWCD  :company
fluid_type.         H2O  :fluid type
neutron_matrix. LIMESTONE  :neutron matrix
fluid_ph.                :fluid ph
elev_df.             NA  :elev df
state.               TX  :state
RUN6.                    :RUN6
PROVINCE.                :PROVINCE
file_type.    ORIGINAL   :file type
sys_serial.    1         :sys serial
temp_mud_filtrate.       :temp mud filtrate
other1serv.          ZW  :other1serv
section.             NA  :section
logging_unit.       302  :logging unit
remarks1.                :remarks1
log_bottom.     1883.50  :log bottom
time.            10_11_  :time
density_matrix.    2.71  :density matrix
elev_gl.                 :elev gl
other2serv.          ZE  :other2serv
casing_thick.        NA  :casing thick
res_mud_cake.        NA  :res mud cake
log_top.              0  :log top
fluid_density.       NA  :fluid density
mag_declination.      0  :mag declination
delta_t_matrix.       9  :delta t matrix
remarks2.                :remarks2
#------------------------------------------------------------
~OTHER
#------------------------------------------------------------
~A  DEPT[FT]    GAM(NAT)     RES(FL)        TEMP    DEL TEMP     SP COND     CALIPER         CCL
# ...
     382.400     10.2041     1.84297     77.4173  0.00334167     5426.02     6.54112     61330.0
     382.500     5.10204     1.84297     77.4223  0.00499725     5426.02     6.54446     61370.0
     382.600     5.10204     1.84413     77.4173  -0.00499725     5422.60     6.55614     61340.0
     382.700     6.80272     1.84297     77.4190  0.00166321     5426.02     6.54168     61315.0
     382.800     10.2041     1.84297     77.4251  0.00611877     5426.02     6.53890     61305.0
     382.900     20.4082     1.84413     77.4240  -0.00111389     5422.60     6.56226     61390.0
     383.000     15.3061     1.84297     77.4223  -0.00167084     5426.02     6.55911     61655.0
     383.100     17.0068     1.84297     77.4307  0.00834656     5426.02     6.51220     61220.0
     383.200     5.10204     1.84879     77.4290  -0.00167084     5408.93     6.54168     61190.0
     383.300     25.5102     1.84297     77.4323  0.00333405     5426.02     6.53890     61353.3
     383.400     25.5102     1.84646     77.4296  -0.00277710     5415.76     6.53501     61360.0
     383.500     6.80272     1.84181     77.4273  -0.00222778     5429.46     6.54557     61370.0
     383.600     10.2041     1.84646     77.4340  0.00666809     5415.76     6.54669     61315.0
     383.700     20.4082     1.84297     77.4329  -0.00110626     5426.02     6.54891     61345.0
     383.800     15.3061     1.84413     77.4340  0.00110626     5422.60     6.54724     61520.0
     383.900     27.2109     1.84297     77.4357  0.00167084     5426.02     6.55781     61225.0
     384.000     10.2041     1.84297     77.4407  0.00500488     5426.02     6.53612     61220.0
     384.100     10.2041     1.84297     77.4340  -0.00667572     5426.02     6.54910     61315.0
     384.200    0.000000     1.84413     77.4323  -0.00166321     5422.60     6.55169     61445.0
     384.300     10.2041     1.84297     77.4423   0.0100098     5426.02     6.54502     61346.7
     384.400     5.10204     1.84297     77.4429  0.000556946     5426.02     6.55114     61325.0
     384.500     30.6122     1.84646     77.4423  -0.000556946     5415.76     6.55725     61495.0
     384.600     10.2041     1.84181     77.4507  0.00833893     5429.46     6.53334     61380.0
     384.700     3.40136     1.84646     77.4457  -0.00500488     5415.76     6.54335     61360.0
     384.800     5.10204     1.84297     77.4462  0.000556946     5426.02     6.57617     61250.0
     384.900     10.2041     1.84297     77.4523  0.00611115     5426.02     6.55280     61360.0
     385.000     3.40136     1.84413     77.4490  -0.00333405     5422.60     6.56282     61370.0
     385.100     10.2041     1.84297     77.4507  0.00167084     5426.02     6.56282     61300.0
     385.200     10.2041     1.84297     77.4518  0.00110626     5426.02     6.55614     61315.0
     385.300    0.000000     1.84297     77.4523  0.000556946     5426.02     6.54835     61400.0
     385.400     15.3061     1.84413     77.4590  0.00667572     5422.60     6.55280     61345.0
     385.500     6.80272     1.84297     77.4573  -0.00167084     5426.02     6.55837     61430.0
     385.600     15.3061     1.84297     77.4640  0.00667572     5426.02     6.56615     61385.0
     385.700     5.10204     1.84646     77.4590  -0.00500488     5415.76     6.55725     61390.0
     385.800     5.10204     1.84181     77.4623  0.00333405     5429.46     6.57728     61245.0
     385.900     6.80272     1.84646     77.4640  0.00167084     5415.76     6.57950     61480.0
     386.000     5.10204     1.84297     77.4596  -0.00444794     5426.02     6.56170     61360.0
     386.100     20.4082     1.84413     77.4657  0.00611115     5422.60     6.55948     61420.0
     386.200     10.2041     1.84297     77.4623  -0.00333405     5426.02     6.55725     61350.0
     386.300     13.6054     1.84413     77.4640  0.00167084     5422.60     6.55688     61270.0
     386.400     10.2041     1.84297     77.4707  0.00666809     5426.02     6.55503     61280.0
     386.500     5.10204     1.84297     77.4718  0.00110626     5426.02     6.55058     61355.0
     386.600     15.3061     1.84413     77.4724  0.000564575     5422.60     6.54947     61335.0
     386.700     13.6054     1.83598     77.4757  0.00333405     5446.68     6.55892     61376.7
     386.800     5.10204     1.84297     77.4796  0.00389099     5426.02     6.57116     61305.0
     386.900     20.4082     1.84297     77.4790  -0.000556946     5426.02     6.56059     61355.0
     387.000    0.000000     1.84413     77.4790    0.000000     5422.60     6.55336     61385.0
     387.100     13.6054     1.84297     77.4807  0.00167084     5426.02     6.53723     61270.0
     387.200     15.3061     1.84297     77.4774  -0.00334167     5426.02     6.54446     61265.0
     387.300     15.3061     1.84646     77.4824  0.00500488     5415.76     6.54224     61405.0
     387.400     13.6054     1.84181     77.4824    0.000000     5429.46     6.53538     61425.0
     387.500     20.4082     1.84996     77.4824    0.000000     5405.53     6.53779     61315.0
     387.600     10.2041     1.84297     77.4863  0.00389099     5426.02     6.54224     61375.0
     387.700     20.4082     1.82550     77.4890  0.00278473     5477.95     6.53056     61310.0
     387.800     17.0068     1.83249     77.4840  -0.00500488     5457.06     6.53946     61370.0
     387.900     5.10204     1.84297     77.4890  0.00500488     5426.02     6.54168     61363.3
     388.000     20.4082     1.84297     77.4929  0.00389099     5426.02     6.53111     61480.0
     388.100     6.80272     1.84297     77.4990  0.00611115     5426.02     6.51721     61230.0
     388.200     5.10204     1.84413     77.4907  -0.00833893     5422.60     6.52778     61185.0
     388.300     15.3061     1.84297     77.5007   0.0100098     5426.02     6.52221     61550.0
     388.400     27.2109     1.84646     77.5007    0.000000     5415.76     6.52388     61405.0
     388.500     15.3061     1.84181     77.5024  0.00167084     5429.46     6.52277     61195.0
     388.600     10.2041     1.84646     77.5024    0.000000     5415.76     6.54242     61365.0
     388.700     6.80272     1.84996     77.5063  0.00389099     5405.53     6.53723     61460.0
     388.800     5.10204     1.84297     77.5090  0.00277710     5426.02     6.54780     61510.0
     388.900     20.4082     1.84646     77.5107  0.00167084     5415.76     6.53056     60990.0
     389.000     13.6054     1.84297     77.5174  0.00666809     5426.02     6.56170     61280.0
     389.100    0.000000     1.84297     77.5141  -0.00333405     5426.02     6.56393     61575.0
     389.200     5.10204     1.84413     77.5157  0.00166321     5422.60     6.55559     61173.3
     389.300     5.10204     1.84297     77.5207  0.00500488     5426.02     6.56504     61300.0
     389.400     6.80272     1.84297     77.5218  0.00111389     5426.02     6.57950     61445.0
     389.500     15.3061     1.84413     77.5241  0.00222015     5422.60     6.57728     61190.0
     389.600     5.10204     1.84646     77.5257  0.00167084     5415.76     6.56448     61425.0
     389.700     15.3061     1.84297     77.5274  0.00167084     5426.02     6.55670     61360.0
     389.800     5.10204     1.84413     77.5324  0.00499725     5422.60     6.54391     61115.0
     389.900     3.40136     1.84297     77.5324    0.000000     5426.02     6.55688     61310.0
     390.000    0.000000     1.84646     77.5274  -0.00499725     5415.76     6.55280     61410.0
     390.100     5.10204     1.83715     77.5357  0.00833893     5443.22     6.55614     61416.7
     390.200     10.2041     1.84646     77.5324  -0.00334167     5415.76     6.55892     61315.0
     390.300     3.40136     1.84297     77.5341  0.00167084     5426.02     6.56115     61360.0
     390.400     15.3061     1.83249     77.5324  -0.00167084     5457.06     6.56059     61400.0
     390.500    0.000000     1.84413     77.5324    0.000000     5422.60     6.56727     61475.0
     390.600     6.80272     1.84996     77.5391  0.00667572     5405.53     6.55002     61350.0
