#------------------------------------------------------------
~VERSION INFORMATION
VERS.               2.0  :CWLS LOG ASCII STANDARD - VERSION 2.0
WRAP.                NO  :ONE LINE PER DEPTH STEP
#------------------------------------------------------------
~WELL INFORMATION
STRT.FT        0.900000  :FIRST INDEX VALUE
STOP.FT         1874.90  :LAST INDEX VALUE
STEP.FT        0.100000  :STEP
NULL.            -99999  :NULL VALUE
COMP.                    :
WELL.                    :
FLD.                     :
LOC.                     :LOCATION
SRVC.              USGS  :SERVICE COMPANY
CTRY.                    :
STAT.                    :
CNTY.                    :
DATE.          11/22/16  :DATE
API.                     :
#------------------------------------------------------------
~CURVE INFORMATION
DEPT.FT                  :DEPTH
GAM(NAT).API             :GAM(NAT)
RES(FL).OHM-M            :RES(FL)
TEMP.°F                  :TEMP
DEL_TEMP.°F              :DEL TEMP
SP_COND.µS/CM            :SP COND
CALIPER.INCH             :CALIPER
CCL.CPS                  :CCL
#------------------------------------------------------------
~PARAMETER INFORMATION
other3serv.              :other3serv
feet_or_meter.        F  :feet or meter
latitude.       31.8774  :latitude
mud_temp.            NA  :mud temp
res_mud_filtrate.        :res mud filtrate
elev_kb.             NA  :elev kb
log_meas_from.      LSD  :log meas from
sys_version.   3.6XH     :sys version
mud_res.             NA  :mud res
temp_gradient.        0  :temp gradient
file_type_id.    8144A   :file type id
township.            NA  :township
field_office. USGS - TXWSC  :field office
eng_units_or_cps.     E  :eng units or cps
time_circ_stopped.   NA  :time circ stopped
recorded_by.     THOMAS  :recorded by
field.          HOLLAND  :field
depth_driller.     1993  :depth driller
range.               NA  :range
mean_surface_temp.       :mean surface temp
casing_bottom.       NA  :casing bottom
casing_type.      STEEL  :casing type
tool_serial_num.     NA  :tool serial num
deltat_fluid.            :deltat fluid
longitude.     -97.4055  :longitude
RUN1.                    :RUN1
fluid_viscosity.         :fluid viscosity
RUN2.                    :RUN2
log_sample_int.     .10  :log sample int
bit_size.           8.5  :bit size
elect_cutoff.      9999  :elect cutoff
log_direction.        D  :log direction
elev_perm_datum.         :elev perm datum
county.            BELL  :county
RUN3.                    :RUN3
truck_cal_num. 0.5956    :truck cal num
mud_sample_source.   NA  :mud sample source
temp_mud_cake.           :temp mud cake
drl_meas_from.       NA  :drl meas from
RUN4.                    :RUN4
permanent_datum.    LSD  :permanent datum
Name_Prn_AP.             :Name Prn AP
casing_diameter.      6  :casing diameter
UNIQUE_WELL_ID.          :UNIQUE WELL ID
RUN5.                    :RUN5
company. CLEARWATER UWCD  :company
fluid_type.         H2O  :fluid type
neutron_matrix. LIMESTONE  :neutron matrix
fluid_ph.                :fluid ph
elev_df.             NA  :elev df
state.               TX  :state
RUN6.                    :RUN6
PROVINCE.                :PROVINCE
file_type.    ORIGINAL   :file type
sys_serial.    1         :sys serial
temp_mud_filtrate.       :temp mud filtrate
other1serv.          ZW  :other1serv
section.             NA  :section
logging_unit.       302  :logging unit
remarks1.                :remarks1
log_bottom.     1883.50  :log bottom
time.            10_11_  :time
density_matrix.    2.71  :density matrix
elev_gl.                 :elev gl
other2serv.          ZE  :other2serv
casing_thick.        NA  :casing thick
res_mud_cake.        NA  :res mud cake
log_top.              0  :log top
fluid_density.       NA  :fluid density
mag_declination.      0  :mag declination
delta_t_matrix.       9  :delta t matrix
remarks2.                :remarks2
#------------------------------------------------------------
~OTHER
#------------------------------------------------------------
~A  DEPT[FT]    GAM(NAT)     RES(FL)        TEMP    DEL TEMP     SP COND     CALIPER         CCL
# ...
     133.400     10.2041     1.84297     74.6719  0.00238037     5426.02     6.55114     61205.0
     133.500     5.10204     1.84297     74.6695  -0.00238037     5426.02     6.60342     61280.0
     133.600     5.10204     1.84297     74.6784  0.00889587     5426.02     6.55336     61440.0
     133.700     15.3061     1.84646     74.6767  -0.00177765     5415.76     6.55614     61640.0
     133.800    0.000000     1.84297     74.6784  0.00177765     5426.02     6.54613     61025.0
     133.900     20.4082     1.84297     74.6731  -0.00533295     5426.02     6.45491     61365.0
     134.000     5.10204     1.84297     74.6767  0.00355530     5426.02     6.47494     61685.0
     134.100     25.5102     1.84297     74.6802  0.00356293     5426.02     6.52054     61345.0
     134.200     25.5102     1.84297     74.6767  -0.00356293     5426.02     6.50441     61140.0
     134.300     15.3061     1.84297     74.6784  0.00177765     5426.02     6.45046     61490.0
     134.400     15.3061     1.84297     74.6784    0.000000     5426.02     6.47104     61540.0
     134.500     25.5102     1.84297     74.6802  0.00178528     5426.02     6.50441     61100.0
     134.600     10.2041     1.84297     74.6838  0.00355530     5426.02     6.51498     61665.0
     134.700    0.000000     1.84297     74.6820  -0.00177765     5426.02     6.50720     61095.0
     134.800     15.3061     1.84297     74.6802  -0.00177765     5426.02     6.49718     61095.0
     134.900     10.2041     1.84297     74.6784  -0.00178528     5426.02     6.55503     61445.0
     135.000     10.2041     1.84297     74.6838  0.00534058     5426.02     6.53779     61495.0
     135.100     6.80272     1.84297     74.6820  -0.00177765     5426.02     6.55503     61440.0
     135.200     15.3061     1.84297     74.6855  0.00355530     5426.02     6.56226     61145.0
     135.300     20.4082     1.84297     74.6838  -0.00177765     5426.02     6.57394     61300.0
     135.400     20.4082     1.82201     74.6838    0.000000     5488.45     6.53389     61425.0
     135.500     10.2041     1.84297     74.6873  0.00356293     5426.02     6.54724     61335.0
     135.600     5.10204     1.84297     74.6802  -0.00711823     5426.02     6.56560     61475.0
     135.700    0.000000     1.84297     74.6909   0.0106735     5426.02     6.57172     61205.0
     135.800     5.10204     1.84297     74.6891  -0.00177765     5426.02     6.56393     61380.0
     135.900     15.3061     1.84297     74.6891    0.000000     5426.02     6.55225     61435.0
     136.000     10.2041     1.84297     74.6909  0.00177765     5426.02     6.54557     61365.0
     136.100     15.3061     1.84297     74.6927  0.00177765     5426.02     6.56393     61375.0
     136.200     25.5102     1.84181     74.6945  0.00178528     5429.46     6.55837     61275.0
     136.300     15.3061     1.84297     74.6909  -0.00356293     5426.02     6.59730     61250.0
     136.400     20.4082     1.84297     74.6921  0.00118256     5426.02     6.56004     61390.0
     136.500     5.10204     1.84297     74.6909  -0.00118256     5426.02     6.53056     61180.0
     136.600     35.7143     1.84297     74.6945  0.00356293     5426.02     6.56838     61235.0
     136.700     20.4082     1.84297     74.6945    0.000000     5426.02     6.57617     61600.0
     136.800     5.10204     1.84297     74.6980  0.00355530     5426.02     6.58673     61470.0
     136.900     35.7143     1.84646     74.6980    0.000000     5415.76     6.56448     61335.0
     137.000    0.000000     1.84297     74.7016  0.00355530     5426.02     6.53167     61215.0
     137.100     5.10204     1.84297     74.6998  -0.00177765     5426.02     6.54669     61480.0
     137.200     10.2041     1.84297     74.7016  0.00177765     5426.02     6.55225     61245.0
     137.300     35.7143     1.84297     74.6998  -0.00177765     5426.02     6.57617     61455.0
     137.400     30.6122     1.84297     74.6998    0.000000     5426.02     6.54891     61080.0
     137.500     5.10204     1.84297     74.7016  0.00177765     5426.02     6.53000     61490.0
     137.600     10.2041     1.84297     74.7033  0.00177765     5426.02     6.55503     60940.0
     137.700     10.2041     1.84646     74.7069  0.00356293     5415.76     6.55447     61385.0
     137.800     30.6122     1.84297     74.7087  0.00177765     5426.02     6.54613     61415.0
     137.900    0.000000     1.84297     74.7033  -0.00534058     5426.02     6.55336     61375.0
     138.000     10.2041     1.84297     74.7087  0.00534058     5426.02     6.56337     61305.0
     138.100     10.2041     1.84297     74.7105  0.00177765     5426.02     6.56782     61375.0
     138.200     40.8163     1.84297     74.7033  -0.00711823     5426.02     6.56671     61570.0
     138.300     3.40136     1.84297     74.7087  0.00534058     5426.02     6.55447     61210.0
     138.400     5.10204     1.84297     74.7105  0.00177765     5426.02     6.54391     61180.0
     138.500     20.4082     1.84297     74.7140  0.00356293     5426.02     6.49051     61530.0
     138.600     10.2041     1.84297     74.7122  -0.00178528     5426.02     6.49218     61555.0
     138.700     10.2041     1.84297     74.7122    0.000000     5426.02     6.55447     61150.0
     138.800     10.2041     1.84297     74.7122    0.000000     5426.02     6.55614     61210.0
     138.900     5.10204     1.84297     74.7122    0.000000     5426.02     6.54724     61555.0
     139.000     10.2041     1.84297     74.7176  0.00534058     5426.02     6.53334     61380.0
     139.100     10.2041     1.84297     74.7122  -0.00534058     5426.02     6.55781     61335.0
     139.200     20.4082     1.84297     74.7087  -0.00355530     5426.02     6.54391     61680.0
     139.300    0.000000     1.84297     74.7211   0.0124512     5426.02     6.52054     61330.0
     139.400    0.000000     1.84413     74.7087  -0.0124512     5422.60     6.49273     60860.0
     139.500     15.3061     1.84297     74.7211   0.0124512     5426.02     6.45658     61530.0
     139.600     10.2041     1.84297     74.7146  -0.00651550     5426.02     6.50330     61340.0
     139.700     30.6122     1.84297     74.7176  0.00296021     5426.02     6.52833     61380.0
     139.800     5.10204     1.84297     74.7211  0.00355530     5426.02     6.53779     61495.0
     139.900     5.10204     1.84297     74.7176  -0.00355530     5426.02     6.48884     61480.0
     140.000     15.3061     1.84297     74.7194  0.00177765     5426.02     6.49162     60990.0
     140.100     35.7143     1.84297     74.7265  0.00711823     5426.02     6.49718     61360.0
     140.200     15.3061     1.84297     74.7140  -0.0124512     5426.02     6.53389     61525.0
     140.300     10.2041     1.84297     74.7194  0.00533295     5426.02     6.55503     61200.0
     140.400     5.10204     1.84297     74.7229  0.00356293     5426.02     6.53501     61215.0
     140.500     20.4082     1.84646     74.7300  0.00711823     5415.76     6.54724     61270.0
     140.600    0.000000     1.84297     74.7247  -0.00534058     5426.02     6.55336     61190.0
     140.700     10.2041     1.84297     74.7282  0.00355530     5426.02     6.57005     61470.0
     140.800    0.000000     1.84297     74.7282    0.000000     5426.02     6.57283     61360.0
     140.900     5.10204     1.84297     74.7336  0.00534058     5426.02     6.56727     61280.0
     141.000     15.3061     1.84297     74.7318  -0.00177765     5426.02     6.55503     61450.0
     141.100     30.6122     1.84297     74.7318    0.000000     5426.02     6.54891     61370.0
     141.200     5.10204     1.84297     74.7265  -0.00534058     5426.02     6.57227     61300.0
     141.300    0.000000     1.84297     74.7372   0.0106812     5426.02     6.56949     61330.0
     141.400     6.80272     1.84297     74.7354  -0.00178528     5426.02     6.58173     61330.0
     141.500     5.10204     1.84297     74.7372  0.00178528     5426.02     6.58228     61395.0
     141.600     5.10204     1.84297     74.7336  -0.00356293     5426.02     6.59118     61345.0
