#------------------------------------------------------------
~VERSION INFORMATION
VERS.               2.0  :CWLS LOG ASCII STANDARD - VERSION 2.0
WRAP.                NO  :ONE LINE PER DEPTH STEP
#------------------------------------------------------------
~WELL INFORMATION
STRT.FT        0.900000  :FIRST INDEX VALUE
STOP.FT         1874.90  :LAST INDEX VALUE
STEP.FT        0.100000  :STEP
NULL.            -99999  :NULL VALUE
COMP.                    :
WELL.                    :
FLD.                     :
LOC.                     :LOCATION
SRVC.              USGS  :SERVICE COMPANY
CTRY.                    :
STAT.                    :
CNTY.                    :
DATE.          11/22/16  :DATE
API.                     :
#------------------------------------------------------------
~CURVE INFORMATION
DEPT.FT                  :DEPTH
GAM(NAT).API             :GAM(NAT)
RES(FL).OHM-M            :RES(FL)
TEMP.°F                  :TEMP
DEL_TEMP.°F              :DEL TEMP
SP_COND.µS/CM            :SP COND
CALIPER.INCH             :CALIPER
CCL.CPS                  :CCL
#------------------------------------------------------------
~PARAMETER INFORMATION
other3serv.              :other3serv
feet_or_meter.        F  :feet or meter
latitude.       31.8774  :latitude
mud_temp.            NA  :mud temp
res_mud_filtrate.        :res mud filtrate
elev_kb.             NA  :elev kb
log_meas_from.      LSD  :log meas from
sys_version.   3.6XH     :sys version
mud_res.             NA  :mud res
temp_gradient.        0  :temp gradient
file_type_id.    8144A   :file type id
township.            NA  :township
field_office. USGS - TXWSC  :field office
eng_units_or_cps.     E  :eng units or cps
time_circ_stopped.   NA  :time circ stopped
recorded_by.     THOMAS  :recorded by
field.          HOLLAND  :field
depth_driller.     1993  :depth driller
range.               NA  :range
mean_surface_temp.       :mean surface temp
casing_bottom.       NA  :casing bottom
casing_type.      STEEL  :casing type
tool_serial_num.     NA  :tool serial num
deltat_fluid.            :deltat fluid
longitude.     -97.4055  :longitude
RUN1.                    :RUN1
fluid_viscosity.         :fluid viscosity
RUN2.                    :RUN2
log_sample_int.     .10  :log sample int
bit_size.           8.5  :bit size
elect_cutoff.      9999  :elect cutoff
log_direction.        D  :log direction
elev_perm_datum.         :elev perm datum
county.            BELL  :county
RUN3.                    :RUN3
truck_cal_num. 0.5956    :truck cal num
mud_sample_source.   NA  :mud sample source
temp_mud_cake.           :temp mud cake
drl_meas_from.       NA  :drl meas from
RUN4.                    :RUN4
permanent_datum.    LSD  :permanent datum
Name_Prn_AP.             :Name Prn AP
casing_diameter.      6  :casing diameter
UNIQUE_WELL_ID.          :UNIQUE WELL ID
RUN5.                    :RUN5
company. CLEARWATER UWCD  :company
fluid_type.         H2O  :fluid type
neutron_matrix. LIMESTONE  :neutron matrix
fluid_ph.                :fluid ph
elev_df.             NA  :elev df
state.               TX  :state
RUN6.                    :RUN6
PROVINCE.                :PROVINCE
file_type.    ORIGINAL   :file type
sys_serial.    1         :sys serial
temp_mud_filtrate.       :temp mud filtrate
other1serv.          ZW  :other1serv
section.             NA  :section
logging_unit.       302  :logging unit
remarks1.                :remarks1
log_bottom.     1883.50  :log bottom
time.            10_11_  :time
density_matrix.    2.71  :density matrix
elev_gl.                 :elev gl
other2serv.          ZE  :other2serv
casing_thick.        NA  :casing thick
res_mud_cake.        NA  :res mud cake
log_top.              0  :log top
fluid_density.       NA  :fluid density
mag_declination.      0  :mag declination
delta_t_matrix.       9  :delta t matrix
remarks2.                :remarks2
#------------------------------------------------------------
~OTHER
#------------------------------------------------------------
~A  DEPT[FT]    GAM(NAT)     RES(FL)        TEMP    DEL TEMP     SP COND     CALIPER         CCL
# ...
     1743.50     30.6122    0.878700     97.8954  -0.00933838     11380.4     4.71967     60745.0
     1743.60     10.2041    0.870548     97.9016  0.00623322     11487.0     4.74408     61610.0
     1743.70     35.7143    0.861231     97.9016    0.000000     11611.3     4.77164     61270.0
     1743.80     27.2109    0.861231     97.9026  0.00102997     11611.3     4.75097     61515.0
     1743.90     56.1224    0.864725     97.9063  0.00363922     11564.4     4.72322     61930.0
     1744.00     25.5102    0.872877     97.9000  -0.00623322     11456.4     4.71436     60650.0
     1744.10     34.0136    0.861231     97.9031  0.00312042     11611.3     4.72952     61470.0
     1744.20     35.7143    0.878700     97.9078  0.00466919     11380.4     4.65176     61336.7
     1744.30     15.3061    0.868219     97.9094  0.00154877     11517.8     4.71200     60295.0
     1744.40     15.3061    0.871713     97.9063  -0.00310516     11471.7     4.62873     61870.0
     1744.50     13.6054    0.868219     97.9099  0.00363159     11517.8     4.67834     61900.0
     1744.60     35.7143    0.844927     97.9125  0.00259399     11835.3     4.67243     60876.7
     1744.70     25.5102    0.868219     97.9109  -0.00155640     11517.8     4.72026     61725.0
     1744.80     10.2041    0.871713     97.8995  -0.0114136     11471.7     4.71613     62030.0
     1744.90     27.2109    0.863561     97.9187   0.0191879     11580.0     4.67598     61730.0
     1745.00     45.9184    0.868219     97.9156  -0.00310516     11517.8     4.66416     61380.0
     1745.10     15.3061    0.861231     97.9109  -0.00466919     11611.3     4.72086     60996.7
     1745.20     35.7143    0.877535     97.9172  0.00622559     11395.6     4.70432     61195.0
     1745.30     51.0204    0.857738     97.9140  -0.00312042     11658.6     4.67420     61465.0
     1745.40     10.2041    0.875206     97.9213  0.00726318     11425.9     4.70786     60630.0
     1745.50     30.6122    0.885687     97.9109  -0.0103683     11290.7     4.73208     61085.0
     1745.60     20.4082    0.865889     97.9156  0.00466919     11548.8     4.73739     61710.0
     1745.70     15.3061    0.868219     97.9234  0.00777435     11517.8     4.66889     61645.0
     1745.80     25.5102    0.864725     97.9182  -0.00518036     11564.4     4.75570     61590.0
     1745.90     20.4082    0.868219     97.9187  0.000511169     11517.8     4.73680     60340.0
     1746.00     17.0068    0.886852     97.9187    0.000000     11275.8     4.75570     62995.0
     1746.10     15.3061    0.864725     97.9172  -0.00154877     11564.4     4.75117     59253.3
     1746.20     15.3061    0.871713     97.9234  0.00621796     11471.7     4.75747     62460.0
     1746.30     20.4082    0.882194     97.9203  -0.00310516     11335.4     4.69664     62300.0
     1746.40     20.4082    0.865889     97.9280  0.00777435     11548.8     4.72086     61035.0
     1746.50     15.3061    0.889181     97.9312  0.00312042     11246.3     4.71967     61315.0
     1746.60     23.8095    0.847256     97.9223  -0.00882721     11802.8     4.70353     61870.0
     1746.70     30.6122    0.861231     97.9296  0.00727081     11611.3     4.72204     61086.7
     1746.80     15.3061    0.868219     97.9218  -0.00778198     11517.8     4.71554     59945.0
     1746.90     37.4150    0.861231     97.9275  0.00570679     11611.3     4.71082     60975.0
     1747.00     35.7143    0.854244     97.9327  0.00518036     11706.3     4.72145     63835.0
     1747.10     20.4082    0.891510     97.9327    0.000000     11216.9     4.70314     60710.0
     1747.20     25.5102    0.812319     97.9280  -0.00466919     12310.4     4.67519     60620.0
     1747.30     30.6122    0.871713     97.9420   0.0140076     11471.7     4.73148     62130.0
     1747.40     56.1224    0.865889     97.9187  -0.0233459     11548.8     4.74448     61110.0
     1747.50     15.3061    0.857738     97.9374   0.0186768     11658.6     4.72204     61175.0
     1747.60     45.9184    0.871713     97.9369  -0.000511169     11471.7     4.68956     62085.0
     1747.70     34.0136    0.872877     97.9374  0.000511169     11456.4     4.61535     61540.0
     1747.80     20.4082    0.861231     97.9405  0.00312042     11611.3     4.59094     59795.0
     1747.90     25.5102    0.871713     97.9400  -0.000526428     11471.7     4.60275     61745.0
     1748.00     25.5102    0.865889     97.9436  0.00363922     11548.8     4.56968     61510.0
     1748.10     27.2109    0.854244     97.9452  0.00155640     11706.3     4.60039     61225.0
     1748.20     5.10204    0.871713     97.9452    0.000000     11471.7     4.60787     61410.0
     1748.30     45.9184    0.875206     97.9467  0.00154877     11425.9     4.66712     61540.0
     1748.40     30.6122    0.863561     97.9452  -0.00154877     11580.0     4.62814     61185.0
     1748.50     20.4082    0.875206     97.9467  0.00154877     11425.9     4.75688     60935.0
     1748.60     35.7143    0.875206     97.9452  -0.00154877     11425.9     4.78286     61680.0
     1748.70     27.2109    0.864725     97.9467  0.00154877     11564.4     4.82164     61616.7
     1748.80     30.6122    0.870548     97.9514  0.00466919     11487.0     4.76337     60835.0
     1748.90     30.6122    0.868219     97.9498  -0.00154877     11517.8     4.78995     61185.0
     1749.00     30.6122    0.882194     97.9493  -0.000526428     11335.4     4.73739     61620.0
     1749.10     5.10204    0.875206     97.9514  0.00207520     11425.9     4.82774     61490.0
     1749.20     45.9184    0.861231     97.9498  -0.00154877     11611.3     4.78345     61246.7
     1749.30     40.8163    0.882194     97.9498    0.000000     11335.4     4.83424     61415.0
     1749.40     10.2041    0.861231     97.9576  0.00778198     11611.3     4.80943     61335.0
     1749.50     30.6122    0.868219     97.9592  0.00155640     11517.8     4.81947     61330.0
     1749.60     6.80272    0.882194     97.9576  -0.00155640     11335.4     4.80825     61305.0
     1749.70     10.2041    0.875206     97.9566  -0.00103760     11425.9     4.74369     61305.0
     1749.80     15.3061    0.882194     97.9638  0.00726318     11335.4     4.74861     61296.7
     1749.90     25.5102    0.861231     97.9576  -0.00622559     11611.3     4.77755     61365.0
     1750.00     6.80272    0.875206     97.9659  0.00830078     11425.9     4.79172     61375.0
     1750.10     30.6122    0.875206     97.9623  -0.00363159     11425.9     4.78818     61335.0
     1750.20     15.3061    0.868219     97.9670  0.00466919     11517.8     4.81180     61410.0
     1750.30     20.4082    0.875206     97.9638  -0.00311279     11425.9     4.82164     61330.0
     1750.40     6.80272    0.875206     97.9654  0.00154877     11425.9     4.84427     61480.0
     1750.50     5.10204    0.861231     97.9701  0.00466919     11611.3     4.83837     61260.0
     1750.60     25.5102    0.882194     97.9680  -0.00207520     11335.4     4.83424     61210.0
     1750.70     17.0068    0.868219     97.9654  -0.00259399     11517.8     4.83069     61366.7
     1750.80     25.5102    0.868219     97.9732  0.00778961     11517.8     4.81101     61445.0
     1750.90     25.5102    0.903156     97.9753  0.00207520     11072.3     4.81002     61255.0
     1751.00     10.2041    0.878700     97.9701  -0.00519562     11380.4     4.77991     61335.0
     1751.10     27.2109    0.875206     97.9763  0.00623322     11425.9     4.79762     61370.0
     1751.20     10.2041    0.875206     97.9747  -0.00156403     11425.9     4.77243     61336.7
     1751.30     40.8163    0.878700     97.9753  0.000526428     11380.4     4.75392     61210.0
     1751.40     30.6122    0.871713     97.9794  0.00414276     11471.7     4.74802     61395.0
     1751.50     23.8095    0.872877     97.9794    0.000000     11456.4     4.74211     61400.0
     1751.60     40.8163    0.878700     97.9779  -0.00154877     11380.4     4.74330     61350.0
     1751.70     30.6122    0.871713     97.9815  0.00363159     11471.7     4.74133     61453.3
