#------------------------------------------------------------
~VERSION INFORMATION
VERS.               2.0  :CWLS LOG ASCII STANDARD - VERSION 2.0
WRAP.                NO  :ONE LINE PER DEPTH STEP
#------------------------------------------------------------
~WELL INFORMATION
STRT.FT        0.900000  :FIRST INDEX VALUE
STOP.FT         1874.90  :LAST INDEX VALUE
STEP.FT        0.100000  :STEP
NULL.            -99999  :NULL VALUE
COMP.                    :
WELL.                    :
FLD.                     :
LOC.                     :LOCATION
SRVC.              USGS  :SERVICE COMPANY
CTRY.                    :
STAT.                    :
CNTY.                    :
DATE.          11/22/16  :DATE
API.                     :
#------------------------------------------------------------
~CURVE INFORMATION
DEPT.FT                  :DEPTH
GAM(NAT).API             :GAM(NAT)
RES(FL).OHM-M            :RES(FL)
TEMP.°F                  :TEMP
DEL_TEMP.°F              :DEL TEMP
SP_COND.µS/CM            :SP COND
CALIPER.INCH             :CALIPER
CCL.CPS                  :CCL
#------------------------------------------------------------
~PARAMETER INFORMATION
other3serv.              :other3serv
feet_or_meter.        F  :feet or meter
latitude.       31.8774  :latitude
mud_temp.            NA  :mud temp
res_mud_filtrate.        :res mud filtrate
elev_kb.             NA  :elev kb
log_meas_from.      LSD  :log meas from
sys_version.   3.6XH     :sys version
mud_res.             NA  :mud res
temp_gradient.        0  :temp gradient
file_type_id.    8144A   :file type id
township.            NA  :township
field_office. USGS - TXWSC  :field office
eng_units_or_cps.     E  :eng units or cps
time_circ_stopped.   NA  :time circ stopped
recorded_by.     THOMAS  :recorded by
field.          HOLLAND  :field
depth_driller.     1993  :depth driller
range.               NA  :range
mean_surface_temp.       :mean surface temp
casing_bottom.       NA  :casing bottom
casing_type.      STEEL  :casing type
tool_serial_num.     NA  :tool serial num
deltat_fluid.            :deltat fluid
longitude.     -97.4055  :longitude
RUN1.                    :RUN1
fluid_viscosity.         :fluid viscosity
RUN2.                    :RUN2
log_sample_int.     .10  :log sample int
bit_size.           8.5  :bit size
elect_cutoff.      9999  :elect cutoff
log_direction.        D  :log direction
elev_perm_datum.         :elev perm datum
county.            BELL  :county
RUN3.                    :RUN3
truck_cal_num. 0.5956    :truck cal num
mud_sample_source.   NA  :mud sample source
temp_mud_cake.           :temp mud cake
drl_meas_from.       NA  :drl meas from
RUN4.                    :RUN4
permanent_datum.    LSD  :permanent datum
Name_Prn_AP.             :Name Prn AP
casing_diameter.      6  :casing diameter
UNIQUE_WELL_ID.          :UNIQUE WELL ID
RUN5.                    :RUN5
company. CLEARWATER UWCD  :company
fluid_type.         H2O  :fluid type
neutron_matrix. LIMESTONE  :neutron matrix
fluid_ph.                :fluid ph
elev_df.             NA  :elev df
state.               TX  :state
RUN6.                    :RUN6
PROVINCE.                :PROVINCE
file_type.    ORIGINAL   :file type
sys_serial.    1         :sys serial
temp_mud_filtrate.       :temp mud filtrate
other1serv.          ZW  :other1serv
section.             NA  :section
logging_unit.       302  :logging unit
remarks1.                :remarks1
log_bottom.     1883.50  :log bottom
time.            10_11_  :time
density_matrix.    2.71  :density matrix
elev_gl.                 :elev gl
other2serv.          ZE  :other2serv
casing_thick.        NA  :casing thick
res_mud_cake.        NA  :res mud cake
log_top.              0  :log top
fluid_density.       NA  :fluid density
mag_declination.      0  :mag declination
delta_t_matrix.       9  :delta t matrix
remarks2.                :remarks2
#------------------------------------------------------------
~OTHER
#------------------------------------------------------------
~A  DEPT[FT]    GAM(NAT)     RES(FL)        TEMP    DEL TEMP     SP COND     CALIPER         CCL
# ...
     257.900     3.40136     1.84297     75.9061  -0.0171967     5426.02     6.34089     61570.0
     258.000    0.000000     1.84413     75.9204   0.0142288     5422.60     6.35980     61195.0
     258.100     5.10204     1.84297     75.9310   0.0106735     5426.02     6.41765     61010.0
     258.200     25.5102     1.84297     75.9245  -0.00651550     5426.02     6.42543     61415.0
     258.300     5.10204     1.84413     75.9328  0.00830078     5422.60     6.42488     61395.0
     258.400     13.6054     1.84297     75.9221  -0.0106812     5426.02     6.40207     61330.0
     258.500     5.10204     1.84297     75.9305  0.00830841     5426.02     6.39929     61245.0
     258.600    0.000000     1.84413     75.9132  -0.0172043     5422.60     6.45046     61370.0
     258.700     10.2041     1.84297     75.9310   0.0177917     5426.02     6.44546     61450.0
     258.800     5.10204     1.84297     75.9542   0.0231323     5426.02     6.41542     61430.0
     258.900     10.2041     1.84297     75.9399  -0.0142288     5426.02     6.41042     61370.0
     259.000    0.000000     1.84413     75.9666   0.0266876     5422.60     6.39484     61245.0
     259.100     5.10204     1.84297     75.9417  -0.0249100     5426.02     6.37426     61225.0
     259.200     10.2041     1.84297     75.9672   0.0255051     5426.02     6.30807     61340.0
     259.300    0.000000     1.84297     75.9613  -0.00593567     5426.02     6.36592     61350.0
     259.400     13.6054     1.84297     75.9399  -0.0213470     5426.02     6.38205     61185.0
     259.500     20.4082     1.84413     75.9595   0.0195694     5422.60     6.42043     61385.0
     259.600     10.2041     1.84297     75.9560  -0.00355530     5426.02     6.41765     61410.0
     259.700     20.4082     1.84297     75.9613  0.00533295     5426.02     6.44045     61500.0
     259.800     15.3061     1.84297     75.9595  -0.00177765     5426.02     6.43878     61325.0
     259.900     5.10204     1.84297     75.9666  0.00711823     5426.02     6.40096     61355.0
     260.000    0.000000     1.84413     75.9631  -0.00356293     5422.60     6.44546     61250.0
     260.100    0.000000     1.84297     75.9737   0.0106735     5426.02     6.44490     61290.0
     260.200    0.000000     1.84297     75.9732  -0.000587463     5426.02     6.40096     61350.0
     260.300     10.2041     1.84297     75.9720  -0.00119019     5426.02     6.44323     61245.0
     260.400     5.10204     1.84297     75.9755  0.00356293     5426.02     6.39985     61230.0
     260.500     3.40136     1.84413     75.9791  0.00355530     5422.60     6.42821     61395.0
     260.600     5.10204     1.84297     75.9809  0.00177765     5426.02     6.37315     61330.0
     260.700    0.000000     1.84297     75.9838  0.00296783     5426.02     6.40263     61315.0
     260.800     6.80272     1.84413     75.9809  -0.00296783     5422.60     6.40152     61460.0
     260.900    0.000000     1.84297     75.9862  0.00534058     5426.02     6.45380     61310.0
     261.000     15.3061     1.84297     75.9933  0.00711823     5426.02     6.44991     61295.0
     261.100     10.2041     1.84297     75.9862  -0.00711823     5426.02     6.43378     61360.0
     261.200     10.2041     1.84413     75.9898  0.00356293     5422.60     6.41097     61320.0
     261.300     3.40136     1.84297     75.9844  -0.00534058     5426.02     6.45213     61340.0
     261.400     10.2041     1.84297     75.9957   0.0112686     5426.02     6.44101     61370.0
     261.500    0.000000     1.84297     75.9880  -0.00771332     5426.02     6.42043     61215.0
     261.600    0.000000     1.84413     75.9898  0.00178528     5422.60     6.43545     61365.0
     261.700     3.40136     1.84297     75.9951  0.00533295     5426.02     6.41097     61490.0
     261.800     10.2041     1.84297     75.9909  -0.00415039     5426.02     6.40096     61280.0
     261.900     15.3061     1.84181     75.9933  0.00237274     5429.46     6.37148     61295.0
     262.000     5.10204     1.84646     75.9951  0.00177765     5415.76     6.40263     61395.0
     262.100    0.000000     1.84297     75.9957  0.000595093     5426.02     6.28805     61600.0
     262.200    0.000000     1.84297     75.9951  -0.000595093     5426.02     6.32977     61355.0
     262.300     20.4082     1.84297     75.9969  0.00178528     5426.02     6.35869     60910.0
     262.400     25.5102     1.84181     75.9933  -0.00356293     5429.46     6.36814     61170.0
     262.500     10.2041     1.84646     75.9898  -0.00355530     5415.76     6.37148     61495.0
     262.600     3.40136     1.84297     75.9921  0.00237274     5426.02     6.38149     61260.0
     262.700     5.10204     1.84297     75.9969  0.00474548     5426.02     6.44268     61290.0
     262.800    0.000000     1.84181     75.9951  -0.00178528     5429.46     6.39262     61585.0
     262.900     6.80272     1.84297     75.9933  -0.00177765     5426.02     6.43878     61385.0
     263.000    0.000000     1.84646     75.9969  0.00356293     5415.76     6.43990     61320.0
     263.100     15.3061     1.84297     75.9951  -0.00178528     5426.02     6.43878     61240.0
     263.200     10.2041     1.84297     75.9987  0.00356293     5426.02     6.44212     61355.0
     263.300     13.6054     1.84181     75.9933  -0.00534058     5429.46     6.40040     61345.0
     263.400    0.000000     1.84646     75.9933    0.000000     5415.76     6.41876     61270.0
     263.500     5.10204     1.84297     75.9957  0.00237274     5426.02     6.45380     61375.0
     263.600     15.3061     1.84297     75.9933  -0.00237274     5426.02     6.42710     61340.0
     263.700     6.80272     1.84181     75.9951  0.00177765     5429.46     6.43656     61410.0
     263.800     10.2041     1.84297     75.9969  0.00178528     5426.02     6.47827     61445.0
     263.900     15.3061     1.84646     75.9945  -0.00238037     5415.76     6.47382     61310.0
     264.000     15.3061     1.84181     75.9969  0.00238037     5429.46     6.39039     61310.0
     264.100     6.80272     1.84297     75.9951  -0.00178528     5426.02     6.39929     61380.0
     264.200     10.2041     1.84297     75.9957  0.000595093     5426.02     6.37649     61255.0
     264.300     15.3061     1.84646     75.9969  0.00119019     5415.76     6.43545     61295.0
     264.400     5.10204     1.84181     75.9969    0.000000     5429.46     6.39985     61360.0
     264.500     10.2041     1.84297     75.9969    0.000000     5426.02     6.37816     61320.0
     264.600     10.2041     1.84297     75.9969    0.000000     5426.02     6.40430     61375.0
     264.700     15.3061     1.84646     75.9969    0.000000     5415.76     6.37371     61420.0
     264.800     15.3061     1.84413     75.9969    0.000000     5422.60     6.39540     61420.0
     264.900    0.000000     1.84297     75.9969    0.000000     5426.02     6.37593     61215.0
     265.000    0.000000     1.84297     75.9969    0.000000     5426.02     6.45324     61360.0
     265.100     10.2041     1.84297     75.9969    0.000000     5426.02     6.43322     61270.0
     265.200    0.000000     1.84413     75.9969    0.000000     5422.60     6.42210     61315.0
     265.300     15.3061     1.84297     75.9951  -0.00178528     5426.02     6.38205     61380.0
     265.400     10.2041     1.84297     75.9969  0.00178528     5426.02     6.39595     61220.0
     265.500     10.2041     1.84297     75.9969    0.000000     5426.02     6.48161     61433.3
     265.600     20.4082     1.84297     75.9969    0.000000     5426.02     6.41208     61340.0
     265.700     10.2041     1.84413     75.9987  0.00177765     5422.60     6.44824     61300.0
     265.800     10.2041     1.84297     75.9987    0.000000     5426.02     6.42265     61376.7
     265.900     15.3061     1.84297     75.9969  -0.00177765     5426.02     6.44268     61380.0
     266.000     5.10204     1.84297     75.9987  0.00177765     5426.02     6.43711     61310.0
     266.100     10.2041     1.84297     75.9951  -0.00356293     5426.02     6.47660     61270.0
