#------------------------------------------------------------
~VERSION INFORMATION
VERS.               2.0  :CWLS LOG ASCII STANDARD - VERSION 2.0
WRAP.                NO  :ONE LINE PER DEPTH STEP
#------------------------------------------------------------
~WELL INFORMATION
STRT.FT        0.900000  :FIRST INDEX VALUE
STOP.FT         1874.90  :LAST INDEX VALUE
STEP.FT        0.100000  :STEP
NULL.            -99999  :NULL VALUE
COMP.                    :
WELL.                    :
FLD.                     :
LOC.                     :LOCATION
SRVC.              USGS  :SERVICE COMPANY
CTRY.                    :
STAT.                    :
CNTY.                    :
DATE.          11/22/16  :DATE
API.                     :
#------------------------------------------------------------
~CURVE INFORMATION
DEPT.FT                  :DEPTH
GAM(NAT).API             :GAM(NAT)
RES(FL).OHM-M            :RES(FL)
TEMP.°F                  :TEMP
DEL_TEMP.°F              :DEL TEMP
SP_COND.µS/CM            :SP COND
CALIPER.INCH             :CALIPER
CCL.CPS                  :CCL
#------------------------------------------------------------
~PARAMETER INFORMATION
other3serv.              :other3serv
feet_or_meter.        F  :feet or meter
latitude.       31.8774  :latitude
mud_temp.            NA  :mud temp
res_mud_filtrate.        :res mud filtrate
elev_kb.             NA  :elev kb
log_meas_from.      LSD  :log meas from
sys_version.   3.6XH     :sys version
mud_res.             NA  :mud res
temp_gradient.        0  :temp gradient
file_type_id.    8144A   :file type id
township.            NA  :township
field_office. USGS - TXWSC  :field office
eng_units_or_cps.     E  :eng units or cps
time_circ_stopped.   NA  :time circ stopped
recorded_by.     THOMAS  :recorded by
field.          HOLLAND  :field
depth_driller.     1993  :depth driller
range.               NA  :range
mean_surface_temp.       :mean surface temp
casing_bottom.       NA  :casing bottom
casing_type.      STEEL  :casing type
tool_serial_num.     NA  :tool serial num
deltat_fluid.            :deltat fluid
longitude.     -97.4055  :longitude
RUN1.                    :RUN1
fluid_viscosity.         :fluid viscosity
RUN2.                    :RUN2
log_sample_int.     .10  :log sample int
bit_size.           8.5  :bit size
elect_cutoff.      9999  :elect cutoff
log_direction.        D  :log direction
elev_perm_datum.         :elev perm datum
county.            BELL  :county
RUN3.                    :RUN3
truck_cal_num. 0.5956    :truck cal num
mud_sample_source.   NA  :mud sample source
temp_mud_cake.           :temp mud cake
drl_meas_from.       NA  :drl meas from
RUN4.                    :RUN4
permanent_datum.    LSD  :permanent datum
Name_Prn_AP.             :Name Prn AP
casing_diameter.      6  :casing diameter
UNIQUE_WELL_ID.          :UNIQUE WELL ID
RUN5.                    :RUN5
company. CLEARWATER UWCD  :company
fluid_type.         H2O  :fluid type
neutron_matrix. LIMESTONE  :neutron matrix
fluid_ph.                :fluid ph
elev_df.             NA  :elev df
state.               TX  :state
RUN6.                    :RUN6
PROVINCE.                :PROVINCE
file_type.    ORIGINAL   :file type
sys_serial.    1         :sys serial
temp_mud_filtrate.       :temp mud filtrate
other1serv.          ZW  :other1serv
section.             NA  :section
logging_unit.       302  :logging unit
remarks1.                :remarks1
log_bottom.     1883.50  :log bottom
time.            10_11_  :time
density_matrix.    2.71  :density matrix
elev_gl.                 :elev gl
other2serv.          ZE  :other2serv
casing_thick.        NA  :casing thick
res_mud_cake.        NA  :res mud cake
log_top.              0  :log top
fluid_density.       NA  :fluid density
mag_declination.      0  :mag declination
delta_t_matrix.       9  :delta t matrix
remarks2.                :remarks2
#------------------------------------------------------------
~OTHER
#------------------------------------------------------------
~A  DEPT[FT]    GAM(NAT)     RES(FL)        TEMP    DEL TEMP     SP COND     CALIPER         CCL
# ...
     506.900    0.000000     1.83948     79.1919  0.00333405     5436.33     6.40263     61400.0
     507.000     6.80272     1.84297     79.1969  0.00500488     5426.02     6.38706     61375.0
     507.100     5.10204     1.84297     79.1885  -0.00833893     5426.02     6.38223     61353.3
     507.200    0.000000     1.84646     79.1869  -0.00167084     5415.76     6.38706     61350.0
     507.300     3.40136     1.84297     79.1919  0.00500488     5426.02     6.40652     61365.0
     507.400     5.10204     1.84413     79.1936  0.00167084     5422.60     6.44972     61273.3
     507.500     5.10204     1.83598     79.1969  0.00333405     5446.68     6.41153     61280.0
     507.600     13.6054     1.84297     79.1963  -0.000556946     5426.02     6.39540     61395.0
     507.700    0.000000     1.84413     79.1952  -0.00111389     5422.60     6.39929     61376.7
     507.800     5.10204     1.84646     79.2002  0.00500488     5415.76     6.38761     61385.0
     507.900     6.80272     1.84297     79.1974  -0.00277710     5426.02     6.41765     61290.0
     508.000    0.000000     1.84297     79.2019  0.00444794     5426.02     6.40448     61430.0
     508.100     15.3061     1.83948     79.2002  -0.00167084     5436.33     6.41375     61245.0
     508.200     10.2041     1.84297     79.1986  -0.00166321     5426.02     6.38984     61316.7
     508.300     3.40136     1.84646     79.1986    0.000000     5415.76     6.38223     61420.0
     508.400    0.000000     1.84413     79.2019  0.00333405     5422.60     6.39206     61400.0
     508.500     5.10204     1.84297     79.2069  0.00500488     5426.02     6.40040     61410.0
     508.600    0.000000     1.84297     79.2019  -0.00500488     5426.02     6.37315     61350.0
     508.700     3.40136     1.84413     79.2036  0.00166321     5422.60     6.39373     61423.3
     508.800    0.000000     1.84297     79.2102  0.00667572     5426.02     6.39874     61290.0
     508.900     10.2041     1.84646     79.2130  0.00277710     5415.76     6.37482     61360.0
     509.000     5.10204     1.84413     79.2102  -0.00277710     5422.60     6.38335     61330.0
     509.100     10.2041     1.84297     79.2119  0.00166321     5426.02     6.39651     61355.0
     509.200     20.4082     1.84297     79.2130  0.00111389     5426.02     6.40096     61340.0
     509.300     5.10204     1.84297     79.2152  0.00222015     5426.02     6.36889     61330.0
     509.400     5.10204     1.84413     79.2186  0.00334167     5422.60     6.40319     61345.0
     509.500     6.80272     1.84646     79.2186    0.000000     5415.76     6.39317     61343.3
     509.600     5.10204     1.84297     79.2208  0.00222015     5426.02     6.37111     61205.0
     509.700     6.80272     1.84297     79.2236  0.00277710     5426.02     6.37538     61455.0
     509.800     10.2041     1.84413     79.2252  0.00167084     5422.60     6.36814     61413.3
     509.900     10.2041     1.84297     79.2269  0.00167084     5426.02     6.39744     61385.0
     510.000    0.000000     1.84646     79.2252  -0.00167084     5415.76     6.38872     61363.3
     510.100     10.2041     1.84297     79.2236  -0.00167084     5426.02     6.38891     61395.0
     510.200     5.10204     1.84413     79.2286  0.00501251     5422.60     6.39039     61435.0
     510.300     3.40136     1.84297     79.2319  0.00332642     5426.02     6.42265     61266.7
     510.400     10.2041     1.84646     79.2286  -0.00332642     5415.76     6.39521     61330.0
     510.500     6.80272     1.84297     79.2286    0.000000     5426.02     6.36314     61295.0
     510.600    0.000000     1.84413     79.2286    0.000000     5422.60     6.37704     61333.3
     510.700     10.2041     1.84297     79.2286    0.000000     5426.02     6.38112     61290.0
     510.800     3.40136     1.84413     79.2330  0.00444031     5422.60     6.40207     61350.0
     510.900     15.3061     1.84297     79.2386  0.00556183     5426.02     6.40652     61446.7
     511.000    0.000000     1.84646     79.2364  -0.00222778     5415.76     6.41116     61245.0
     511.100     20.4082     1.84181     79.2302  -0.00611115     5429.46     6.40430     61370.0
     511.200    0.000000     1.84646     79.2369  0.00667572     5415.76     6.42432     61495.0
     511.300     25.5102     1.84297     79.2397  0.00277710     5426.02     6.43934     61070.0
     511.400     5.10204     1.84413     79.2336  -0.00611877     5422.60     6.40986     61380.0
     511.500     6.80272     1.84297     79.2453   0.0116806     5426.02     6.42265     61395.0
     511.600     5.10204     1.84413     79.2408  -0.00444794     5422.60     6.41598     61343.3
     511.700     10.2041     1.84297     79.2402  -0.000556946     5426.02     6.41542     61360.0
     511.800     6.80272     1.84646     79.2419  0.00166321     5415.76     6.43489     61445.0
     511.900     20.4082     1.84413     79.2469  0.00500488     5422.60     6.46548     61326.7
     512.000    0.000000     1.84297     79.2503  0.00333405     5426.02     6.42710     61360.0
     512.100     5.10204     1.84297     79.2453  -0.00499725     5426.02     6.40671     61333.3
     512.200     13.6054     1.84413     79.2469  0.00166321     5422.60     6.45825     61405.0
     512.300     20.4082     1.83249     79.2519  0.00500488     5457.06     6.40485     61310.0
     512.400     20.4082     1.84646     79.2486  -0.00333405     5415.76     6.42451     61393.3
     512.500     17.0068     1.84297     79.2536  0.00500488     5426.02     6.42599     61270.0
     512.600     15.3061     1.84413     79.2519  -0.00167084     5422.60     6.47382     61400.0
     512.700     3.40136     1.84297     79.2453  -0.00666809     5426.02     6.45677     61303.3
     512.800     5.10204     1.82899     79.2586   0.0133362     5467.48     6.40485     61505.0
     512.900     10.2041     1.84181     79.2586    0.000000     5429.46     6.43081     61365.0
     513.000     6.80272     1.84646     79.2603  0.00167084     5415.76     6.42321     61393.3
     513.100     5.10204     1.83598     79.2619  0.00167084     5446.68     6.40430     61205.0
     513.200     10.2041     1.84297     79.2669  0.00499725     5426.02     6.42414     61436.7
     513.300    0.000000     1.84413     79.2603  -0.00666809     5422.60     6.37593     61375.0
     513.400     5.10204     1.84646     79.2686  0.00833893     5415.76     6.39113     61470.0
     513.500     3.40136     1.84297     79.2697  0.00110626     5426.02     6.38928     61370.0
     513.600     10.2041     1.84413     79.2703  0.000556946     5422.60     6.39151     61535.0
     513.700     5.10204     1.84297     79.2769  0.00667572     5426.02     6.42710     61345.0
     513.800     10.2041     1.84413     79.2719  -0.00500488     5422.60     6.39707     61296.7
     513.900     10.2041     1.84297     79.2719    0.000000     5426.02     6.44434     61355.0
     514.000    0.000000     1.84646     79.2797  0.00778198     5415.76     6.42080     61345.0
     514.100     3.40136     1.84181     79.2769  -0.00277710     5429.46     6.41598     61320.0
     514.200    0.000000     1.84646     79.2786  0.00166321     5415.76     6.40485     61425.0
     514.300     10.2041     1.84297     79.2853  0.00667572     5426.02     6.41338     61366.7
     514.400     10.2041     1.84646     79.2853    0.000000     5415.76     6.41320     61330.0
     514.500     5.10204     1.84297     79.2836  -0.00166321     5426.02     6.43934     61445.0
     514.600     10.2041     1.83948     79.2808  -0.00278473     5436.33     6.37259     61273.3
     514.700     15.3061     1.84297     79.2886  0.00778198     5426.02     6.41987     61275.0
     514.800     6.80272     1.84646     79.2875  -0.00110626     5415.76     6.44527     61350.0
     514.900     5.10204     1.84413     79.2886  0.00110626     5422.60     6.45658     61400.0
     515.000     5.10204     1.84297     79.2903  0.00167084     5426.02     6.45491     61325.0
     515.100     6.80272     1.84297     79.2931  0.00277710     5426.02     6.42488     61333.3
