#------------------------------------------------------------
~VERSION INFORMATION
VERS.               2.0  :CWLS LOG ASCII STANDARD - VERSION 2.0
WRAP.                NO  :ONE LINE PER DEPTH STEP
#------------------------------------------------------------
~WELL INFORMATION
STRT.FT        0.900000  :FIRST INDEX VALUE
STOP.FT         1874.90  :LAST INDEX VALUE
STEP.FT        0.100000  :STEP
NULL.            -99999  :NULL VALUE
COMP.                    :
WELL.                    :
FLD.                     :
LOC.                     :LOCATION
SRVC.              USGS  :SERVICE COMPANY
CTRY.                    :
STAT.                    :
CNTY.                    :
DATE.          11/22/16  :DATE
API.                     :
#------------------------------------------------------------
~CURVE INFORMATION
DEPT.FT                  :DEPTH
GAM(NAT).API             :GAM(NAT)
RES(FL).OHM-M            :RES(FL)
TEMP.°F                  :TEMP
DEL_TEMP.°F              :DEL TEMP
SP_COND.µS/CM            :SP COND
CALIPER.INCH             :CALIPER
CCL.CPS                  :CCL
#------------------------------------------------------------
~PARAMETER INFORMATION
other3serv.              :other3serv
feet_or_meter.        F  :feet or meter
latitude.       31.8774  :latitude
mud_temp.            NA  :mud temp
res_mud_filtrate.        :res mud filtrate
elev_kb.             NA  :elev kb
log_meas_from.      LSD  :log meas from
sys_version.   3.6XH     :sys version
mud_res.             NA  :mud res
temp_gradient.        0  :temp gradient
file_type_id.    8144A   :file type id
township.            NA  :township
field_office. USGS - TXWSC  :field office
eng_units_or_cps.     E  :eng units or cps
time_circ_stopped.   NA  :time circ stopped
recorded_by.     THOMAS  :recorded by
field.          HOLLAND  :field
depth_driller.     1993  :depth driller
range.               NA  :range
mean_surface_temp.       :mean surface temp
casing_bottom.       NA  :casing bottom
casing_type.      STEEL  :casing type
tool_serial_num.     NA  :tool serial num
deltat_fluid.            :deltat fluid
longitude.     -97.4055  :longitude
RUN1.                    :RUN1
fluid_viscosity.         :fluid viscosity
RUN2.                    :RUN2
log_sample_int.     .10  :log sample int
bit_size.           8.5  :bit size
elect_cutoff.      9999  :elect cutoff
log_direction.        D  :log direction
elev_perm_datum.         :elev perm datum
county.            BELL  :county
RUN3.                    :RUN3
truck_cal_num. 0.5956    :truck cal num
mud_sample_source.   NA  :mud sample source
temp_mud_cake.           :temp mud cake
drl_meas_from.       NA  :drl meas from
RUN4.                    :RUN4
permanent_datum.    LSD  :permanent datum
Name_Prn_AP.             :Name Prn AP
casing_diameter.      6  :casing diameter
UNIQUE_WELL_ID.          :UNIQUE WELL ID
RUN5.                    :RUN5
company. CLEARWATER UWCD  :company
fluid_type.         H2O  :fluid type
neutron_matrix. LIMESTONE  :neutron matrix
fluid_ph.                :fluid ph
elev_df.             NA  :elev df
state.               TX  :state
RUN6.                    :RUN6
PROVINCE.                :PROVINCE
file_type.    ORIGINAL   :file type
sys_serial.    1         :sys serial
temp_mud_filtrate.       :temp mud filtrate
other1serv.          ZW  :other1serv
section.             NA  :section
logging_unit.       302  :logging unit
remarks1.                :remarks1
log_bottom.     1883.50  :log bottom
time.            10_11_  :time
density_matrix.    2.71  :density matrix
elev_gl.                 :elev gl
other2serv.          ZE  :other2serv
casing_thick.        NA  :casing thick
res_mud_cake.        NA  :res mud cake
log_top.              0  :log top
fluid_density.       NA  :fluid density
mag_declination.      0  :mag declination
delta_t_matrix.       9  :delta t matrix
remarks2.                :remarks2
#------------------------------------------------------------
~OTHER
#------------------------------------------------------------
~A  DEPT[FT]    GAM(NAT)     RES(FL)        TEMP    DEL TEMP     SP COND     CALIPER         CCL
# ...
     631.400     51.0204     1.84297     81.6102  0.00166321     5426.02     6.47939     61485.0
     631.500     51.0204     1.84646     81.6152  0.00500488     5415.76     6.50219     61325.0
     631.600     40.8163     1.84297     81.6169  0.00167084     5426.02     6.48940     61370.0
     631.700     5.10204     1.84297     81.6102  -0.00667572     5426.02     6.50886     61315.0
     631.800     25.5102     1.84646     81.6136  0.00333405     5415.76     6.51665     61320.0
     631.900     25.5102     1.84297     81.6169  0.00334167     5426.02     6.50238     61370.0
     632.000     35.7143     1.84646     81.6169    0.000000     5415.76     6.51220     61375.0
     632.100     40.8163     1.84297     81.6152  -0.00167084     5426.02     6.50330     61295.0
     632.200     20.4082     1.84646     81.6319   0.0166779     5415.76     6.49774     61405.0
     632.300     35.7143     1.84297     81.6219  -0.0100098     5426.02     6.50330     61445.0
     632.400     35.7143     1.84646     81.6202  -0.00166321     5415.76     6.50664     61280.0
     632.500     30.6122     1.81851     81.6302   0.0100021     5499.00     6.50441     61350.0
     632.600     30.6122     1.85345     81.6336  0.00334167     5395.34     6.51165     61415.0
     632.700     40.8163     1.84297     81.6369  0.00333405     5426.02     6.50163     61380.0
     632.800     5.10204     1.84297     81.6336  -0.00333405     5426.02     6.50163     61375.0
     632.900     20.4082     1.84646     81.6352  0.00166321     5415.76     6.49051     61345.0
     633.000     20.4082     1.84297     81.6386  0.00333405     5426.02     6.49162     61405.0
     633.100     45.9184     1.84646     81.6402  0.00167084     5415.76     6.49941     61315.0
     633.200     15.3061     1.84297     81.6436  0.00333405     5426.02     6.48828     61410.0
     633.300     25.5102     1.84297     81.6469  0.00333405     5426.02     6.49162     61390.0
     633.400     35.7143     1.84646     81.6502  0.00333405     5415.76     6.48550     61415.0
     633.500     20.4082     1.84297     81.6536  0.00334167     5426.02     6.50108     61345.0
     633.600     25.5102     1.84297     81.6553  0.00166321     5426.02     6.48995     61460.0
     633.700     40.8163     1.84646     81.6553    0.000000     5415.76     6.47939     61325.0
     633.800     25.5102     1.84297     81.6603  0.00500488     5426.02     6.49459     61245.0
     633.900     30.6122     1.84646     81.6619  0.00167084     5415.76     6.49496     61425.0
     634.000     56.1224     1.84297     81.6669  0.00499725     5426.02     6.48105     61315.0
     634.100     51.0204     1.84297     81.6703  0.00334167     5426.02     6.47215     61210.0
     634.200     20.4082     1.84646     81.6686  -0.00167084     5415.76     6.44323     61420.0
     634.300     30.6122     1.84297     81.6703  0.00167084     5426.02     6.43656     61325.0
     634.400     35.7143     1.84297     81.6753  0.00499725     5426.02     6.49051     61345.0
     634.500     35.7143     1.84996     81.6769  0.00167084     5405.53     6.48161     61385.0
     634.600     25.5102     1.84297     81.6786  0.00167084     5426.02     6.48606     61400.0
     634.700     10.2041     1.84646     81.6836  0.00500488     5415.76     6.46604     61280.0
     634.800     40.8163     1.84297     81.6819  -0.00167084     5426.02     6.51276     61280.0
     634.900     35.7143     1.84297     81.6869  0.00500488     5426.02     6.49273     61410.0
     635.000     34.0136     1.84646     81.6836  -0.00333405     5415.76     6.45046     61320.0
     635.100     15.3061     1.84297     81.6919  0.00833893     5426.02     6.49904     61323.3
     635.200     30.6122     1.84297     81.7003  0.00833893     5426.02     6.48828     61380.0
     635.300     30.6122     1.84646     81.6986  -0.00167084     5415.76     6.50219     61360.0
     635.400     15.3061     1.84297     81.7070  0.00833893     5426.02     6.48940     61330.0
     635.500     20.4082     1.84646     81.7086  0.00167084     5415.76     6.49607     61380.0
     635.600     40.8163     1.84297     81.7136  0.00499725     5426.02     6.49273     61280.0
     635.700     15.3061     1.84297     81.7203  0.00667572     5426.02     6.49718     61340.0
     635.800     45.9184     1.84646     81.7253  0.00500488     5415.76     6.49718     61370.0
     635.900     51.0204     1.84297     81.7220  -0.00334167     5426.02     6.51721     61285.0
     636.000     25.5102     1.84646     81.7253  0.00334167     5415.76     6.50163     61380.0
     636.100     10.2041     1.84413     81.7253    0.000000     5422.60     6.49885     61245.0
     636.200     35.7143     1.84297     81.7320  0.00666809     5426.02     6.50386     61365.0
     636.300     15.3061     1.84297     81.7347  0.00277710     5426.02     6.48439     61350.0
     636.400     30.6122     1.84646     81.7303  -0.00444794     5415.76     6.44156     61430.0
     636.500     20.4082     1.84297     81.7370  0.00667572     5426.02     6.44657     61075.0
     636.600     15.3061     1.83598     81.7336  -0.00333405     5446.68     6.48828     61395.0
     636.700     20.4082     1.84646     81.7386  0.00500488     5415.76     6.50831     61450.0
     636.800     15.3061     1.84297     81.7420  0.00333405     5426.02     6.49718     61326.7
     636.900     20.4082     1.84646     81.7437  0.00167084     5415.76     6.48217     61190.0
     637.000     25.5102     1.84413     81.7437    0.000000     5422.60     6.42432     61480.0
     637.100     20.4082     1.84297     81.7420  -0.00167084     5426.02     6.49162     61130.0
     637.200     30.6122     1.84297     81.7470  0.00500488     5426.02     6.45825     61395.0
     637.300     40.8163     1.84646     81.7470    0.000000     5415.76     6.46715     61350.0
     637.400     10.2041     1.84297     81.7437  -0.00333405     5426.02     6.46381     61340.0
     637.500     30.6122     1.84646     81.7486  0.00499725     5415.76     6.46047     61415.0
     637.600     20.4082     1.84297     81.7503  0.00167084     5426.02     6.45825     61275.0
     637.700     25.5102     1.84297     81.7537  0.00333405     5426.02     6.46437     61330.0
     637.800     20.4082     1.84646     81.7587  0.00500488     5415.76     6.44212     61405.0
     637.900     45.9184     1.84297     81.7587    0.000000     5426.02     6.42265     61410.0
     638.000     25.5102     1.84297     81.7587    0.000000     5426.02     6.45547     61300.0
     638.100     25.5102     1.83948     81.7603  0.00166321     5436.33     6.49218     61485.0
     638.200     30.6122     1.84297     81.7620  0.00167084     5426.02     6.47772     61180.0
     638.300     45.9184     1.84646     81.7620    0.000000     5415.76     6.48884     61380.0
     638.400     15.3061     1.84297     81.7637  0.00167084     5426.02     6.48773     61400.0
     638.500     51.0204     1.84297     81.7653  0.00166321     5426.02     6.47827     61140.0
     638.600     51.0204     1.84646     81.7737  0.00833893     5415.76     6.49941     61280.0
     638.700     51.0204     1.84413     81.7720  -0.00166321     5422.60     6.50942     61395.0
     638.800     25.5102     1.84297     81.7720    0.000000     5426.02     6.49663     61375.0
     638.900     40.8163     1.84646     81.7803  0.00833893     5415.76     6.48606     61385.0
     639.000     5.10204     1.84297     81.7803    0.000000     5426.02     6.48940     61305.0
     639.100     30.6122     1.84297     81.7820  0.00166321     5426.02     6.49941     61385.0
     639.200     10.2041     1.84646     81.7837  0.00167084     5415.76     6.48328     61400.0
     639.300     40.8163     1.84646     81.7920  0.00833893     5415.76     6.46659     61325.0
     639.400     30.6122     1.84297     81.7903  -0.00167084     5426.02     6.45158     61250.0
     639.500     20.4082     1.84646     81.7937  0.00333405     5415.76     6.46270     61400.0
     639.600    0.000000     1.84413     81.7970  0.00334167     5422.60     6.48050     61480.0
