#------------------------------------------------------------
~VERSION INFORMATION
VERS.               2.0  :CWLS LOG ASCII STANDARD - VERSION 2.0
WRAP.                NO  :ONE LINE PER DEPTH STEP
#------------------------------------------------------------
~WELL INFORMATION
STRT.FT        0.900000  :FIRST INDEX VALUE
STOP.FT         1874.90  :LAST INDEX VALUE
STEP.FT        0.100000  :STEP
NULL.            -99999  :NULL VALUE
COMP.                    :
WELL.                    :
FLD.                     :
LOC.                     :LOCATION
SRVC.              USGS  :SERVICE COMPANY
CTRY.                    :
STAT.                    :
CNTY.                    :
DATE.          11/22/16  :DATE
API.                     :
#------------------------------------------------------------
~CURVE INFORMATION
DEPT.FT                  :DEPTH
GAM(NAT).API             :GAM(NAT)
RES(FL).OHM-M            :RES(FL)
TEMP.°F                  :TEMP
DEL_TEMP.°F              :DEL TEMP
SP_COND.µS/CM            :SP COND
CALIPER.INCH             :CALIPER
CCL.CPS                  :CCL
#------------------------------------------------------------
~PARAMETER INFORMATION
other3serv.              :other3serv
feet_or_meter.        F  :feet or meter
latitude.       31.8774  :latitude
mud_temp.            NA  :mud temp
res_mud_filtrate.        :res mud filtrate
elev_kb.             NA  :elev kb
log_meas_from.      LSD  :log meas from
sys_version.   3.6XH     :sys version
mud_res.             NA  :mud res
temp_gradient.        0  :temp gradient
file_type_id.    8144A   :file type id
township.            NA  :township
field_office. USGS - TXWSC  :field office
eng_units_or_cps.     E  :eng units or cps
time_circ_stopped.   NA  :time circ stopped
recorded_by.     THOMAS  :recorded by
field.          HOLLAND  :field
depth_driller.     1993  :depth driller
range.               NA  :range
mean_surface_temp.       :mean surface temp
casing_bottom.       NA  :casing bottom
casing_type.      STEEL  :casing type
tool_serial_num.     NA  :tool serial num
deltat_fluid.            :deltat fluid
longitude.     -97.4055  :longitude
RUN1.                    :RUN1
fluid_viscosity.         :fluid viscosity
RUN2.                    :RUN2
log_sample_int.     .10  :log sample int
bit_size.           8.5  :bit size
elect_cutoff.      9999  :elect cutoff
log_direction.        D  :log direction
elev_perm_datum.         :elev perm datum
county.            BELL  :county
RUN3.                    :RUN3
truck_cal_num. 0.5956    :truck cal num
mud_sample_source.   NA  :mud sample source
temp_mud_cake.           :temp mud cake
drl_meas_from.       NA  :drl meas from
RUN4.                    :RUN4
permanent_datum.    LSD  :permanent datum
Name_Prn_AP.             :Name Prn AP
casing_diameter.      6  :casing diameter
UNIQUE_WELL_ID.          :UNIQUE WELL ID
RUN5.                    :RUN5
company. CLEARWATER UWCD  :company
fluid_type.         H2O  :fluid type
neutron_matrix. LIMESTONE  :neutron matrix
fluid_ph.                :fluid ph
elev_df.             NA  :elev df
state.               TX  :state
RUN6.                    :RUN6
PROVINCE.                :PROVINCE
file_type.    ORIGINAL   :file type
sys_serial.    1         :sys serial
temp_mud_filtrate.       :temp mud filtrate
other1serv.          ZW  :other1serv
section.             NA  :section
logging_unit.       302  :logging unit
remarks1.                :remarks1
log_bottom.     1883.50  :log bottom
time.            10_11_  :time
density_matrix.    2.71  :density matrix
elev_gl.                 :elev gl
other2serv.          ZE  :other2serv
casing_thick.        NA  :casing thick
res_mud_cake.        NA  :res mud cake
log_top.              0  :log top
fluid_density.       NA  :fluid density
mag_declination.      0  :mag declination
delta_t_matrix.       9  :delta t matrix
remarks2.                :remarks2
#------------------------------------------------------------
~OTHER
#------------------------------------------------------------
~A  DEPT[FT]    GAM(NAT)     RES(FL)        TEMP    DEL TEMP     SP COND     CALIPER         CCL
# ...
     9.20000     38.2653    -99999.0     84.2804  -0.00389862    -99999.0     6.49941     61320.0
     9.30000     30.6122    -99999.0     84.2798  -0.000556946    -99999.0     6.52054     61379.9
     9.40000     37.4150    -99999.0     84.2687  -0.0111160    -99999.0     6.50441     61469.9
     9.50000     40.8163    -99999.0     84.2671  -0.00167084    -99999.0     6.53000     61380.1
     9.60000     35.7143    -99999.0     84.2565  -0.0105591    -99999.0     6.49125     61215.2
     9.70000     13.6054    -99999.0     84.2596  0.00305939    -99999.0     6.46103     61689.5
     9.80000     22.9592    -99999.0     84.2554  -0.00417328    -99999.0     6.47994     61100.7
     9.90000     12.7551    -99999.0     84.2504  -0.00500488    -99999.0     6.48272     61070.0
     10.0000     13.6054    -99999.0     84.2476  -0.00277710    -99999.0     6.55206     61654.3
     10.1000     30.6122    -99999.0     84.2470  -0.000556946    -99999.0     6.54279     60925.8
     10.2000     30.6122    -99999.0     84.2432  -0.00389099    -99999.0     6.54891     60930.0
     10.3000     30.6122    -99999.0     84.2370  -0.00611877    -99999.0     6.52944     61862.3
     10.4000     17.8571    -99999.0     84.2387  0.00167084    -99999.0     6.48940     61685.2
     10.5000     37.4150    -99999.0     84.2337  -0.00500488    -99999.0     6.49051     60960.8
     10.6000     44.2177    -99999.0     84.2320  -0.00166321    -99999.0     6.50608     60720.3
     10.7000     13.6054    -99999.0     84.2254  -0.00667572    -99999.0     6.49941     61653.9
     10.8000     20.4082    -99999.0     84.2229  -0.00250244    -99999.0     6.52166     60661.1
     10.9000     20.4082    -99999.0     84.2212  -0.00166321    -99999.0     6.49440     62194.9
     11.0000     30.6122    -99999.0     84.2220  0.000831604    -99999.0     6.51721     61625.7
     11.1000     10.2041    -99999.0     84.2129  -0.00917053    -99999.0     6.47012     60840.9
     11.2000     17.0068    -99999.0     84.2129    0.000000    -99999.0     6.36314     60375.5
     11.3000     20.4082    -99999.0     84.2109  -0.00194550    -99999.0     6.38483     61753.4
     11.4000    0.000000    -99999.0     84.2079  -0.00305939    -99999.0     6.41431     62963.6
     11.5000     17.0068    -99999.0     84.2045  -0.00333405    -99999.0     6.40096     60952.3
     11.6000     20.4082    -99999.0     84.2009  -0.00361633    -99999.0     6.46233     60495.5
     11.7000     13.6054    -99999.0     84.1995  -0.00138855    -99999.0     6.48328     61998.3
     11.8000     25.5102    -99999.0     84.1965  -0.00305939    -99999.0     6.52166     61740.3
     11.9000     15.3061    -99999.0     84.1987  0.00222778    -99999.0     6.50775     60441.5
     12.0000     10.2041    -99999.0     84.1976  -0.00111389    -99999.0     6.49440     60123.7
     12.1000     5.10204    -99999.0     84.1931  -0.00444794    -99999.0     6.41338     65014.4
     12.2000     10.2041    -99999.0     84.1920  -0.00111389    -99999.0     6.58673     63052.3
     12.3000     3.40136    -99999.0     84.1942  0.00222778    -99999.0     6.69130     57970.8
     12.4000     5.10204    -99999.0     84.1870  -0.00722504    -99999.0     6.32754     59758.0
     12.5000     30.6122    -99999.0     84.1876  0.000549316    -99999.0     6.06965     62407.0
     12.6000     17.0068    -99999.0     84.1798  -0.00778198    -99999.0     6.16291     61531.0
     12.7000     10.2041    -99999.0     84.1803  0.000556946    -99999.0     6.18627     61473.4
     12.8000     23.8095    -99999.0     84.1809  0.000556946    -99999.0     6.09282     61335.2
     12.9000     25.5102    -99999.0     84.1720  -0.00889587    -99999.0     6.06390     61200.2
     13.0000     25.5102    -99999.0     84.1742  0.00222778    -99999.0     6.09950     61225.0
     13.1000     27.2109    -99999.0     84.1737  -0.000564575    -99999.0     6.05667     61215.0
     13.2000     20.4082    -99999.0     84.1670  -0.00666809    -99999.0     6.09839     61453.1
     13.3000     15.3061    -99999.0     84.1664  -0.000556946    -99999.0     6.19350     61789.6
     13.4000     20.4082    -99999.0     84.1687  0.00222778    -99999.0     6.21853     61030.9
     13.5000     5.10204    -99999.0     84.1653  -0.00334167    -99999.0     6.19739     61189.8
     13.6000     10.2041    -99999.0     84.1653    0.000000    -99999.0     6.15456     61299.9
     13.7000     20.4082    -99999.0     84.1587  -0.00666809    -99999.0     6.10117     61534.7
     13.8000     15.3061    -99999.0     84.1570  -0.00167084    -99999.0     6.16402     61130.5
     13.9000     10.2041    -99999.0     84.1564  -0.000556946    -99999.0     6.20240     61130.0
     14.0000     37.4150    -99999.0     84.1587  0.00222778    -99999.0     6.11897     61799.2
     14.1000     15.3061    -99999.0     84.1509  -0.00778198    -99999.0     6.12341     61445.4
     14.2000     61.2245    -99999.0     84.1520  0.00111389    -99999.0     6.14529     61165.3
     14.3000     10.2041    -99999.0     84.1503  -0.00167084    -99999.0     6.20462     61609.5
     14.4000     13.6054    -99999.0     84.1520  0.00167084    -99999.0     6.22743     61210.5
     14.5000     25.5102    -99999.0     84.1420  -0.0100098    -99999.0     6.18960     61190.0
     14.6000     15.3061    -99999.0     84.1486  0.00666809    -99999.0     6.20295     61225.0
     14.7000     15.3061    -99999.0     84.1253  -0.0233459    -99999.0     6.20796     61474.7
     14.8000     17.0068    -99999.0     84.1386   0.0133438    -99999.0     6.26970     61335.2
     14.9000     5.10204    -99999.0     84.1403  0.00166321    -99999.0     6.23132     61330.0
     15.0000     20.4082    -99999.0     84.1375  -0.00277710    -99999.0     6.20462     61424.9
     15.1000     30.6122    -99999.0     84.1353  -0.00222015    -99999.0     6.22409     61619.8
     15.2000     17.0068    -99999.0     84.1270  -0.00833893    -99999.0     6.30659     61290.4
     15.3000     5.10204    -99999.0     84.1275  0.000556946    -99999.0     6.25913     61160.1
     15.4000     15.3061    -99999.0     84.1286  0.00110626    -99999.0     6.22242     61424.7
     15.5000     27.2109    -99999.0     84.1220  -0.00666809    -99999.0     6.26525     61569.8
     15.6000     5.10204    -99999.0     84.1236  0.00167084    -99999.0     6.22075     61585.0
     15.7000     10.2041    -99999.0     84.1242  0.000556946    -99999.0     6.16420     60761.0
     15.8000     15.3061    -99999.0     84.1236  -0.000556946    -99999.0     6.15067     61768.8
     15.9000     25.5102    -99999.0     84.1186  -0.00501251    -99999.0     6.12508     61625.2
     16.0000     30.6122    -99999.0     84.1203  0.00167084    -99999.0     6.18070     61130.6
     16.1000     25.5102    -99999.0     84.1208  0.000556946    -99999.0     6.11452     61889.1
     16.2000     15.3061    -99999.0     84.1186  -0.00222778    -99999.0     6.14399     61021.0
     16.3000     3.40136    -99999.0     84.1136  -0.00499725    -99999.0     6.15011     60830.2
     16.4000     10.2041    -99999.0     84.1136    0.000000    -99999.0     6.15901     61634.1
     16.5000     35.7143    -99999.0     84.1097  -0.00389099    -99999.0     6.10784     61894.7
     16.6000     10.2041    -99999.0     84.1069  -0.00278473    -99999.0     6.05445     60996.0
     16.7000     25.5102    -99999.0     84.1036  -0.00333405    -99999.0     6.06724     61399.5
     16.8000     10.2041    -99999.0     84.1008  -0.00277710    -99999.0     6.06056     61784.6
     16.9000     17.0068    -99999.0     84.1019  0.00110626    -99999.0     6.03924     60276.8
     17.0000     15.3061    -99999.0     84.1042  0.00222778    -99999.0     6.10172     61255.5
     17.1000     25.5102    -99999.0     84.0953  -0.00889587    -99999.0     6.15011     62164.0
     17.2000     5.10204    -99999.0     84.0969  0.00167084    -99999.0     6.23799     60796.6
     17.3000     23.8095    -99999.0     84.0953  -0.00167084    -99999.0     6.28082     61424.3
