#------------------------------------------------------------
~VERSION INFORMATION
VERS.               2.0  :CWLS LOG ASCII STANDARD - VERSION 2.0
WRAP.                NO  :ONE LINE PER DEPTH STEP
#------------------------------------------------------------
~WELL INFORMATION
STRT.FT        0.900000  :FIRST INDEX VALUE
STOP.FT         1874.90  :LAST INDEX VALUE
STEP.FT        0.100000  :STEP
NULL.            -99999  :NULL VALUE
COMP.                    :
WELL.                    :
FLD.                     :
LOC.                     :LOCATION
SRVC.              USGS  :SERVICE COMPANY
CTRY.                    :
STAT.                    :
CNTY.                    :
DATE.          11/22/16  :DATE
API.                     :
#------------------------------------------------------------
~CURVE INFORMATION
DEPT.FT                  :DEPTH
GAM(NAT).API             :GAM(NAT)
RES(FL).OHM-M            :RES(FL)
TEMP.°F                  :TEMP
DEL_TEMP.°F              :DEL TEMP
SP_COND.µS/CM            :SP COND
CALIPER.INCH             :CALIPER
CCL.CPS                  :CCL
#------------------------------------------------------------
~PARAMETER INFORMATION
other3serv.              :other3serv
feet_or_meter.        F  :feet or meter
latitude.       31.8774  :latitude
mud_temp.            NA  :mud temp
res_mud_filtrate.        :res mud filtrate
elev_kb.             NA  :elev kb
log_meas_from.      LSD  :log meas from
sys_version.   3.6XH     :sys version
mud_res.             NA  :mud res
temp_gradient.        0  :temp gradient
file_type_id.    8144A   :file type id
township.            NA  :township
field_office. USGS - TXWSC  :field office
eng_units_or_cps.     E  :eng units or cps
time_circ_stopped.   NA  :time circ stopped
recorded_by.     THOMAS  :recorded by
field.          HOLLAND  :field
depth_driller.     1993  :depth driller
range.               NA  :range
mean_surface_temp.       :mean surface temp
casing_bottom.       NA  :casing bottom
casing_type.      STEEL  :casing type
tool_serial_num.     NA  :tool serial num
deltat_fluid.            :deltat fluid
longitude.     -97.4055  :longitude
RUN1.                    :RUN1
fluid_viscosity.         :fluid viscosity
RUN2.                    :RUN2
log_sample_int.     .10  :log sample int
bit_size.           8.5  :bit size
elect_cutoff.      9999  :elect cutoff
log_direction.        D  :log direction
elev_perm_datum.         :elev perm datum
county.            BELL  :county
RUN3.                    :RUN3
truck_cal_num. 0.5956    :truck cal num
mud_sample_source.   NA  :mud sample source
temp_mud_cake.           :temp mud cake
drl_meas_from.       NA  :drl meas from
RUN4.                    :RUN4
permanent_datum.    LSD  :permanent datum
Name_Prn_AP.             :Name Prn AP
casing_diameter.      6  :casing diameter
UNIQUE_WELL_ID.          :UNIQUE WELL ID
RUN5.                    :RUN5
company. CLEARWATER UWCD  :company
fluid_type.         H2O  :fluid type
neutron_matrix. LIMESTONE  :neutron matrix
fluid_ph.                :fluid ph
elev_df.             NA  :elev df
state.               TX  :state
RUN6.                    :RUN6
PROVINCE.                :PROVINCE
file_type.    ORIGINAL   :file type
sys_serial.    1         :sys serial
temp_mud_filtrate.       :temp mud filtrate
other1serv.          ZW  :other1serv
section.             NA  :section
logging_unit.       302  :logging unit
remarks1.                :remarks1
log_bottom.     1883.50  :log bottom
time.            10_11_  :time
density_matrix.    2.71  :density matrix
elev_gl.                 :elev gl
other2serv.          ZE  :other2serv
casing_thick.        NA  :casing thick
res_mud_cake.        NA  :res mud cake
log_top.              0  :log top
fluid_density.       NA  :fluid density
mag_declination.      0  :mag declination
delta_t_matrix.       9  :delta t matrix
remarks2.                :remarks2
#------------------------------------------------------------
~OTHER
#------------------------------------------------------------
~A  DEPT[FT]    GAM(NAT)     RES(FL)        TEMP    DEL TEMP     SP COND     CALIPER         CCL
# ...
     755.900     20.4082     1.84297     84.6824  0.00500488     5426.02     6.44546     61255.0
     756.000     30.6122     1.84646     84.6846  0.00222778     5415.76     6.41097     61340.0
     756.100     34.0136     1.84297     84.6907  0.00611115     5426.02     6.38984     61370.0
     756.200     40.8163     1.84413     84.6890  -0.00166321     5422.60     6.38427     61260.0
     756.300     30.6122     1.84646     84.6940  0.00499725     5415.76     6.40986     61265.0
     756.400     30.6122     1.84413     84.6946  0.000556946     5422.60     6.42488     61290.0
     756.500     51.0204     1.84646     84.6957  0.00111389     5415.76     6.41153     61580.0
     756.600     51.0204     1.84297     84.6946  -0.00111389     5426.02     6.41042     61470.0
     756.700     57.8231     1.84413     84.7007  0.00611877     5422.60     6.37593     61125.0
     756.800     81.6327     1.84646     84.7024  0.00166321     5415.76     6.42988     61150.0
     756.900     27.2109     1.84297     84.7013  -0.00110626     5426.02     6.37871     61385.0
     757.000     30.6122     1.83715     84.7007  -0.000556946     5443.22     6.40930     61365.0
     757.100     57.8231     1.84297     84.7074  0.00666809     5426.02     6.40096     61510.0
     757.200     15.3061     1.84646     84.7079  0.000556946     5415.76     6.45602     61410.0
     757.300     47.6190     1.84297     84.7124  0.00444794     5426.02     6.44268     61385.0
     757.400     40.8163     1.84646     84.7124    0.000000     5415.76     6.44101     61325.0
     757.500     56.1224     1.84413     84.7190  0.00666809     5422.60     6.45825     61390.0
     757.600     51.0204     1.84297     84.7157  -0.00333405     5426.02     6.45992     61220.0
     757.700     25.5102     1.84646     84.7224  0.00667572     5415.76     6.43823     61390.0
     757.800     34.0136     1.84413     84.7240  0.00166321     5422.60     6.44546     61615.0
     757.900     25.5102     1.84646     84.7341   0.0100098     5415.76     6.45936     61225.0
     758.000     40.8163     1.84413     84.7346  0.000556946     5422.60     6.42098     61280.0
     758.100     15.3061     1.84297     84.7357  0.00110626     5426.02     6.45436     61420.0
     758.200     5.10204     1.84646     84.7368  0.00111389     5415.76     6.45046     61295.0
     758.300     37.4150     1.84297     84.7457  0.00889587     5426.02     6.44212     61190.0
     758.400     35.7143     1.84646     84.7446  -0.00111389     5415.76     6.40207     61390.0
     758.500     51.0204     1.84297     84.7457  0.00111389     5426.02     6.40263     61440.0
     758.600     30.6122     1.84646     84.7491  0.00333405     5415.76     6.39262     61390.0
     758.700     45.9184     1.84646     84.7541  0.00500488     5415.76     6.38761     61440.0
     758.800     34.0136     1.84297     84.7574  0.00333405     5426.02     6.37649     61335.0
     758.900     10.2041     1.84646     84.7613  0.00389099     5415.76     6.40040     61220.0
     759.000     20.4082     1.84297     84.7624  0.00111389     5426.02     6.45658     61425.0
     759.100     40.8163     1.84413     84.7646  0.00222778     5422.60     6.43934     61245.0
     759.200     15.3061     1.84646     84.7724  0.00778198     5415.76     6.43600     61230.0
     759.300     51.0204     1.84646     84.7735  0.00110626     5415.76     6.46937     61485.0
     759.400     45.9184     1.84413     84.7741  0.000556946     5422.60     6.44268     61425.0
     759.500     35.7143     1.84297     84.7774  0.00334167     5426.02     6.45436     61315.0
     759.600     78.2313     1.84646     84.7824  0.00499725     5415.76     6.48995     61430.0
     759.700     25.5102     1.84297     84.7791  -0.00333405     5426.02     6.46159     61395.0
     759.800     40.8163     1.84646     84.7835  0.00444794     5415.76     6.44824     61260.0
     759.900     20.4082     1.84413     84.7858  0.00222778     5422.60     6.42543     61265.0
     760.000     40.8163     1.84297     84.7924  0.00666809     5426.02     6.44935     61440.0
     760.100     30.6122     1.84646     84.7902  -0.00222778     5415.76     6.43878     61405.0
     760.200     45.9184     1.84297     84.7991  0.00889587     5426.02     6.43489     61415.0
     760.300     34.0136     1.83948     84.8013  0.00222778     5436.33     6.39095     61375.0
     760.400     25.5102     1.84413     84.8008  -0.000556946     5422.60     6.45046     61135.0
     760.500     44.2177     1.84646     84.8058  0.00500488     5415.76     6.41765     61385.0
     760.600     30.6122     1.84297     84.8113  0.00556183     5426.02     6.39595     61405.0
     760.700     61.2245     1.84413     84.8124  0.00110626     5422.60     6.44546     61430.0
     760.800     30.6122     1.84646     84.8124    0.000000     5415.76     6.42154     61350.0
     760.900     37.4150     1.84413     84.8180  0.00556183     5422.60     6.45213     61350.0
     761.000     45.9184     1.84646     84.8191  0.00110626     5415.76     6.44490     61300.0
     761.100     51.0204     1.84297     84.8191    0.000000     5426.02     6.43266     61270.0
     761.200     27.2109     1.84413     84.8224  0.00334167     5422.60     6.43711     61210.0
     761.300     25.5102     1.84646     84.8224    0.000000     5415.76     6.38928     61320.0
     761.400     44.2177     1.84413     84.8302  0.00778198     5422.60     6.40652     61430.0
     761.500     20.4082     1.84646     84.8275  -0.00277710     5415.76     6.36481     61440.0
     761.600     30.6122     1.84413     84.8347  0.00722504     5422.60     6.40430     61345.0
     761.700     27.2109     1.84646     84.8341  -0.000556946     5415.76     6.39206     61425.0
     761.800     61.2245     1.84413     84.8358  0.00167084     5422.60     6.41820     61335.0
     761.900     45.9184     1.84297     84.8441  0.00833893     5426.02     6.42043     61280.0
     762.000     34.0136     1.84646     84.8414  -0.00277710     5415.76     6.40819     61380.0
     762.100     20.4082     1.84297     84.8475  0.00611115     5426.02     6.40764     61460.0
     762.200     25.5102     1.84646     84.8491  0.00166321     5415.76     6.39039     61390.0
     762.300     17.0068     1.84413     84.8475  -0.00166321     5422.60     6.38817     61340.0
     762.400     51.0204     1.84297     84.8541  0.00666809     5426.02     6.43433     61385.0
     762.500     44.2177     1.84646     84.8514  -0.00277710     5415.76     6.42877     61250.0
     762.600     15.3061     1.84297     84.8541  0.00277710     5426.02     6.44212     61355.0
     762.700     15.3061     1.84646     84.8603  0.00611877     5415.76     6.44379     61405.0
     762.800     30.6122     1.84413     84.8625  0.00222015     5422.60     6.46326     61360.0
     762.900     30.6122     1.84646     84.8675  0.00500488     5415.76     6.45992     61385.0
     763.000     40.8163     1.84297     84.8647  -0.00277710     5426.02     6.46492     61390.0
     763.100     45.9184     1.84413     84.8758   0.0111160     5422.60     6.43545     61430.0
     763.200     23.8095     1.84996     84.8758    0.000000     5405.53     6.42098     61455.0
     763.300     10.2041     1.84297     84.8803  0.00444794     5426.02     6.45881     61385.0
     763.400     34.0136     1.84646     84.8825  0.00222015     5415.76     6.41932     61310.0
     763.500     45.9184     1.84297     84.8875  0.00501251     5426.02     6.40319     61375.0
     763.600     20.4082     1.84413     84.8892  0.00166321     5422.60     6.41487     61420.0
     763.700     30.6122     1.84646     84.8942  0.00500488     5415.76     6.41042     61340.0
     763.800     20.4082     1.84646     84.8936  -0.000556946     5415.76     6.37371     61360.0
     763.900     37.4150     1.84413     84.8958  0.00222778     5422.60     6.38650     61380.0
     764.000     56.1224     1.84297     84.8958    0.000000     5426.02     6.40541     61485.0
     764.100     34.0136     1.84646     84.9025  0.00666809     5415.76     6.37982     61250.0
