#------------------------------------------------------------
~VERSION INFORMATION
VERS.               2.0  :CWLS LOG ASCII STANDARD - VERSION 2.0
WRAP.                NO  :ONE LINE PER DEPTH STEP
#------------------------------------------------------------
~WELL INFORMATION
STRT.FT        0.900000  :FIRST INDEX VALUE
STOP.FT         1874.90  :LAST INDEX VALUE
STEP.FT        0.100000  :STEP
NULL.            -99999  :NULL VALUE
COMP.                    :
WELL.                    :
FLD.                     :
LOC.                     :LOCATION
SRVC.              USGS  :SERVICE COMPANY
CTRY.                    :
STAT.                    :
CNTY.                    :
DATE.          11/22/16  :DATE
API.                     :
#------------------------------------------------------------
~CURVE INFORMATION
DEPT.FT                  :DEPTH
GAM(NAT).API             :GAM(NAT)
RES(FL).OHM-M            :RES(FL)
TEMP.°F                  :TEMP
DEL_TEMP.°F              :DEL TEMP
SP_COND.µS/CM            :SP COND
CALIPER.INCH             :CALIPER
CCL.CPS                  :CCL
#------------------------------------------------------------
~PARAMETER INFORMATION
other3serv.              :other3serv
feet_or_meter.        F  :feet or meter
latitude.       31.8774  :latitude
mud_temp.            NA  :mud temp
res_mud_filtrate.        :res mud filtrate
elev_kb.             NA  :elev kb
log_meas_from.      LSD  :log meas from
sys_version.   3.6XH     :sys version
mud_res.             NA  :mud res
temp_gradient.        0  :temp gradient
file_type_id.    8144A   :file type id
township.            NA  :township
field_office. USGS - TXWSC  :field office
eng_units_or_cps.     E  :eng units or cps
time_circ_stopped.   NA  :time circ stopped
recorded_by.     THOMAS  :recorded by
field.          HOLLAND  :field
depth_driller.     1993  :depth driller
range.               NA  :range
mean_surface_temp.       :mean surface temp
casing_bottom.       NA  :casing bottom
casing_type.      STEEL  :casing type
tool_serial_num.     NA  :tool serial num
deltat_fluid.            :deltat fluid
longitude.     -97.4055  :longitude
RUN1.                    :RUN1
fluid_viscosity.         :fluid viscosity
RUN2.                    :RUN2
log_sample_int.     .10  :log sample int
bit_size.           8.5  :bit size
elect_cutoff.      9999  :elect cutoff
log_direction.        D  :log direction
elev_perm_datum.         :elev perm datum
county.            BELL  :county
RUN3.                    :RUN3
truck_cal_num. 0.5956    :truck cal num
mud_sample_source.   NA  :mud sample source
temp_mud_cake.           :temp mud cake
drl_meas_from.       NA  :drl meas from
RUN4.                    :RUN4
permanent_datum.    LSD  :permanent datum
Name_Prn_AP.             :Name Prn AP
casing_diameter.      6  :casing diameter
UNIQUE_WELL_ID.          :UNIQUE WELL ID
RUN5.                    :RUN5
company. CLEARWATER UWCD  :company
fluid_type.         H2O  :fluid type
neutron_matrix. LIMESTONE  :neutron matrix
fluid_ph.                :fluid ph
elev_df.             NA  :elev df
state.               TX  :state
RUN6.                    :RUN6
PROVINCE.                :PROVINCE
file_type.    ORIGINAL   :file type
sys_serial.    1         :sys serial
temp_mud_filtrate.       :temp mud filtrate
other1serv.          ZW  :other1serv
section.             NA  :section
logging_unit.       302  :logging unit
remarks1.                :remarks1
log_bottom.     1883.50  :log bottom
time.            10_11_  :time
density_matrix.    2.71  :density matrix
elev_gl.                 :elev gl
other2serv.          ZE  :other2serv
casing_thick.        NA  :casing thick
res_mud_cake.        NA  :res mud cake
log_top.              0  :log top
fluid_density.       NA  :fluid density
mag_declination.      0  :mag declination
delta_t_matrix.       9  :delta t matrix
remarks2.                :remarks2
#------------------------------------------------------------
~OTHER
#------------------------------------------------------------
~A  DEPT[FT]    GAM(NAT)     RES(FL)        TEMP    DEL TEMP     SP COND     CALIPER         CCL
# ...
     1121.00     35.7143     1.84646     90.4235  0.00425720     5415.76     6.23354     61435.0
     1121.10     56.1224     1.84646     90.4203  -0.00318909     5415.76     6.31975     61545.0
     1121.20     30.6122     1.84646     90.4235  0.00318909     5415.76     6.29862     61310.0
     1121.30     40.8163     1.84181     90.4235    0.000000     5429.46     6.31197     61320.0
     1121.40     30.6122     1.82201     90.4235    0.000000     5488.45     6.33533     61180.0
     1121.50     40.8163     1.84646     90.4267  0.00320435     5415.76     6.23855     61345.0
     1121.60     35.7143     1.84646     90.4235  -0.00320435     5415.76     6.33477     61530.0
     1121.70     10.2041     1.84646     90.4331  0.00959778     5415.76     6.29473     61170.0
     1121.80     25.5102     1.84646     90.4315  -0.00160217     5415.76     6.30418     61155.0
     1121.90     30.6122     1.84646     90.4347  0.00319672     5415.76     6.27415     61480.0
     1122.00     51.0204     1.84646     90.4373  0.00266266     5415.76     6.34256     61425.0
     1122.10     25.5102     1.84646     90.4347  -0.00266266     5415.76     6.23688     61295.0
     1122.20     45.9184     1.84646     90.4427  0.00798798     5415.76     6.23577     61610.0
     1122.30     76.5306     1.84646     90.4379  -0.00479126     5415.76     6.26358     61305.0
     1122.40     51.0204     1.84996     90.4411  0.00319672     5405.53     6.21908     61045.0
     1122.50     40.8163     1.84646     90.4427  0.00159454     5415.76     6.22409     61805.0
     1122.60     61.2245     1.83249     90.4459  0.00319672     5457.06     6.30919     61485.0
     1122.70     51.0204     1.84646     90.4459    0.000000     5415.76     6.35591     61070.0
     1122.80     61.2245     1.84646     90.4475  0.00159454     5415.76     6.18793     61575.0
     1122.90     30.6122     1.84646     90.4475    0.000000     5415.76     6.23688     61095.0
     1123.00     25.5102     1.84646     90.4491  0.00160217     5415.76     6.34645     61110.0
     1123.10     20.4082     1.84646     90.4538  0.00479126     5415.76     6.29250     61395.0
     1123.20     30.6122     1.84646     90.4544  0.000534058     5415.76     6.28694     61490.0
     1123.30     45.9184     1.84646     90.4555  0.00106812     5415.76     6.24912     61325.0
     1123.40     27.2109     1.84646     90.4555    0.000000     5415.76     6.31308     61335.0
     1123.50     10.2041     1.84646     90.4507  -0.00479126     5415.76     6.34478     61410.0
     1123.60     40.8163     1.84646     90.4586  0.00798798     5415.76     6.33644     61300.0
     1123.70     45.9184     1.84646     90.4602  0.00159454     5415.76     6.34478     61345.0
     1123.80     45.9184     1.84646     90.4618  0.00160217     5415.76     6.35368     61365.0
     1123.90     64.6258     1.84646     90.4586  -0.00319672     5415.76     6.33867     61260.0
     1124.00     45.9184     1.84646     90.4618  0.00319672     5415.76     6.34423     61650.0
     1124.10     35.7143     1.84646     90.4693  0.00745392     5415.76     6.28638     61615.0
     1124.20     20.4082     1.84646     90.4746  0.00532532     5415.76     6.34033     60710.0
     1124.30     40.8163     1.84646     90.4698  -0.00479126     5415.76     6.27693     61105.0
     1124.40     71.4286     1.84646     90.4746  0.00479126     5415.76     6.25245     61855.0
     1124.50     27.2109     1.84646     90.4778  0.00320435     5415.76     6.35480     61385.0
     1124.60     35.7143     1.84646     90.4778    0.000000     5415.76     6.35035     61195.0
     1124.70     15.3061     1.84646     90.4789  0.00105286     5415.76     6.34923     61480.0
     1124.80     35.7143     1.84646     90.4794  0.000541687     5415.76     6.34200     61375.0
     1124.90     40.8163     1.83598     90.4826  0.00319672     5446.68     6.29417     61270.0
     1125.00     35.7143     1.84646     90.4874  0.00479126     5415.76     6.21074     61405.0
     1125.10     15.3061     1.84646     90.4826  -0.00479126     5415.76     6.26413     61315.0
     1125.20     20.4082     1.84646     90.4895  0.00692749     5415.76     6.34256     61370.0
     1125.30     54.4218     1.84646     90.4906  0.00106049     5415.76     6.31030     61345.0
     1125.40     15.3061     1.84646     90.4938  0.00319672     5415.76     6.20128     61410.0
     1125.50     20.4082     1.84646     90.4986  0.00479126     5415.76     6.20740     61355.0
     1125.60     45.9184     1.84879     90.4986    0.000000     5408.93     6.23076     61405.0
     1125.70     25.5102     1.84646     90.5018  0.00320435     5415.76     6.27971     61370.0
     1125.80     25.5102     1.84646     90.4981  -0.00373840     5415.76     6.28805     61360.0
     1125.90     10.2041     1.84646     90.5002  0.00213623     5415.76     6.20796     61270.0
     1126.00     23.8095     1.84646     90.5050  0.00479126     5415.76     6.17292     61365.0
     1126.10     5.10204     1.84646     90.5098  0.00479126     5415.76     6.23911     61575.0
     1126.20     15.3061     1.83948     90.5050  -0.00479126     5436.33     6.34812     61390.0
     1126.30     20.4082     1.84646     90.5098  0.00479126     5415.76     6.27581     61110.0
     1126.40     20.4082     1.84646     90.5034  -0.00638580     5415.76     6.31642     61425.0
     1126.50     23.8095     1.84646     90.5162   0.0127792     5415.76     6.34145     61460.0
     1126.60     30.6122     1.84646     90.5140  -0.00212860     5415.76     6.22520     61275.0
     1126.70     45.9184     1.84646     90.5114  -0.00266266     5415.76     6.34534     61305.0
     1126.80     10.2041     1.84646     90.5194  0.00799561     5415.76     6.32921     61325.0
     1126.90     25.5102     1.84646     90.5114  -0.00799561     5415.76     6.28471     61365.0
     1127.00     34.0136     1.84646     90.5226   0.0111847     5415.76     6.32031     61380.0
     1127.10     30.6122     1.84646     90.5210  -0.00158691     5415.76     6.34145     61215.0
     1127.20     20.4082     1.84646     90.5210    0.000000     5415.76     6.34033     61380.0
     1127.30     25.5102     1.84297     90.5215  0.000526428     5426.02     6.34200     61485.0
     1127.40     30.6122     1.84646     90.5226  0.00106049     5415.76     6.29361     61220.0
     1127.50     37.4150     1.84646     90.5210  -0.00158691     5415.76     6.32031     61390.0
     1127.60     25.5102     1.85345     90.5242  0.00318909     5395.34     6.27581     61485.0
     1127.70     40.8163     1.84646     90.5274  0.00319672     5415.76     6.31531     61135.0
     1127.80     35.7143     1.84646     90.5268  -0.000534058     5415.76     6.32142     61310.0
     1127.90     51.0204     1.84646     90.5322  0.00533295     5415.76     6.35646     61525.0
     1128.00     30.6122     1.84646     90.5338  0.00158691     5415.76     6.33922     61400.0
     1128.10     25.5102     1.83948     90.5322  -0.00158691     5436.33     6.33867     61260.0
     1128.20     47.6190     1.84646     90.5322    0.000000     5415.76     6.34033     61440.0
     1128.30     10.2041     1.84646     90.5386  0.00639343     5415.76     6.30919     61285.0
     1128.40     5.10204     1.84646     90.5401  0.00158691     5415.76     6.30084     61305.0
     1128.50     20.4082     1.84646     90.5417  0.00160217     5415.76     6.28471     61490.0
     1128.60     40.8163     1.84646     90.5386  -0.00318909     5415.76     6.33867     61345.0
     1128.70     40.8163     1.84646     90.5449  0.00638580     5415.76     6.34200     61220.0
     1128.80    0.000000     1.84646     90.5471  0.00212860     5415.76     6.29918     61360.0
     1128.90     23.8095     1.84646     90.5529  0.00585938     5415.76     6.29306     61370.0
     1129.00     10.2041     1.84646     90.5545  0.00160217     5415.76     6.32476     61445.0
     1129.10     20.4082     1.84646     90.5577  0.00319672     5415.76     6.31642     61200.0
     1129.20     10.2041     1.84646     90.5593  0.00159454     5415.76     6.22687     61310.0
