#------------------------------------------------------------
~VERSION INFORMATION
VERS.               2.0  :CWLS LOG ASCII STANDARD - VERSION 2.0
WRAP.                NO  :ONE LINE PER DEPTH STEP
#------------------------------------------------------------
~WELL INFORMATION
STRT.FT        0.900000  :FIRST INDEX VALUE
STOP.FT         1874.90  :LAST INDEX VALUE
STEP.FT        0.100000  :STEP
NULL.            -99999  :NULL VALUE
COMP.                    :
WELL.                    :
FLD.                     :
LOC.                     :LOCATION
SRVC.              USGS  :SERVICE COMPANY
CTRY.                    :
STAT.                    :
CNTY.                    :
DATE.          11/22/16  :DATE
API.                     :
#------------------------------------------------------------
~CURVE INFORMATION
DEPT.FT                  :DEPTH
GAM(NAT).API             :GAM(NAT)
RES(FL).OHM-M            :RES(FL)
TEMP.°F                  :TEMP
DEL_TEMP.°F              :DEL TEMP
SP_COND.µS/CM            :SP COND
CALIPER.INCH             :CALIPER
CCL.CPS                  :CCL
#------------------------------------------------------------
~PARAMETER INFORMATION
other3serv.              :other3serv
feet_or_meter.        F  :feet or meter
latitude.       31.8774  :latitude
mud_temp.            NA  :mud temp
res_mud_filtrate.        :res mud filtrate
elev_kb.             NA  :elev kb
log_meas_from.      LSD  :log meas from
sys_version.   3.6XH     :sys version
mud_res.             NA  :mud res
temp_gradient.        0  :temp gradient
file_type_id.    8144A   :file type id
township.            NA  :township
field_office. USGS - TXWSC  :field office
eng_units_or_cps.     E  :eng units or cps
time_circ_stopped.   NA  :time circ stopped
recorded_by.     THOMAS  :recorded by
field.          HOLLAND  :field
depth_driller.     1993  :depth driller
range.               NA  :range
mean_surface_temp.       :mean surface temp
casing_bottom.       NA  :casing bottom
casing_type.      STEEL  :casing type
tool_serial_num.     NA  :tool serial num
deltat_fluid.            :deltat fluid
longitude.     -97.4055  :longitude
RUN1.                    :RUN1
fluid_viscosity.         :fluid viscosity
RUN2.                    :RUN2
log_sample_int.     .10  :log sample int
bit_size.           8.5  :bit size
elect_cutoff.      9999  :elect cutoff
log_direction.        D  :log direction
elev_perm_datum.         :elev perm datum
county.            BELL  :county
RUN3.                    :RUN3
truck_cal_num. 0.5956    :truck cal num
mud_sample_source.   NA  :mud sample source
temp_mud_cake.           :temp mud cake
drl_meas_from.       NA  :drl meas from
RUN4.                    :RUN4
permanent_datum.    LSD  :permanent datum
Name_Prn_AP.             :Name Prn AP
casing_diameter.      6  :casing diameter
UNIQUE_WELL_ID.          :UNIQUE WELL ID
RUN5.                    :RUN5
company. CLEARWATER UWCD  :company
fluid_type.         H2O  :fluid type
neutron_matrix. LIMESTONE  :neutron matrix
fluid_ph.                :fluid ph
elev_df.             NA  :elev df
state.               TX  :state
RUN6.                    :RUN6
PROVINCE.                :PROVINCE
file_type.    ORIGINAL   :file type
sys_serial.    1         :sys serial
temp_mud_filtrate.       :temp mud filtrate
other1serv.          ZW  :other1serv
section.             NA  :section
logging_unit.       302  :logging unit
remarks1.                :remarks1
log_bottom.     1883.50  :log bottom
time.            10_11_  :time
density_matrix.    2.71  :density matrix
elev_gl.                 :elev gl
other2serv.          ZE  :other2serv
casing_thick.        NA  :casing thick
res_mud_cake.        NA  :res mud cake
log_top.              0  :log top
fluid_density.       NA  :fluid density
mag_declination.      0  :mag declination
delta_t_matrix.       9  :delta t matrix
remarks2.                :remarks2
#------------------------------------------------------------
~OTHER
#------------------------------------------------------------
~A  DEPT[FT]    GAM(NAT)     RES(FL)        TEMP    DEL TEMP     SP COND     CALIPER         CCL
# ...
     1245.50     20.4082     1.83948     92.4914  0.00959015     5436.33     6.46492     61030.0
     1245.60     20.4082     1.83948     92.4840  -0.00746155     5436.33     6.31586     61230.0
     1245.70     35.7143     1.83948     92.4930  0.00905609     5436.33     6.39262     61525.0
     1245.80     25.5102     1.83948     92.4835  -0.00958252     5436.33     6.51109     61425.0
     1245.90    0.000000     1.83948     92.4898  0.00639343     5436.33     6.43600     61285.0
     1246.00     20.4082     1.83948     92.4946  0.00479126     5436.33     6.47049     61475.0
     1246.10     10.2041     1.83715     92.4866  -0.00799561     5443.22     6.49440     61240.0
     1246.20     15.3061     1.83948     92.4914  0.00479889     5436.33     6.47438     60970.0
     1246.30     20.4082     1.83948     92.4968  0.00532532     5436.33     6.47271     61575.0
     1246.40     30.6122     1.84297     92.4978  0.00106812     5426.02     6.45380     61575.0
     1246.50     20.4082     1.83948     92.4978    0.000000     5436.33     6.50052     61455.0
     1246.60     25.5102     1.84181     92.5026  0.00479126     5429.46     6.49830     61350.0
     1246.70     51.0204     1.84297     92.4994  -0.00319672     5426.02     6.48884     61365.0
     1246.80     20.4082     1.83948     92.5000  0.000534058     5436.33     6.53946     61330.0
     1246.90     27.2109     1.83948     92.5010  0.00106812     5436.33     6.43600     61035.0
     1247.00     5.10204     1.84181     92.5042  0.00318909     5429.46     6.42599     61300.0
     1247.10     15.3061     1.83948     92.5058  0.00160217     5436.33     6.43211     61390.0
     1247.20     20.4082     1.83948     92.5074  0.00160217     5436.33     6.42988     61140.0
     1247.30     15.3061     1.83948     92.5058  -0.00160217     5436.33     6.46381     61560.0
     1247.40     35.7143     1.83948     92.5090  0.00319672     5436.33     6.38650     61370.0
     1247.50     17.0068     1.84181     92.5138  0.00479889     5429.46     6.38872     61070.0
     1247.60     35.7143     1.83948     92.5122  -0.00160217     5436.33     6.44379     61305.0
     1247.70     15.3061     1.83948     92.5117  -0.000534058     5436.33     6.50720     61325.0
     1247.80     10.2041     1.83948     92.5122  0.000534058     5436.33     6.49941     61150.0
     1247.90     5.10204     1.83948     92.5138  0.00160217     5436.33     6.46826     61815.0
     1248.00     45.9184     1.83482     92.5186  0.00479126     5450.13     6.43767     61390.0
     1248.10     6.80272     1.83249     92.5170  -0.00160217     5457.06     6.38539     60675.0
     1248.20     25.5102     1.83948     92.5170    0.000000     5436.33     6.40485     61300.0
     1248.30     25.5102     1.83948     92.5186  0.00160217     5436.33     6.39818     61460.0
     1248.40     10.2041     1.83948     92.5218  0.00318909     5436.33     6.44490     61470.0
     1248.50     5.10204     1.83948     92.5202  -0.00158691     5436.33     6.47660     61530.0
     1248.60     17.0068     1.83948     92.5186  -0.00160217     5436.33     6.53723     61150.0
     1248.70     15.3061     1.82899     92.5250  0.00639343     5467.48     6.50942     61325.0
     1248.80     25.5102     1.84297     92.5255  0.000534058     5426.02     6.54669     61440.0
     1248.90     20.4082     1.83948     92.5234  -0.00213623     5436.33     6.43600     61520.0
     1249.00     17.0068     1.83948     92.5250  0.00160217     5436.33     6.44434     61455.0
     1249.10     25.5102     1.83948     92.5266  0.00159454     5436.33     6.49385     61460.0
     1249.20     25.5102     1.83948     92.5330  0.00639343     5436.33     6.46771     61250.0
     1249.30     35.7143     1.83948     92.5314  -0.00159454     5436.33     6.45158     61265.0
     1249.40     25.5102     1.83948     92.5298  -0.00160217     5436.33     6.46659     61335.0
     1249.50     27.2109     1.84297     92.5330  0.00319672     5426.02     6.53389     61240.0
     1249.60     30.6122     1.83948     92.5314  -0.00159454     5436.33     6.49440     61300.0
     1249.70     25.5102     1.83948     92.5378  0.00639343     5436.33     6.53890     61640.0
     1249.80     15.3061     1.83948     92.5378    0.000000     5436.33     6.53000     61815.0
     1249.90     15.3061     1.83948     92.5436  0.00585175     5436.33     6.47104     60440.0
     1250.00     13.6054     1.83948     92.5442  0.000534058     5436.33     6.43823     61460.0
     1250.10     15.3061     1.83948     92.5458  0.00159454     5436.33     6.45881     61430.0
     1250.20     25.5102     1.83598     92.5442  -0.00159454     5446.68     6.38038     61085.0
     1250.30     10.2041     1.83249     92.5479  0.00373077     5457.06     6.50608     61410.0
     1250.40     25.5102     1.83948     92.5506  0.00266266     5436.33     6.44156     61505.0
     1250.50     25.5102     1.83948     92.5522  0.00159454     5436.33     6.48272     61635.0
     1250.60     10.2041     1.83948     92.5554  0.00320435     5436.33     6.45269     61210.0
     1250.70     27.2109     1.83948     92.5490  -0.00639343     5436.33     6.35591     61085.0
     1250.80     25.5102     1.83948     92.5564  0.00745392     5436.33     6.35925     61790.0
     1250.90     10.2041     1.84297     92.5602  0.00373077     5426.02     6.40764     61045.0
     1251.00     51.0204     1.83948     92.5618  0.00159454     5436.33     6.52221     61140.0
     1251.10     35.7143     1.83948     92.5602  -0.00159454     5436.33     6.43211     61425.0
     1251.20     30.6122     1.83948     92.5602    0.000000     5436.33     6.51888     61355.0
     1251.30     40.8163     1.83948     92.5628  0.00266266     5436.33     6.46715     61280.0
     1251.40     5.10204     1.83948     92.5649  0.00212860     5436.33     6.53389     61385.0
     1251.50     30.6122     1.83948     92.5634  -0.00159454     5436.33     6.49718     61315.0
     1251.60     25.5102     1.84297     92.5697  0.00639343     5426.02     6.39707     61020.0
     1251.70     27.2109     1.83948     92.5713  0.00159454     5436.33     6.39651     61315.0
     1251.80     25.5102     1.83948     92.5777  0.00639343     5436.33     6.40263     61670.0
     1251.90     30.6122     1.83948     92.5713  -0.00639343     5436.33     6.37315     61670.0
     1252.00     25.5102     1.83249     92.5756  0.00426483     5457.06     6.35201     61410.0
     1252.10     17.0068     1.83948     92.5761  0.000534058     5436.33     6.34033     61325.0
     1252.20     35.7143     1.83249     92.5825  0.00638580     5457.06     6.18515     61290.0
     1252.30     15.3061     1.84181     92.5793  -0.00319672     5429.46     6.28249     61290.0
     1252.40     40.8163     1.83948     92.5809  0.00160217     5436.33     6.30696     61300.0
     1252.50     35.7143     1.83948     92.5831  0.00212860     5436.33     6.31864     61340.0
     1252.60     27.2109     1.83948     92.5793  -0.00373077     5436.33     6.43378     61405.0
     1252.70     25.5102     1.83948     92.5905   0.0111923     5436.33     6.39262     61235.0
     1252.80     25.5102     1.83948     92.5873  -0.00319672     5436.33     6.45158     61460.0
     1252.90     5.10204     1.84297     92.5953  0.00798798     5426.02     6.42599     61485.0
     1253.00     40.8163     1.83948     92.5927  -0.00266266     5436.33     6.42710     61180.0
     1253.10     25.5102     1.84297     92.5969  0.00425720     5426.02     6.39039     61360.0
     1253.20     23.8095     1.83948     92.5905  -0.00638580     5436.33     6.51999     61560.0
     1253.30     45.9184     1.83948     92.5969  0.00638580     5436.33     6.52054     61340.0
     1253.40     15.3061     1.83948     92.6033  0.00639343     5436.33     6.46826     61320.0
     1253.50     40.8163     1.84646     92.6017  -0.00159454     5415.76     6.54780     61170.0
     1253.60     15.3061     1.84297     92.5985  -0.00319672     5426.02     6.55725     61380.0
     1253.70     40.8163     1.83948     92.6065  0.00799561     5436.33     6.49941     61415.0
