#------------------------------------------------------------
~VERSION INFORMATION
VERS.               2.0  :CWLS LOG ASCII STANDARD - VERSION 2.0
WRAP.                NO  :ONE LINE PER DEPTH STEP
#------------------------------------------------------------
~WELL INFORMATION
STRT.FT        0.900000  :FIRST INDEX VALUE
STOP.FT         1874.90  :LAST INDEX VALUE
STEP.FT        0.100000  :STEP
NULL.            -99999  :NULL VALUE
COMP.                    :
WELL.                    :
FLD.                     :
LOC.                     :LOCATION
SRVC.              USGS  :SERVICE COMPANY
CTRY.                    :
STAT.                    :
CNTY.                    :
DATE.          11/22/16  :DATE
API.                     :
#------------------------------------------------------------
~CURVE INFORMATION
DEPT.FT                  :DEPTH
GAM(NAT).API             :GAM(NAT)
RES(FL).OHM-M            :RES(FL)
TEMP.°F                  :TEMP
DEL_TEMP.°F              :DEL TEMP
SP_COND.µS/CM            :SP COND
CALIPER.INCH             :CALIPER
CCL.CPS                  :CCL
#------------------------------------------------------------
~PARAMETER INFORMATION
other3serv.              :other3serv
feet_or_meter.        F  :feet or meter
latitude.       31.8774  :latitude
mud_temp.            NA  :mud temp
res_mud_filtrate.        :res mud filtrate
elev_kb.             NA  :elev kb
log_meas_from.      LSD  :log meas from
sys_version.   3.6XH     :sys version
mud_res.             NA  :mud res
temp_gradient.        0  :temp gradient
file_type_id.    8144A   :file type id
township.            NA  :township
field_office. USGS - TXWSC  :field office
eng_units_or_cps.     E  :eng units or cps
time_circ_stopped.   NA  :time circ stopped
recorded_by.     THOMAS  :recorded by
field.          HOLLAND  :field
depth_driller.     1993  :depth driller
range.               NA  :range
mean_surface_temp.       :mean surface temp
casing_bottom.       NA  :casing bottom
casing_type.      STEEL  :casing type
tool_serial_num.     NA  :tool serial num
deltat_fluid.            :deltat fluid
longitude.     -97.4055  :longitude
RUN1.                    :RUN1
fluid_viscosity.         :fluid viscosity
RUN2.                    :RUN2
log_sample_int.     .10  :log sample int
bit_size.           8.5  :bit size
elect_cutoff.      9999  :elect cutoff
log_direction.        D  :log direction
elev_perm_datum.         :elev perm datum
county.            BELL  :county
RUN3.                    :RUN3
truck_cal_num. 0.5956    :truck cal num
mud_sample_source.   NA  :mud sample source
temp_mud_cake.           :temp mud cake
drl_meas_from.       NA  :drl meas from
RUN4.                    :RUN4
permanent_datum.    LSD  :permanent datum
Name_Prn_AP.             :Name Prn AP
casing_diameter.      6  :casing diameter
UNIQUE_WELL_ID.          :UNIQUE WELL ID
RUN5.                    :RUN5
company. CLEARWATER UWCD  :company
fluid_type.         H2O  :fluid type
neutron_matrix. LIMESTONE  :neutron matrix
fluid_ph.                :fluid ph
elev_df.             NA  :elev df
state.               TX  :state
RUN6.                    :RUN6
PROVINCE.                :PROVINCE
file_type.    ORIGINAL   :file type
sys_serial.    1         :sys serial
temp_mud_filtrate.       :temp mud filtrate
other1serv.          ZW  :other1serv
section.             NA  :section
logging_unit.       302  :logging unit
remarks1.                :remarks1
log_bottom.     1883.50  :log bottom
time.            10_11_  :time
density_matrix.    2.71  :density matrix
elev_gl.                 :elev gl
other2serv.          ZE  :other2serv
casing_thick.        NA  :casing thick
res_mud_cake.        NA  :res mud cake
log_top.              0  :log top
fluid_density.       NA  :fluid density
mag_declination.      0  :mag declination
delta_t_matrix.       9  :delta t matrix
remarks2.                :remarks2
#------------------------------------------------------------
~OTHER
#------------------------------------------------------------
~A  DEPT[FT]    GAM(NAT)     RES(FL)        TEMP    DEL TEMP     SP COND     CALIPER         CCL
# ...
     1619.00     25.5102    0.917131     96.4687  0.00363159     10903.6     4.89211     61415.0
     1619.10     30.6122    0.942752     96.4697  0.00103760     10607.2     4.86849     61323.3
     1619.20     40.8163    0.934600     96.4728  0.00311279     10699.8     4.84644     61420.0
     1619.30     37.4150    0.927612     96.4624  -0.0103760     10780.4     4.81947     61245.0
     1619.40     25.5102    0.940423     96.4697  0.00726318     10633.5     4.73444     61020.0
     1619.50     15.3061    0.931106     96.4728  0.00311279     10739.9     4.82833     61486.7
     1619.60     15.3061    0.917131     96.4697  -0.00311279     10903.6     4.84723     61850.0
     1619.70     17.0068    0.935764     96.4697    0.000000     10686.5     4.67283     61020.0
     1619.80     15.3061    0.927612     96.4666  -0.00311279     10780.4     4.51063     61185.0
     1619.90     20.4082    0.966043     96.4728  0.00622559     10351.5     4.47520     61490.0
     1620.00     17.0068    0.935764     96.4728    0.000000     10686.5     4.62696     61353.3
     1620.10     15.3061    0.917131     96.4775  0.00466919     10903.6     4.78660     61335.0
     1620.20     25.5102    0.927612     96.4749  -0.00259399     10780.4     4.84546     61435.0
     1620.30     25.5102    0.934600     96.4759  0.00103760     10699.8     4.80117     61510.0
     1620.40     17.0068    0.933435     96.4759    0.000000     10713.1     4.83306     61325.0
     1620.50     20.4082    0.934600     96.4744  -0.00155640     10699.8     4.77459     61210.0
     1620.60     10.2041    0.913637     96.4790  0.00466919     10945.3     4.84998     61236.7
     1620.70     13.6054    0.941587     96.4806  0.00155640     10620.4     4.93758     61495.0
     1620.80     15.3061    0.940423     96.4744  -0.00622559     10633.5     4.91396     61425.0
     1620.90     20.4082    0.941587     96.4790  0.00466919     10620.4     4.91986     61530.0
     1621.00     23.8095    0.903156     96.4811  0.00207520     11072.3     4.95943     61116.7
     1621.10     25.5102    0.933435     96.4821  0.00103760     10713.1     4.98069     61420.0
     1621.20     10.2041    0.924118     96.4759  -0.00622559     10821.1     4.92045     61345.0
     1621.30     17.0068    0.924118     96.4821  0.00622559     10821.1     4.93344     61230.0
     1621.40     20.4082    0.948575     96.4790  -0.00311279     10542.1     4.94880     61600.0
     1621.50     30.6122    0.938093     96.4837  0.00466919     10659.9     4.90864     61410.0
     1621.60     3.40136    0.945081     96.4853  0.00155640     10581.1     4.89211     61266.7
     1621.70     20.4082    0.920625     96.4842  -0.00103760     10862.2     4.87439     61520.0
     1621.80     15.3061    0.931106     96.4853  0.00103760     10739.9     4.94644     61205.0
     1621.90     13.6054    0.934600     96.4837  -0.00155640     10699.8     4.97360     61190.0
     1622.00     25.5102    0.924118     96.4873  0.00363159     10821.1     4.98305     61490.0
     1622.10     15.3061    0.938093     96.4868  -0.000518799     10659.9     4.96258     61533.3
     1622.20     20.4082    0.931106     96.4884  0.00155640     10739.9     4.95175     60830.0
     1622.30     30.6122    0.931106     96.4873  -0.00103760     10739.9     4.97655     61395.0
     1622.40     35.7143    0.959056     96.4899  0.00259399     10426.9     4.99722     61555.0
     1622.50     20.4082    0.938093     96.4868  -0.00311279     10659.9     4.97714     61366.7
     1622.60     35.7143    0.924118     96.4884  0.00155640     10821.1     4.94683     61945.0
     1622.70     6.80272    0.940423     96.4915  0.00311279     10633.5     4.95411     60475.0
     1622.80     20.4082    0.941587     96.4915    0.000000     10620.4     4.98541     60880.0
     1622.90     20.4082    0.920625     96.4925  0.00103760     10862.2     4.96179     61900.0
     1623.00     15.3061    0.942752     96.4993  0.00674438     10607.2     4.96592     61666.7
     1623.10     20.4082    0.934600     96.4977  -0.00155640     10699.8     4.93738     61175.0
     1623.20     15.3061    0.931106     96.4956  -0.00207520     10739.9     4.90037     60955.0
     1623.30     10.2041    0.934600     96.4977  0.00207520     10699.8     4.94053     61330.0
     1623.40     30.6122    0.924118     96.4962  -0.00155640     10821.1     4.96651     61335.0
     1623.50     5.10204    0.924118     96.4977  0.00155640     10821.1     4.98482     61326.7
     1623.60     5.10204    0.920625     96.4967  -0.00103760     10862.2     4.94880     61780.0
     1623.70     27.2109    0.931106     96.4993  0.00259399     10739.9     4.97124     61165.0
     1623.80     30.6122    0.942752     96.5024  0.00311279     10607.2     4.96888     61365.0
     1623.90     10.2041    0.920625     96.5008  -0.00155640     10862.2     4.97419     61530.0
     1624.00     30.6122    0.934600     96.4987  -0.00207520     10699.8     4.96710     61190.0
     1624.10     25.5102    0.941587     96.4993  0.000518799     10620.4     4.98462     61150.0
     1624.20     10.2041    0.935764     96.5024  0.00311279     10686.5     5.00135     61480.0
     1624.30     37.4150    0.920625     96.4977  -0.00466919     10862.2     4.96829     61365.0
     1624.40     20.4082    0.945081     96.5070  0.00933838     10581.1     4.97124     60980.0
     1624.50     10.2041    0.938093     96.5024  -0.00466919     10659.9     4.98895     61606.7
     1624.60     10.2041    0.945081     96.5039  0.00155640     10581.1     4.96966     61465.0
     1624.70     17.0068    0.927612     96.5050  0.00103760     10780.4     4.95411     61245.0
     1624.80     30.6122    0.924118     96.5055  0.000518799     10821.1     4.95707     61200.0
     1624.90     10.2041    0.934600     96.5102  0.00466919     10699.8     4.95529     61395.0
     1625.00     10.2041    0.924118     96.5050  -0.00518799     10821.1     4.97537     61366.7
     1625.10     20.4082    0.931106     96.5055  0.000518799     10739.9     4.96730     61370.0
     1625.20     45.9184    0.924118     96.5070  0.00155640     10821.1     4.97773     61390.0
     1625.30     10.2041    0.927612     96.5102  0.00311279     10780.4     4.97478     61210.0
     1625.40     34.0136    0.940423     96.5117  0.00155640     10633.5     4.98305     61365.0
     1625.50     25.5102    0.941587     96.5102  -0.00155640     10620.4     4.96179     61506.7
     1625.60     30.6122    0.927612     96.5102    0.000000     10780.4     4.93049     61100.0
     1625.70     56.1224    0.934600     96.5070  -0.00311279     10699.8     4.93699     61320.0
     1625.80     27.2109    0.933435     96.5133  0.00622559     10713.1     4.94644     61790.0
     1625.90     25.5102    0.938093     96.5102  -0.00311279     10659.9     4.88738     61265.0
     1626.00     66.3265    0.920625     96.5164  0.00622559     10862.2     4.86317     61280.0
     1626.10     20.4082    0.917131     96.5164    0.000000     10903.6     4.88463     61560.0
     1626.20     34.0136    0.931106     96.5195  0.00311279     10739.9     4.76278     61485.0
     1626.30     20.4082    0.931106     96.5185  -0.00103760     10739.9     4.59153     61420.0
     1626.40     10.2041    0.934600     96.5195  0.00103760     10699.8     4.64645     61240.0
     1626.50     27.2109    0.926448     96.5226  0.00311279     10793.9     4.69842     61213.3
     1626.60     30.6122    0.924118     96.5226    0.000000     10821.1     4.79172     61315.0
     1626.70     20.4082    0.938093     96.5185  -0.00415039     10659.9     4.83365     60865.0
     1626.80     30.6122    0.941587     96.5195  0.00103760     10620.4     4.67125     61645.0
     1626.90     40.8163    0.931106     96.5195    0.000000     10739.9     4.59566     62245.0
     1627.00     20.4082    0.934600     96.5195    0.000000     10699.8     4.56200     61013.3
     1627.10     27.2109    0.934600     96.5226  0.00311279     10699.8     4.56614     60705.0
     1627.20     40.8163    0.917131     96.5273  0.00466919     10903.6     4.54527     61470.0
