#------------------------------------------------------------
~VERSION INFORMATION
VERS.               2.0  :CWLS LOG ASCII STANDARD - VERSION 2.0
WRAP.                NO  :ONE LINE PER DEPTH STEP
#------------------------------------------------------------
~WELL INFORMATION
STRT.FT        0.900000  :FIRST INDEX VALUE
STOP.FT         1874.90  :LAST INDEX VALUE
STEP.FT        0.100000  :STEP
NULL.            -99999  :NULL VALUE
COMP.                    :
WELL.                    :
FLD.                     :
LOC.                     :LOCATION
SRVC.              USGS  :SERVICE COMPANY
CTRY.                    :
STAT.                    :
CNTY.                    :
DATE.          11/22/16  :DATE
API.                     :
#------------------------------------------------------------
~CURVE INFORMATION
DEPT.FT                  :DEPTH
GAM(NAT).API             :GAM(NAT)
RES(FL).OHM-M            :RES(FL)
TEMP.°F                  :TEMP
DEL_TEMP.°F              :DEL TEMP
SP_COND.µS/CM            :SP COND
CALIPER.INCH             :CALIPER
CCL.CPS                  :CCL
#------------------------------------------------------------
~PARAMETER INFORMATION
other3serv.              :other3serv
feet_or_meter.        F  :feet or meter
latitude.       31.8774  :latitude
mud_temp.            NA  :mud temp
res_mud_filtrate.        :res mud filtrate
elev_kb.             NA  :elev kb
log_meas_from.      LSD  :log meas from
sys_version.   3.6XH     :sys version
mud_res.             NA  :mud res
temp_gradient.        0  :temp gradient
file_type_id.    8144A   :file type id
township.            NA  :township
field_office. USGS - TXWSC  :field office
eng_units_or_cps.     E  :eng units or cps
time_circ_stopped.   NA  :time circ stopped
recorded_by.     THOMAS  :recorded by
field.          HOLLAND  :field
depth_driller.     1993  :depth driller
range.               NA  :range
mean_surface_temp.       :mean surface temp
casing_bottom.       NA  :casing bottom
casing_type.      STEEL  :casing type
tool_serial_num.     NA  :tool serial num
deltat_fluid.            :deltat fluid
longitude.     -97.4055  :longitude
RUN1.                    :RUN1
fluid_viscosity.         :fluid viscosity
RUN2.                    :RUN2
log_sample_int.     .10  :log sample int
bit_size.           8.5  :bit size
elect_cutoff.      9999  :elect cutoff
log_direction.        D  :log direction
elev_perm_datum.         :elev perm datum
county.            BELL  :county
RUN3.                    :RUN3
truck_cal_num. 0.5956    :truck cal num
mud_sample_source.   NA  :mud sample source
temp_mud_cake.           :temp mud cake
drl_meas_from.       NA  :drl meas from
RUN4.                    :RUN4
permanent_datum.    LSD  :permanent datum
Name_Prn_AP.             :Name Prn AP
casing_diameter.      6  :casing diameter
UNIQUE_WELL_ID.          :UNIQUE WELL ID
RUN5.                    :RUN5
company. CLEARWATER UWCD  :company
fluid_type.         H2O  :fluid type
neutron_matrix. LIMESTONE  :neutron matrix
fluid_ph.                :fluid ph
elev_df.             NA  :elev df
state.               TX  :state
RUN6.                    :RUN6
PROVINCE.                :PROVINCE
file_type.    ORIGINAL   :file type
sys_serial.    1         :sys serial
temp_mud_filtrate.       :temp mud filtrate
other1serv.          ZW  :other1serv
section.             NA  :section
logging_unit.       302  :logging unit
remarks1.                :remarks1
log_bottom.     1883.50  :log bottom
time.            10_11_  :time
density_matrix.    2.71  :density matrix
elev_gl.                 :elev gl
other2serv.          ZE  :other2serv
casing_thick.        NA  :casing thick
res_mud_cake.        NA  :res mud cake
log_top.              0  :log top
fluid_density.       NA  :fluid density
mag_declination.      0  :mag declination
delta_t_matrix.       9  :delta t matrix
remarks2.                :remarks2
#------------------------------------------------------------
~OTHER
#------------------------------------------------------------
~A  DEPT[FT]    GAM(NAT)     RES(FL)        TEMP    DEL TEMP     SP COND     CALIPER         CCL
# ...
     1494.50     25.5102    0.980018     95.2640  0.00830841     10203.9     4.85727     61515.0
     1494.60     10.2041    0.987006     95.2542  -0.00985718     10131.7     4.85727     61375.0
     1494.70     25.5102    0.966043     95.2573  0.00310516     10351.5     4.85136     61330.0
     1494.80     30.6122    0.969537     95.2542  -0.00310516     10314.2     4.84191     61260.0
     1494.90     25.5102    0.980018     95.2588  0.00466919     10203.9     4.73208     61095.0
     1495.00     40.8163    0.980018     95.2619  0.00310516     10203.9     4.75097     61520.0
     1495.10     10.2041    0.970701     95.2619    0.000000     10301.8     4.80294     61095.0
     1495.20     35.7143    0.983512     95.2573  -0.00466919     10167.6     4.80825     61410.0
     1495.30     10.2041    0.973031     95.2650  0.00778198     10277.2     4.80353     61600.0
     1495.40     17.0068    0.959056     95.2650    0.000000     10426.9     4.79821     61230.0
     1495.50     20.4082    0.977689     95.2635  -0.00154877     10228.2     4.85077     61250.0
     1495.60     30.6122    0.952068     95.2650  0.00154877     10503.4     4.84900     61270.0
     1495.70     6.80272     1.00098     95.2723  0.00726318     9990.20     4.84427     61235.0
     1495.80     25.5102    0.976524     95.2744  0.00207520     10240.4     4.84014     61520.0
     1495.90     20.4082    0.962550     95.2666  -0.00778198     10389.1     4.85136     61345.0
     1496.00     30.6122    0.973031     95.2744  0.00778198     10277.2     4.89919     60660.0
     1496.10     17.0068    0.970701     95.2713  -0.00311279     10301.8     4.84014     61490.0
     1496.20     56.1224    0.962550     95.2728  0.00156403     10389.1     4.79290     62075.0
     1496.30     45.9184    0.976524     95.2702  -0.00259399     10240.4     4.70786     61095.0
     1496.40     20.4082    0.973031     95.2728  0.00259399     10277.2     4.76633     61100.0
     1496.50     44.2177    0.982347     95.2713  -0.00156403     10179.7     4.72558     61390.0
     1496.60     40.8163    0.962550     95.2728  0.00156403     10389.1     4.82715     61550.0
     1496.70     20.4082    0.993993     95.2754  0.00258636     10060.4     4.72558     61550.0
     1496.80     30.6122    0.966043     95.2728  -0.00258636     10351.5     4.66476     60840.0
     1496.90     20.4082    0.980018     95.2775  0.00466919     10203.9     4.69901     61410.0
     1497.00     61.2245    0.976524     95.2806  0.00310516     10240.4     4.65058     61785.0
     1497.10     5.10204    0.997487     95.2806    0.000000     10025.2     4.69074     61225.0
     1497.20     30.6122    0.984676     95.2790  -0.00155640     10155.6     4.66712     61070.0
     1497.30     47.6190    0.980018     95.2775  -0.00154877     10203.9     4.70609     61440.0
     1497.40     56.1224    0.983512     95.2775    0.000000     10167.6     4.63405     61115.0
     1497.50     30.6122    0.983512     95.2775    0.000000     10167.6     4.68720     61430.0
     1497.60     51.0204    0.977689     95.2759  -0.00156403     10228.2     4.65058     61510.0
     1497.70     44.2177    0.973031     95.2806  0.00466919     10277.2     4.62814     61295.0
     1497.80     15.3061    0.962550     95.2806    0.000000     10389.1     4.64468     61345.0
     1497.90     15.3061    0.989335     95.2806    0.000000     10107.8     4.70078     61340.0
     1498.00     45.9184    0.980018     95.2806    0.000000     10203.9     4.66239     61365.0
     1498.10     25.5102    0.990499     95.2827  0.00208282     10095.9     4.72322     61065.0
     1498.20     27.2109    0.993993     95.2775  -0.00518799     10060.4     4.73030     61370.0
     1498.30     30.6122    0.983512     95.2822  0.00466919     10167.6     4.74211     61310.0
     1498.40     40.8163    0.973031     95.2790  -0.00312042     10277.2     4.73030     61665.0
     1498.50     56.1224    0.990499     95.2806  0.00155640     10095.9     4.68070     61495.0
     1498.60     30.6122    0.980018     95.2806    0.000000     10203.9     4.62637     60970.0
     1498.70     5.10204    0.973031     95.2837  0.00311279     10277.2     4.64704     61330.0
     1498.80     20.4082    0.977689     95.2822  -0.00154877     10228.2     4.64704     61620.0
     1498.90     34.0136    0.993993     95.2822    0.000000     10060.4     4.68483     61075.0
     1499.00     35.7143    0.966043     95.2848  0.00258636     10351.5     4.65058     61215.0
     1499.10     30.6122    0.969537     95.2822  -0.00258636     10314.2     4.73030     61510.0
     1499.20     54.4218    0.966043     95.2822    0.000000     10351.5     4.78995     61355.0
     1499.30     20.4082    0.970701     95.2822    0.000000     10301.8     4.74743     61190.0
     1499.40     20.4082    0.976524     95.2837  0.00154877     10240.4     4.63346     61255.0
     1499.50     30.6122    0.983512     95.2837    0.000000     10167.6     4.61102     61270.0
     1499.60     30.6122     1.01146     95.2837    0.000000     9886.68     4.61574     61350.0
     1499.70     20.4082    0.993993     95.2822  -0.00154877     10060.4     4.48583     61625.0
     1499.80     45.9184    0.983512     95.2853  0.00310516     10167.6     4.50413     61295.0
     1499.90     20.4082    0.941587     95.2837  -0.00155640     10620.4     4.48051     61320.0
     1500.00     20.4082    0.984676     95.2853  0.00155640     10155.6     4.57795     61445.0
     1500.10     20.4082    0.973031     95.2853    0.000000     10277.2     4.67361     61150.0
     1500.20     15.3061    0.987006     95.2848  -0.000518799     10131.7     4.75924     61216.7
     1500.30     40.8163    0.956726     95.2775  -0.00725555     10452.3     4.72204     61760.0
     1500.40     15.3061    0.980018     95.2853  0.00777435     10203.9     4.73857     61225.0
     1500.50     20.4082    0.962550     95.2858  0.000526428     10389.1     4.74330     61220.0
     1500.60     51.0204    0.966043     95.2853  -0.000526428     10351.5     4.66771     61355.0
     1500.70     10.2041    0.984676     95.2884  0.00311279     10155.6     4.66298     61350.0
     1500.80     45.9184    0.962550     95.2868  -0.00154877     10389.1     4.62578     61750.0
     1500.90     23.8095    0.987006     95.2889  0.00207520     10131.7     4.69605     60995.0
     1501.00     51.0204    0.969537     95.2853  -0.00363922     10314.2     4.66062     60910.0
     1501.10     35.7143    0.975360     95.2853    0.000000     10252.6     4.69664     61430.0
     1501.20     30.6122    0.959056     95.2915  0.00623322     10426.9     4.71023     61785.0
     1501.30     20.4082    0.966043     95.2879  -0.00363159     10351.5     4.57795     60875.0
     1501.40     25.5102    0.966043     95.2884  0.000511169     10351.5     4.69605     61425.0
     1501.50     20.4082    0.962550     95.2899  0.00155640     10389.1     4.64409     61655.0
     1501.60     40.8163    0.982347     95.2868  -0.00310516     10179.7     4.63818     61570.0
     1501.70     20.4082    0.990499     95.2899  0.00310516     10095.9     4.72145     60805.0
     1501.80     20.4082    0.969537     95.2993  0.00933838     10314.2     4.73680     61195.0
     1501.90     15.3061    0.980018     95.3273   0.0280151     10203.9     4.73503     61605.0
     1502.00     40.8163    0.959056     95.3304  0.00311279     10426.9     4.75747     61790.0
     1502.10     51.0204    0.959056     95.3242  -0.00621796     10426.9     4.57736     61210.0
     1502.20     10.2041    0.993993     95.3304  0.00621796     10060.4     4.60866     61305.0
     1502.30     40.8163    0.959056     95.3289  -0.00154877     10426.9     4.54665     61220.0
     1502.40     20.4082    0.963714     95.3320  0.00310516     10376.5     4.57736     61520.0
     1502.50     40.8163    0.987006     95.3335  0.00156403     10131.7     4.58090     61230.0
     1502.60     45.9184    0.990499     95.3335    0.000000     10095.9     4.62578     61500.0
     1502.70     15.3061    0.990499     95.3304  -0.00312042     10095.9     4.61338     61395.0
