~VERSION INFORMATION
VERS.               2.0  :CWLS LOG ASCII STANDARD - VERSION 2.0
WRAP.                NO  :ONE LINE PER DEPTH STEP
#------------------------------------------------------------
~WELL INFORMATION
STRT.FT         1.60000  :FIRST INDEX VALUE
STOP.FT         473.426  :LAST INDEX VALUE
STEP.FT        0.000000  :STEP
NULL.            -99999  :NULL VALUE
COMP. Beaver brand hats  :COMP
WELL.                    :WELL
FLD.                     :FIELD
LOC. well at SW corner of building 75 ft east of Hwy C, New Haven MO  :LOC
LATI.                    :LATITUDE
LONG.                    :LONGITUDE
GDAT.            /NAD83  :GDAT
SRVC.              USGS  :SRVC
CTRY.                    :COUNTRY
PROV.                    :PROVINCE
STAT.          Missouri  :STAT
CNTY.    Franklin (071)  :CNTY
DATE.        05/22/2009  :DATE
UWI.    383549091130801  :UWI
API.                     :API NUMBER
LIC.                     :LICENSE NUMBER
#------------------------------------------------------------
~CURVE INFORMATION
DEPT.FT                   :DEPTH
Caliper.IN                   :Caliper
Gamma.CPS                   :Gamma
FCond 25'C.US/CM                   :FCond 25'C
FCond.US/CM                   :FCond
Temperature.DEG_C                   :Temperature
#------------------------------------------------------------
~PARAMETER INFORMATION
OTID.        Beaver Hat  :OTID
BS.               6 in.  :BS
CASD.             6 in.  :CASD
STNM.   New Haven JS-25  :STNM
LOGU.        MWSC-Rolla  :LOGU
LMF.                 LS  :LMF
APD.             0.0 ft  :APD
RMKS. SWL 82.12 ft BTOC (81.42 ft LS).  zerod tool at LS (stickup = 0.70 ft)  :RMKS
RMK1.  Mt Sopris    2PFA+2PGA  Fluid tool,, SN 3427  05-22-2009  11_30  amlogging down ~10 ft/min, error <0.5 ft  :RMK1
CASX.               PVC  :CASX
RECB.        Schumacher  :RECB
OBSR. L. Gorday (Parsons Eng.)  :OBSR
RMK2. Mt Sopris  2PGA+2PFA  gamma, SN 2952m 05-22-2009 12_30 hrs, logging up ~ 20 ft/min, depth error <0.5 ft    :RMK2
ADAT.            NGVD29  :ADAT
RMK3. Mt Sopris, 2PCA Caliper (long arms)  SN 3427, 10-11-2010, 1430 hrs, logging up, 15 ft/m. error < 0.5 ft_  :RMK3
FTYP.     Potable water  :FTYP
RMK4. Mt Sopris  HFP, heat Pulse, SN 3122, 10-11-2010   1100 hrs, Ambient conditions (no pumping) logged down,, depth error < 0.5 ft  :RMK4
DUNT.               E/M  :DUNT
RMK5.                    :RMK5
LON.           911308.1  :LON
RMK6.                    :RMK6
DRDP.          473.5 ft  :DRDP
SOFT.                    :SOFT
LAT.           383548.9  :LAT
DFLD.          81.42 ft  :DFLD
MAGN.                    :MAGN
EREF.         617.26 ft  :EREF
HYDR. Pump removed well unused. ran caliper and heat pulse on 10/11/2010  LS (PVC csg has 0.7 ft stickup)  :HYDR
PROJ. Riverfront Superfund Site  :PROJ
FIID.                ZB  :FIID
DREF.      Land surface  :DREF
TIME.             11_30  :TIME
CASB.               101  :CASB
TVER.                    :TVER
ORIE.              Vert  :ORIE
#------------------------------------------------------------
~OTHER
#------------------------------------------------------------
#<------------------LOG DATA-------------------
#DEPTH	Caliper	Gamma	FCond 25'C	FCond	Temperature
#FT	IN	CPS	US/CM	US/CM	DEG_C
~A  DEPT[FT]    Caliper[    Gamma[cp    FCond 25    FCond[uS    Temperat
# ...
324.377	6.16106	9.54719	487.432	634.143	14.2959
324.539	6.15853	13.3796	487.512	634.302	14.2955
324.700	6.15119	11.4191	487.558	634.387	14.2959
324.861	6.15543	14.8297	487.575	634.372	14.2993
325.023	6.15311	13.9147	487.602	634.321	14.3033
325.184	6.14361	10.1468	487.631	634.270	14.3060
325.345	6.13691	9.95384	487.638	634.242	14.3061
325.506	6.12437	13.2986	487.604	634.209	14.3060
325.668	6.12338	20.7370	487.581	634.199	14.3051
325.829	6.13046	19.5667	487.587	634.226	14.3042
325.990	6.12818	17.4583	487.589	634.251	14.3033
326.152	6.13055	20.8720	487.598	634.281	14.3025
326.313	6.12754	21.5067	487.635	634.344	14.3023
326.474	6.11902	20.1357	487.699	634.435	14.3022
326.636	6.13345	20.0612	487.802	634.561	14.3025
326.797	6.13073	18.8007	487.870	634.614	14.3034
326.958	6.12802	20.5976	487.927	634.638	14.3041
327.120	6.15450	25.4534	487.975	634.646	14.3051
327.281	6.16075	23.9347	487.934	634.536	14.3063
327.442	6.15081	17.7534	487.865	634.405	14.3073
327.603	6.15002	21.9178	487.833	634.353	14.3072
327.765	6.16978	30.1307	487.776	634.314	14.3062
327.926	6.16772	22.6345	487.730	634.327	14.3039
328.087	6.26176	21.5029	487.723	634.410	14.3015
328.249	6.30718	14.6132	487.692	634.448	14.2993
328.410	6.17783	15.0133	487.645	634.424	14.2984
328.571	6.17376	10.4128	487.653	634.436	14.2977
328.733	6.17794	11.8883	487.731	634.540	14.2968
328.894	6.17760	14.3306	487.774	634.599	14.2976
329.055	6.24359	18.7548	487.775	634.563	14.2995
329.217	6.16015	12.5220	487.802	634.536	14.3008
329.378	6.12305	15.5217	487.836	634.529	14.3021
329.539	6.11852	14.9616	487.846	634.511	14.3025
329.700	6.12652	10.0612	487.808	634.455	14.3018
329.862	6.13259	13.9564	487.773	634.422	14.3004
330.023	6.15174	8.12602	487.758	634.436	14.2987
330.184	6.17281	7.78660	487.707	634.426	14.2962
330.346	6.18515	3.66583	487.670	634.430	14.2949
330.507	6.14811	9.04855	487.646	634.418	14.2949
330.668	6.12376	12.3311	487.599	634.386	14.2937
330.830	6.12019	12.4737	487.555	634.375	14.2928
330.991	6.12314	9.70885	487.536	634.381	14.2924
331.152	6.13278	12.0177	487.525	634.405	14.2910
331.314	6.12920	7.44151	487.546	634.481	14.2897
331.475	6.13291	7.68919	487.576	634.546	14.2894
331.636	6.14094	11.3191	487.562	634.525	14.2898
331.797	6.13503	7.49695	487.596	634.544	14.2904
331.959	6.14194	12.7426	487.672	634.620	14.2903
332.120	6.06677	17.6832	487.707	634.665	14.2893
332.281	6.05635	12.8606	487.771	634.737	14.2894
332.443	6.15475	18.5010	487.848	634.785	14.2917
332.604	6.11278	23.2568	487.906	634.791	14.2934
332.765	6.12454	14.3178	487.973	634.795	14.2956
332.927	6.11798	20.3527	488.031	634.794	14.2967
333.088	6.10420	21.7054	488.056	634.785	14.2977
333.249	6.12975	20.9467	488.031	634.725	14.2980
333.411	6.15145	18.1737	488.013	634.688	14.2977
333.572	6.11922	26.8321	487.982	634.661	14.2974
333.733	6.12404	23.8553	487.893	634.590	14.2970
333.895	6.12534	20.5192	487.801	634.526	14.2955
334.056	6.13599	16.9703	487.734	634.504	14.2933
334.217	6.14876	15.9515	487.656	634.486	14.2907
334.378	6.16077	21.3992	487.540	634.435	14.2879
334.540	6.14689	16.3816	487.469	634.427	14.2863
334.701	6.15794	10.1862	487.505	634.533	14.2851
334.862	6.12556	9.58170	487.512	634.584	14.2841
335.024	6.13476	11.3304	487.521	634.606	14.2846
335.185	6.13108	14.4339	487.599	634.693	14.2857
335.346	6.11997	14.7076	487.625	634.701	14.2873
335.508	6.13664	12.9679	487.603	634.646	14.2877
335.669	6.12742	13.8910	487.632	634.664	14.2878
335.830	6.13870	13.2155	487.693	634.715	14.2883
335.991	6.12850	11.9963	487.707	634.695	14.2884
336.153	6.13160	16.0461	487.688	634.637	14.2884
336.314	6.16073	16.4275	487.664	634.586	14.2880
336.475	6.13517	13.2710	487.683	634.611	14.2870
336.637	6.16964	12.0794	487.750	634.716	14.2859
336.798	6.15243	13.9544	487.789	634.779	14.2855
336.959	6.19742	16.9023	487.799	634.782	14.2854
337.121	6.25487	16.1865	487.841	634.809	14.2858
337.282	6.18668	16.7154	487.869	634.824	14.2858
337.443	6.19405	15.9117	487.898	634.854	14.2860
337.605	6.21857	18.2383	487.905	634.844	14.2864
337.766	6.19356	15.9466	487.856	634.752	14.2866
337.927	6.19469	15.1234	487.871	634.761	14.2859
338.089	6.17472	13.8049	487.900	634.816	14.2849
338.250	6.14872	10.4689	487.899	634.846	14.2845
338.411	6.11296	10.8935	487.898	634.864	14.2851
338.572	6.10817	12.0988	487.908	634.870	14.2861
338.734	6.10906	16.4007	487.943	634.897	14.2877
338.895	6.16523	12.8476	487.983	634.927	14.2888
339.056	6.13263	15.8200	488.016	634.943	14.2897
339.218	6.12075	19.3183	488.008	634.906	14.2906
339.379	6.13995	19.0687	487.972	634.832	14.2915
339.540	6.14185	16.6311	487.979	634.832	14.2909
339.702	6.15374	20.5250	488.022	634.918	14.2892
339.863	6.16106	24.0876	488.039	634.979	14.2881
340.024	6.14638	25.7838	487.991	634.925	14.2884
340.186	6.12282	23.4357	487.907	634.803	14.2885
340.347	6.11121	22.1715	487.828	634.701	14.2877
340.508	6.11185	20.4054	487.748	634.632	14.2861
340.669	6.12070	20.7981	487.744	634.700	14.2833
340.831	6.12748	21.3604	487.735	634.784	14.2804
340.992	6.14796	13.0016	487.686	634.798	14.2783
341.153	6.14882	8.13879	487.695	634.850	14.2769
341.315	6.12975	15.7063	487.725	634.902	14.2767
341.476	6.15337	12.4999	487.795	634.976	14.2771
341.637	6.16623	13.3911	487.882	635.062	14.2774
341.799	6.13785	16.0165	487.953	635.103	14.2792
341.960	6.12725	12.6344	488.034	635.134	14.2807
342.121	6.13114	11.2774	488.064	635.114	14.2823
342.283	6.13796	18.2587	488.050	635.040	14.2851
342.444	6.14239	26.3762	487.990	634.914	14.2867
342.605	6.14758	22.8420	487.926	634.844	14.2855
342.766	6.16950	20.0517	487.924	634.917	14.2835
342.928	6.20436	26.1163	487.893	634.954	14.2826
343.089	6.23782	26.8917	487.876	634.975	14.2820
343.250	6.28461	25.9770	487.905	635.030	14.2821
343.412	6.36822	29.4986	487.945	635.088	14.2821
343.573	6.40415	19.9772	487.940	635.095	14.2814
343.734	6.23604	15.5993	487.928	635.080	14.2822
343.896	6.17631	21.9246	487.928	635.074	14.2820
344.057	6.20994	15.1907	487.945	635.124	14.2810
344.218	6.19702	12.0955	487.959	635.153	14.2820
344.380	6.19061	18.8754	487.920	635.077	14.2831
344.541	6.18359	14.0856	487.926	635.066	14.2827
344.702	6.16693	17.6924	487.984	635.148	14.2816
344.863	6.16937	23.4723	488.015	635.221	14.2799
345.025	6.13986	21.3687	488.069	635.321	14.2791
345.186	6.15714	21.1172	488.154	635.433	14.2791
345.347	6.16174	20.8616	488.205	635.472	14.2796
345.509	6.16686	19.0333	488.282	635.523	14.2812
345.670	6.12424	25.9603	488.355	635.560	14.2826
345.831	6.13468	32.3862	488.307	635.444	14.2836
345.993	6.12225	29.7267	488.170	635.227	14.2842
346.154	6.13766	30.6261	488.087	635.114	14.2834
346.315	6.11814	37.5501	488.087	635.170	14.2816
346.477	6.18027	39.1590	488.043	635.218	14.2785
346.638	6.16224	35.7984	487.947	635.197	14.2762
346.799	6.19728	39.6374	487.939	635.240	14.2754
346.960	6.21587	39.8795	488.024	635.387	14.2741
347.122	6.14187	35.6436	488.090	635.504	14.2741
347.283	6.13862	42.9031	488.137	635.559	14.2754
347.444	6.12185	39.4093	488.248	635.670	14.2775
347.606	6.11793	37.3767	488.389	635.798	14.2789
347.767	6.11883	36.0191	488.493	635.863	14.2804
347.928	6.11445	38.8831	488.569	635.881	14.2823
348.090	6.11790	38.7809	488.587	635.809	14.2842
348.251	6.12269	39.1758	488.548	635.679	14.2855
348.412	6.11585	33.0362	488.512	635.596	14.2853
348.574	6.11985	30.2050	488.479	635.563	14.2845
348.735	6.11987	35.3143	488.455	635.584	14.2838
348.896	6.11811	34.8075	488.447	635.620	14.2839
349.057	6.12074	27.8425	488.431	635.628	14.2839
349.219	6.12952	31.7957	488.389	635.603	14.2826
349.380	6.14586	38.0825	488.332	635.549	14.2819
349.541	6.13000	30.6564	488.300	635.520	14.2818
349.703	6.12150	29.3787	488.231	635.446	14.2805
349.864	6.12801	31.9882	488.117	635.333	14.2788
350.025	6.12655	29.4686	488.023	635.259	14.2770
350.187	6.13029	39.7747	487.941	635.208	14.2746
350.348	6.13656	33.1831	487.887	635.204	14.2721
350.509	6.13863	25.9417	487.837	635.221	14.2687
350.671	6.14098	21.1991	487.779	635.232	14.2655
350.832	6.14717	32.0053	487.712	635.213	14.2635
350.993	6.15205	28.1954	487.655	635.175	14.2625
351.154	6.15877	27.5264	487.626	635.178	14.2614
