~VERSION INFORMATION
VERS.               2.0  :CWLS LOG ASCII STANDARD - VERSION 2.0
WRAP.                NO  :ONE LINE PER DEPTH STEP
#------------------------------------------------------------
~WELL INFORMATION
STRT.FT         1.60000  :FIRST INDEX VALUE
STOP.FT         473.426  :LAST INDEX VALUE
STEP.FT        0.000000  :STEP
NULL.            -99999  :NULL VALUE
COMP. Beaver brand hats  :COMP
WELL.                    :WELL
FLD.                     :FIELD
LOC. well at SW corner of building 75 ft east of Hwy C, New Haven MO  :LOC
LATI.                    :LATITUDE
LONG.                    :LONGITUDE
GDAT.            /NAD83  :GDAT
SRVC.              USGS  :SRVC
CTRY.                    :COUNTRY
PROV.                    :PROVINCE
STAT.          Missouri  :STAT
CNTY.    Franklin (071)  :CNTY
DATE.        05/22/2009  :DATE
UWI.    383549091130801  :UWI
API.                     :API NUMBER
LIC.                     :LICENSE NUMBER
#------------------------------------------------------------
~CURVE INFORMATION
DEPT.FT                   :DEPTH
Caliper.IN                   :Caliper
Gamma.CPS                   :Gamma
FCond 25'C.US/CM                   :FCond 25'C
FCond.US/CM                   :FCond
Temperature.DEG_C                   :Temperature
#------------------------------------------------------------
~PARAMETER INFORMATION
OTID.        Beaver Hat  :OTID
BS.               6 in.  :BS
CASD.             6 in.  :CASD
STNM.   New Haven JS-25  :STNM
LOGU.        MWSC-Rolla  :LOGU
LMF.                 LS  :LMF
APD.             0.0 ft  :APD
RMKS. SWL 82.12 ft BTOC (81.42 ft LS).  zerod tool at LS (stickup = 0.70 ft)  :RMKS
RMK1.  Mt Sopris    2PFA+2PGA  Fluid tool,, SN 3427  05-22-2009  11_30  amlogging down ~10 ft/min, error <0.5 ft  :RMK1
CASX.               PVC  :CASX
RECB.        Schumacher  :RECB
OBSR. L. Gorday (Parsons Eng.)  :OBSR
RMK2. Mt Sopris  2PGA+2PFA  gamma, SN 2952m 05-22-2009 12_30 hrs, logging up ~ 20 ft/min, depth error <0.5 ft    :RMK2
ADAT.            NGVD29  :ADAT
RMK3. Mt Sopris, 2PCA Caliper (long arms)  SN 3427, 10-11-2010, 1430 hrs, logging up, 15 ft/m. error < 0.5 ft_  :RMK3
FTYP.     Potable water  :FTYP
RMK4. Mt Sopris  HFP, heat Pulse, SN 3122, 10-11-2010   1100 hrs, Ambient conditions (no pumping) logged down,, depth error < 0.5 ft  :RMK4
DUNT.               E/M  :DUNT
RMK5.                    :RMK5
LON.           911308.1  :LON
RMK6.                    :RMK6
DRDP.          473.5 ft  :DRDP
SOFT.                    :SOFT
LAT.           383548.9  :LAT
DFLD.          81.42 ft  :DFLD
MAGN.                    :MAGN
EREF.         617.26 ft  :EREF
HYDR. Pump removed well unused. ran caliper and heat pulse on 10/11/2010  LS (PVC csg has 0.7 ft stickup)  :HYDR
PROJ. Riverfront Superfund Site  :PROJ
FIID.                ZB  :FIID
DREF.      Land surface  :DREF
TIME.             11_30  :TIME
CASB.               101  :CASB
TVER.                    :TVER
ORIE.              Vert  :ORIE
#------------------------------------------------------------
~OTHER
#------------------------------------------------------------
#<------------------LOG DATA-------------------
#DEPTH	Caliper	Gamma	FCond 25'C	FCond	Temperature
#FT	IN	CPS	US/CM	US/CM	DEG_C
~A  DEPT[FT]    Caliper[    Gamma[cp    FCond 25    FCond[uS    Temperat
# ...
189.685	6.15499	58.0235	489.767	634.092	14.4895
189.846	6.15499	62.2135	489.515	633.790	14.4883
190.008	6.15577	59.4270	489.535	633.840	14.4871
190.169	6.16044	58.1487	489.765	634.166	14.4860
190.330	6.15722	54.5856	489.669	634.078	14.4838
190.492	6.17510	52.3405	489.360	633.701	14.4828
190.653	6.20787	43.0307	489.315	633.664	14.4817
190.814	6.36384	37.2148	489.105	633.458	14.4803
190.976	6.33524	36.7494	488.860	633.207	14.4805
191.137	6.27632	31.0883	489.052	633.490	14.4795
191.298	6.27632	22.7053	489.534	634.137	14.4802
191.460	6.19589	24.6983	489.776	634.430	14.4833
191.621	6.27320	25.7334	486.519	630.153	14.4862
191.782	6.01250	13.6342	481.368	623.440	14.4869
191.943	6.19446	18.3821	482.418	624.842	14.4830
192.105	6.22619	25.5697	485.141	628.432	14.4822
192.266	6.26038	29.6805	485.160	628.429	14.4832
192.427	6.37080	27.0352	485.083	628.303	14.4817
192.589	6.43781	19.5753	485.419	628.801	14.4782
192.750	6.38464	20.2626	486.338	630.072	14.4761
192.911	6.29294	17.7823	485.934	629.578	14.4759
193.073	6.19749	24.9095	485.233	628.657	14.4759
193.234	6.17355	19.7652	484.660	627.920	14.4744
193.395	6.21546	10.9829	484.914	628.301	14.4717
193.557	6.23998	16.7644	483.900	627.043	14.4703
193.718	6.20925	19.1267	481.535	624.007	14.4697
193.879	6.19745	23.4656	482.194	624.885	14.4682
194.040	6.18332	15.7093	483.358	626.431	14.4674
194.202	6.16188	17.0408	482.292	625.074	14.4667
194.363	6.17034	25.1731	482.156	624.905	14.4667
194.524	6.15861	17.8732	484.131	627.467	14.4671
194.686	6.17242	13.8739	484.736	628.250	14.4670
194.847	6.24981	10.3177	483.998	627.269	14.4686
195.008	6.27710	13.5608	483.620	626.740	14.4704
195.170	6.22691	11.4923	483.848	626.988	14.4722
195.331	6.16043	13.8957	484.605	627.911	14.4731
195.492	6.12511	13.6475	484.265	627.420	14.4741
195.654	6.12190	19.5671	483.306	626.147	14.4739
195.815	6.12786	17.2520	483.234	626.055	14.4726
195.976	6.12931	12.8884	483.914	626.978	14.4708
196.137	6.13234	20.8347	484.311	627.539	14.4696
196.299	6.12517	13.3722	484.774	628.157	14.4695
196.460	6.11456	17.3653	485.694	629.329	14.4704
196.621	6.11497	23.6384	486.503	630.344	14.4706
196.783	6.11512	17.3105	487.203	631.219	14.4714
196.944	6.11791	15.2715	486.867	630.730	14.4730
197.105	6.11519	12.3292	485.741	629.214	14.4741
197.267	6.13550	18.4911	485.173	628.456	14.4735
197.428	6.18637	10.0996	485.201	628.511	14.4724
197.589	6.21797	10.8915	485.405	628.812	14.4717
197.751	6.23984	13.3698	485.535	628.999	14.4716
197.912	6.24827	14.2564	485.496	628.950	14.4713
198.073	6.26142	23.3024	485.568	629.039	14.4715
198.234	6.35836	27.1503	486.056	629.651	14.4716
198.396	6.40338	16.3275	486.623	630.354	14.4716
198.557	6.21383	17.8580	487.069	630.890	14.4722
198.718	6.23050	14.4499	486.582	630.216	14.4721
198.880	6.12372	13.6413	485.956	629.398	14.4708
199.041	6.15248	16.0709	485.770	629.264	14.4650
199.202	6.15953	15.4476	485.318	628.823	14.4620
199.364	6.12162	14.7075	485.278	628.848	14.4600
199.525	6.10687	22.6555	485.409	629.083	14.4576
199.686	6.11487	31.6580	485.380	629.089	14.4571
199.848	6.13004	33.1444	485.463	629.189	14.4587
200.009	6.12466	33.2146	485.794	629.576	14.4611
200.170	6.12513	38.0450	486.286	630.152	14.4637
200.331	6.13295	39.1844	486.553	630.435	14.4657
200.493	6.16522	50.6020	486.543	630.370	14.4663
200.654	6.13731	54.5961	487.087	631.039	14.4671
200.815	6.15539	45.3826	487.330	631.320	14.4685
200.977	6.18848	40.1577	486.803	630.589	14.4698
201.138	6.19133	33.2899	487.193	631.056	14.4701
201.299	6.19722	27.4436	488.354	632.543	14.4704
201.461	6.27253	22.9870	489.126	633.513	14.4715
201.622	6.32143	20.1336	488.868	633.133	14.4731
201.783	6.13522	15.3228	487.754	631.644	14.4751
201.945	6.10212	14.2434	486.720	630.289	14.4755
202.106	6.10039	17.9018	486.402	629.920	14.4735
202.267	6.12131	20.1397	486.453	630.068	14.4710
202.428	6.18340	16.1264	483.722	626.616	14.4685
202.590	6.24716	9.94128	480.682	622.737	14.4672
202.751	6.18915	15.1930	480.329	622.321	14.4658
202.912	6.18284	16.0939	480.356	622.382	14.4650
203.074	6.18060	11.0015	480.606	622.730	14.4631
203.235	6.19312	10.9549	479.744	621.676	14.4605
203.396	6.17443	17.3803	479.722	621.732	14.4580
203.558	6.19350	11.4477	480.995	623.459	14.4566
203.719	6.19920	8.17582	482.263	625.156	14.4559
203.880	6.19324	6.77579	483.428	626.684	14.4561
204.042	6.19551	6.86691	483.196	626.358	14.4566
204.203	6.23360	7.45770	483.058	626.141	14.4572
204.364	6.27519	8.84609	482.958	625.982	14.4582
204.525	6.28062	6.95757	481.815	624.486	14.4584
204.687	6.26315	8.54709	481.596	624.197	14.4579
204.848	6.19899	11.9020	482.009	624.729	14.4567
205.009	6.17510	14.6736	481.743	624.405	14.4550
205.171	6.19028	6.10994	480.455	622.762	14.4540
205.332	6.19264	8.02362	479.003	620.883	14.4540
205.493	6.32290	11.3153	481.359	623.935	14.4539
205.655	6.31274	13.2064	481.711	624.384	14.4551
205.816	6.15232	19.2129	479.607	621.609	14.4567
205.977	6.10671	11.6240	479.998	622.091	14.4562
206.139	6.10039	19.8118	480.139	622.295	14.4555
206.300	6.10039	18.8073	479.393	621.360	14.4537
206.461	6.10039	19.9071	478.555	620.342	14.4508
206.622	6.10289	29.3560	479.115	621.161	14.4468
206.784	6.10646	25.3535	480.586	623.185	14.4421
206.945	6.10186	29.7013	481.604	624.609	14.4398
207.106	6.09652	17.0519	482.033	625.194	14.4403
207.268	6.10249	29.1944	482.666	625.968	14.4426
207.429	6.10265	21.7650	482.145	625.192	14.4453
207.590	6.09849	21.9424	480.707	623.212	14.4479
207.752	6.10466	23.2851	480.154	622.414	14.4493
207.913	6.10193	24.4958	480.328	622.629	14.4481
208.074	6.10605	25.4667	480.972	623.539	14.4444
208.236	6.10646	31.0347	480.768	623.357	14.4433
208.397	6.10784	27.1282	479.921	622.295	14.4441
208.558	6.11124	24.9370	479.510	621.798	14.4429
208.719	6.10850	32.3528	479.934	622.393	14.4427
208.881	6.11940	36.5183	481.090	623.933	14.4421
209.042	6.12777	46.9659	480.815	623.605	14.4413
209.203	6.11076	46.7868	480.020	622.592	14.4408
209.365	6.10117	43.7578	479.955	622.537	14.4402
209.526	6.10578	40.8111	479.634	622.167	14.4395
209.687	6.10250	38.4835	479.664	622.243	14.4386
209.849	6.12119	35.7763	479.867	622.524	14.4385
210.010	6.10646	40.8754	479.715	622.320	14.4389
210.171	6.10643	44.5709	479.446	621.953	14.4396
210.333	6.10627	42.8514	479.502	622.009	14.4397
210.494	6.11866	42.3379	479.579	622.097	14.4398
210.655	6.12463	46.5633	479.350	621.773	14.4407
210.816	6.12789	53.1098	480.085	622.695	14.4411
210.978	6.14229	55.5327	481.029	623.899	14.4416
211.139	6.10844	58.2104	480.857	623.643	14.4426
211.300	6.11107	57.2083	480.490	623.136	14.4426
211.462	6.11243	48.4983	480.427	623.061	14.4417
211.623	6.11252	43.1318	480.649	623.375	14.4413
211.784	6.12318	46.5153	480.492	623.204	14.4402
211.946	6.11420	37.1822	479.868	622.426	14.4394
212.107	6.11625	41.4492	479.875	622.465	14.4389
212.268	6.12836	41.3956	480.338	623.088	14.4393
212.430	6.10116	33.1864	480.541	623.350	14.4398
212.591	6.10397	35.9068	480.408	623.167	14.4396
212.752	6.10173	43.2464	480.113	622.772	14.4397
212.913	6.10039	56.5470	480.108	622.764	14.4394
213.075	6.09587	47.5444	480.443	623.209	14.4387
213.236	6.10759	43.3218	480.738	623.584	14.4390
213.397	6.10388	38.3194	480.814	623.654	14.4393
213.559	6.10039	49.3038	480.828	623.642	14.4399
213.720	6.10039	40.0255	481.182	624.073	14.4403
213.881	6.10039	32.5697	481.256	624.160	14.4401
214.043	6.09647	38.0746	481.095	623.962	14.4396
214.204	6.10195	47.1975	481.278	624.211	14.4391
214.365	6.10274	31.6225	481.643	624.678	14.4391
214.527	6.10400	30.8420	481.608	624.625	14.4393
214.688	6.10294	28.4036	481.680	624.710	14.4404
214.849	6.12426	30.4274	482.425	625.640	14.4417
215.010	6.11969	16.8740	482.452	625.615	14.4426
215.172	6.14413	29.0424	481.895	624.836	14.4427
215.333	6.21843	20.4934	481.398	624.161	14.4427
215.494	6.20997	27.6960	480.968	623.604	14.4418
215.656	6.14388	22.8597	480.780	623.383	14.4407
215.817	6.13056	20.8490	480.787	623.424	14.4386
215.978	6.15188	13.0726	481.014	623.757	14.4367
216.140	6.16886	24.4698	481.952	625.016	14.4348
216.301	6.17403	17.3041	482.874	626.234	14.4349
216.462	6.17638	16.5773	483.060	626.442	14.4376
