~VERSION INFORMATION
VERS.               2.0  :CWLS LOG ASCII STANDARD - VERSION 2.0
WRAP.                NO  :ONE LINE PER DEPTH STEP
#------------------------------------------------------------
~WELL INFORMATION
STRT.FT         1.60000  :FIRST INDEX VALUE
STOP.FT         473.426  :LAST INDEX VALUE
STEP.FT        0.000000  :STEP
NULL.            -99999  :NULL VALUE
COMP. Beaver brand hats  :COMP
WELL.                    :WELL
FLD.                     :FIELD
LOC. well at SW corner of building 75 ft east of Hwy C, New Haven MO  :LOC
LATI.                    :LATITUDE
LONG.                    :LONGITUDE
GDAT.            /NAD83  :GDAT
SRVC.              USGS  :SRVC
CTRY.                    :COUNTRY
PROV.                    :PROVINCE
STAT.          Missouri  :STAT
CNTY.    Franklin (071)  :CNTY
DATE.        05/22/2009  :DATE
UWI.    383549091130801  :UWI
API.                     :API NUMBER
LIC.                     :LICENSE NUMBER
#------------------------------------------------------------
~CURVE INFORMATION
DEPT.FT                   :DEPTH
Caliper.IN                   :Caliper
Gamma.CPS                   :Gamma
FCond 25'C.US/CM                   :FCond 25'C
FCond.US/CM                   :FCond
Temperature.DEG_C                   :Temperature
#------------------------------------------------------------
~PARAMETER INFORMATION
OTID.        Beaver Hat  :OTID
BS.               6 in.  :BS
CASD.             6 in.  :CASD
STNM.   New Haven JS-25  :STNM
LOGU.        MWSC-Rolla  :LOGU
LMF.                 LS  :LMF
APD.             0.0 ft  :APD
RMKS. SWL 82.12 ft BTOC (81.42 ft LS).  zerod tool at LS (stickup = 0.70 ft)  :RMKS
RMK1.  Mt Sopris    2PFA+2PGA  Fluid tool,, SN 3427  05-22-2009  11_30  amlogging down ~10 ft/min, error <0.5 ft  :RMK1
CASX.               PVC  :CASX
RECB.        Schumacher  :RECB
OBSR. L. Gorday (Parsons Eng.)  :OBSR
RMK2. Mt Sopris  2PGA+2PFA  gamma, SN 2952m 05-22-2009 12_30 hrs, logging up ~ 20 ft/min, depth error <0.5 ft    :RMK2
ADAT.            NGVD29  :ADAT
RMK3. Mt Sopris, 2PCA Caliper (long arms)  SN 3427, 10-11-2010, 1430 hrs, logging up, 15 ft/m. error < 0.5 ft_  :RMK3
FTYP.     Potable water  :FTYP
RMK4. Mt Sopris  HFP, heat Pulse, SN 3122, 10-11-2010   1100 hrs, Ambient conditions (no pumping) logged down,, depth error < 0.5 ft  :RMK4
DUNT.               E/M  :DUNT
RMK5.                    :RMK5
LON.           911308.1  :LON
RMK6.                    :RMK6
DRDP.          473.5 ft  :DRDP
SOFT.                    :SOFT
LAT.           383548.9  :LAT
DFLD.          81.42 ft  :DFLD
MAGN.                    :MAGN
EREF.         617.26 ft  :EREF
HYDR. Pump removed well unused. ran caliper and heat pulse on 10/11/2010  LS (PVC csg has 0.7 ft stickup)  :HYDR
PROJ. Riverfront Superfund Site  :PROJ
FIID.                ZB  :FIID
DREF.      Land surface  :DREF
TIME.             11_30  :TIME
CASB.               101  :CASB
TVER.                    :TVER
ORIE.              Vert  :ORIE
#------------------------------------------------------------
~OTHER
#------------------------------------------------------------
#<------------------LOG DATA-------------------
#DEPTH	Caliper	Gamma	FCond 25'C	FCond	Temperature
#FT	IN	CPS	US/CM	US/CM	DEG_C
~A  DEPT[FT]    Caliper[    Gamma[cp    FCond 25    FCond[uS    Temperat
# ...
270.500	6.16440	24.7128	487.283	632.418	14.3842
270.662	6.20562	18.4511	487.258	632.437	14.3814
270.823	6.19890	15.0882	487.155	632.346	14.3804
270.984	6.18153	12.8830	487.113	632.313	14.3797
271.146	6.20597	7.98341	487.026	632.222	14.3786
271.307	6.22811	9.40365	486.925	632.128	14.3769
271.468	6.21625	15.3176	486.880	632.138	14.3741
271.630	6.20652	18.1893	486.785	632.109	14.3706
271.791	6.24936	12.3400	486.747	632.133	14.3687
271.952	6.24213	20.9710	486.797	632.218	14.3682
272.114	6.26303	24.2788	486.855	632.279	14.3688
272.275	6.31291	21.4297	486.885	632.290	14.3697
272.436	6.24044	20.4167	486.951	632.353	14.3700
272.597	6.16998	22.0638	487.022	632.425	14.3704
272.759	6.16106	15.8955	487.012	632.372	14.3710
272.920	6.18835	25.7003	487.009	632.318	14.3719
273.081	6.21621	16.9268	486.998	632.271	14.3726
273.243	6.20130	12.1519	486.967	632.221	14.3724
273.404	6.22153	20.8668	486.930	632.182	14.3717
273.565	6.27014	17.4894	486.901	632.178	14.3697
273.727	6.24171	25.4509	486.876	632.217	14.3667
273.888	6.22141	27.2811	486.859	632.291	14.3649
274.049	6.33161	17.0428	486.849	632.348	14.3641
274.211	6.54169	26.5498	486.868	632.402	14.3629
274.372	6.52907	26.3846	486.915	632.454	14.3630
274.533	6.27088	12.5990	486.989	632.521	14.3639
274.694	6.22059	24.7478	487.038	632.554	14.3654
274.856	6.22339	21.7769	487.072	632.549	14.3673
275.017	6.19870	25.5260	487.187	632.646	14.3690
275.178	6.16294	25.0211	487.353	632.812	14.3709
275.340	6.16105	26.1631	487.459	632.903	14.3721
275.501	6.17612	20.3799	487.481	632.865	14.3742
275.662	6.18004	23.9325	487.480	632.782	14.3761
275.824	6.17715	14.8683	487.477	632.720	14.3765
275.985	6.19071	15.6342	487.484	632.706	14.3759
276.146	6.18484	21.0349	487.484	632.710	14.3747
276.308	6.17361	12.5231	487.477	632.720	14.3738
276.469	6.18540	8.88314	487.479	632.742	14.3722
276.630	6.21700	15.6709	487.454	632.721	14.3710
276.791	6.24473	15.4487	487.388	632.656	14.3695
276.953	6.24292	8.08402	487.301	632.570	14.3677
277.114	6.30168	9.87308	487.217	632.494	14.3665
277.275	6.48528	15.6058	487.174	632.487	14.3647
277.437	6.25149	18.1856	487.151	632.540	14.3624
277.598	6.18980	15.3085	487.135	632.608	14.3613
277.759	6.20534	10.4618	487.130	632.659	14.3601
277.921	6.23225	10.4011	487.138	632.681	14.3610
278.082	6.22061	9.63469	487.115	632.629	14.3625
278.243	6.18325	8.39319	487.092	632.582	14.3628
278.405	6.19410	7.55868	487.108	632.616	14.3616
278.566	6.22708	6.39950	487.130	632.670	14.3613
278.727	6.20603	8.40105	487.200	632.763	14.3614
278.888	6.22082	8.26115	487.259	632.832	14.3611
279.050	6.16537	6.60839	487.254	632.793	14.3618
279.211	6.17112	6.82515	487.234	632.707	14.3625
279.372	6.16764	11.2458	487.280	632.732	14.3629
279.534	6.16664	13.8630	487.328	632.812	14.3626
279.695	6.18797	6.80440	487.314	632.816	14.3632
279.856	6.16108	8.69883	487.325	632.816	14.3643
280.018	6.15005	10.5763	487.369	632.840	14.3660
280.179	6.11443	11.9383	487.463	632.946	14.3668
280.340	6.11479	10.3734	487.585	633.100	14.3680
280.502	6.12295	13.5826	487.618	633.119	14.3691
280.663	6.19023	9.58101	487.620	633.080	14.3708
280.824	6.18725	7.83545	487.658	633.073	14.3723
280.985	6.17403	9.51814	487.704	633.084	14.3725
281.147	6.17994	8.67336	487.729	633.096	14.3720
281.308	6.18043	16.4972	487.702	633.074	14.3707
281.469	6.17064	26.8704	487.687	633.083	14.3700
281.631	6.18118	43.8713	487.690	633.112	14.3695
281.792	6.23348	59.0268	487.660	633.096	14.3689
281.953	6.26991	83.2146	487.601	633.039	14.3689
282.115	6.26539	82.4616	487.575	633.035	14.3678
282.276	6.25943	108.283	487.576	633.092	14.3657
282.437	6.23447	94.2322	487.586	633.174	14.3629
282.599	6.18806	93.6666	487.582	633.243	14.3603
282.760	6.16687	60.6820	487.591	633.300	14.3590
282.921	6.20184	32.9392	487.620	633.347	14.3585
283.082	6.21778	25.1010	487.672	633.408	14.3578
283.244	6.16745	25.6109	487.766	633.502	14.3595
283.405	6.12940	23.5241	487.832	633.538	14.3621
283.566	6.12542	23.3280	487.819	633.477	14.3633
283.728	6.12245	18.4930	487.833	633.451	14.3651
283.889	6.12340	20.8906	487.819	633.409	14.3651
284.050	6.12602	22.8302	487.707	633.263	14.3654
284.212	6.12796	24.6128	487.638	633.180	14.3656
284.373	6.12211	22.8572	487.622	633.188	14.3647
284.534	6.11812	32.6184	487.636	633.254	14.3634
284.696	6.12892	19.5182	487.660	633.334	14.3627
284.857	6.13272	25.0268	487.705	633.412	14.3632
285.018	6.13576	28.5720	487.746	633.445	14.3647
285.179	6.13267	30.7973	487.792	633.448	14.3663
285.341	6.13303	43.4609	487.842	633.450	14.3669
285.502	6.13683	38.3450	487.822	633.385	14.3673
285.663	6.13140	33.8729	487.767	633.283	14.3675
285.825	6.13563	40.1028	487.727	633.207	14.3667
285.986	6.13969	37.7162	487.676	633.167	14.3648
286.147	6.13206	29.1831	487.590	633.131	14.3618
286.309	6.14813	22.0440	487.496	633.113	14.3575
286.470	6.14424	25.2979	487.395	633.088	14.3541
286.631	6.14551	21.3394	487.302	633.065	14.3507
286.793	6.16262	13.6528	487.199	633.037	14.3469
286.954	6.17430	13.3478	487.111	633.005	14.3450
287.115	6.19028	12.3934	487.089	633.019	14.3434
287.276	6.25699	17.1167	487.114	633.065	14.3430
287.438	6.24127	25.8598	487.164	633.129	14.3441
287.599	6.20334	23.1626	487.217	633.187	14.3457
287.760	6.20311	17.6732	487.246	633.194	14.3469
287.922	6.32065	13.3655	487.239	633.140	14.3488
288.083	6.46920	15.4819	487.233	633.082	14.3508
288.244	6.42292	23.6895	487.252	633.078	14.3513
288.406	6.27705	23.0627	487.307	633.160	14.3512
288.567	6.20147	25.2849	487.371	633.250	14.3513
288.728	6.16928	27.0932	487.442	633.324	14.3517
288.890	6.20183	16.4306	487.525	633.389	14.3531
289.051	6.17060	8.85297	487.591	633.414	14.3537
289.212	6.12973	7.57167	487.681	633.472	14.3542
289.373	6.15604	8.64268	487.813	633.598	14.3541
289.535	6.11442	10.7834	487.893	633.664	14.3540
289.696	6.10133	11.8678	487.894	633.617	14.3547
289.857	6.12726	9.23052	487.880	633.534	14.3557
290.019	6.14094	13.6615	487.860	633.452	14.3554
290.180	6.13126	11.5251	487.827	633.380	14.3549
290.341	6.12544	10.5315	487.754	633.290	14.3541
290.503	6.13946	11.1262	487.666	633.225	14.3518
290.664	6.13446	14.9712	487.606	633.228	14.3493
290.825	6.11697	15.2600	487.603	633.316	14.3463
290.987	6.10797	12.8312	487.629	633.439	14.3436
291.148	6.11057	13.9860	487.644	633.527	14.3413
291.309	6.10814	11.0422	487.663	633.571	14.3419
291.470	6.11409	17.3368	487.651	633.524	14.3439
291.632	6.11061	20.4217	487.648	633.473	14.3456
291.793	6.10928	21.3712	487.687	633.491	14.3465
291.954	6.11208	24.9232	487.704	633.520	14.3457
292.116	6.11508	30.8567	487.719	633.555	14.3456
292.277	6.11073	37.4032	487.760	633.609	14.3454
292.438	6.12937	40.6725	487.787	633.639	14.3456
292.600	6.16992	32.8022	487.801	633.646	14.3455
292.761	6.20869	31.4853	487.809	633.652	14.3452
292.922	6.19745	34.2860	487.842	633.691	14.3449
293.084	6.18136	36.0842	487.896	633.773	14.3445
293.245	6.16024	44.8734	487.897	633.816	14.3432
293.406	6.11767	39.4982	487.887	633.834	14.3438
293.568	6.11788	37.5728	487.939	633.894	14.3456
293.729	6.11762	29.0364	488.017	633.983	14.3486
293.890	6.11793	27.3744	488.084	634.045	14.3519
294.051	6.11986	37.6990	488.157	634.109	14.3546
294.213	6.12186	32.2819	488.216	634.149	14.3562
294.374	6.11331	27.0307	488.222	634.132	14.3568
294.535	6.11172	26.0370	488.185	634.072	14.3572
294.697	6.12417	32.6025	488.180	634.047	14.3575
294.858	6.12796	37.3865	488.219	634.093	14.3572
295.019	6.12535	37.0004	488.258	634.158	14.3569
295.181	6.12394	30.0785	488.312	634.246	14.3565
295.342	6.13900	25.3677	488.364	634.323	14.3567
295.503	6.14959	18.4443	488.383	634.332	14.3573
295.664	6.19071	13.2453	488.317	634.223	14.3579
295.826	6.20573	17.2356	488.268	634.140	14.3578
295.987	6.18749	22.6445	488.253	634.112	14.3573
296.148	6.19423	21.5061	488.186	634.053	14.3553
296.310	6.17342	18.1375	488.119	634.020	14.3543
296.471	6.14978	15.8762	488.064	633.996	14.3535
296.632	6.15480	21.3177	487.995	633.950	14.3523
296.794	6.14955	26.6575	487.961	633.942	14.3509
296.955	6.15310	31.5772	487.968	633.982	14.3500
297.116	6.12521	25.9642	487.935	633.975	14.3490
297.278	6.13474	23.0685	487.861	633.920	14.3475
