~VERSION INFORMATION
VERS.               2.0  :CWLS LOG ASCII STANDARD - VERSION 2.0
WRAP.                NO  :ONE LINE PER DEPTH STEP
#------------------------------------------------------------
~WELL INFORMATION
STRT.FT         1.60000  :FIRST INDEX VALUE
STOP.FT         473.426  :LAST INDEX VALUE
STEP.FT        0.000000  :STEP
NULL.            -99999  :NULL VALUE
COMP. Beaver brand hats  :COMP
WELL.                    :WELL
FLD.                     :FIELD
LOC. well at SW corner of building 75 ft east of Hwy C, New Haven MO  :LOC
LATI.                    :LATITUDE
LONG.                    :LONGITUDE
GDAT.            /NAD83  :GDAT
SRVC.              USGS  :SRVC
CTRY.                    :COUNTRY
PROV.                    :PROVINCE
STAT.          Missouri  :STAT
CNTY.    Franklin (071)  :CNTY
DATE.        05/22/2009  :DATE
UWI.    383549091130801  :UWI
API.                     :API NUMBER
LIC.                     :LICENSE NUMBER
#------------------------------------------------------------
~CURVE INFORMATION
DEPT.FT                   :DEPTH
Caliper.IN                   :Caliper
Gamma.CPS                   :Gamma
FCond 25'C.US/CM                   :FCond 25'C
FCond.US/CM                   :FCond
Temperature.DEG_C                   :Temperature
#------------------------------------------------------------
~PARAMETER INFORMATION
OTID.        Beaver Hat  :OTID
BS.               6 in.  :BS
CASD.             6 in.  :CASD
STNM.   New Haven JS-25  :STNM
LOGU.        MWSC-Rolla  :LOGU
LMF.                 LS  :LMF
APD.             0.0 ft  :APD
RMKS. SWL 82.12 ft BTOC (81.42 ft LS).  zerod tool at LS (stickup = 0.70 ft)  :RMKS
RMK1.  Mt Sopris    2PFA+2PGA  Fluid tool,, SN 3427  05-22-2009  11_30  amlogging down ~10 ft/min, error <0.5 ft  :RMK1
CASX.               PVC  :CASX
RECB.        Schumacher  :RECB
OBSR. L. Gorday (Parsons Eng.)  :OBSR
RMK2. Mt Sopris  2PGA+2PFA  gamma, SN 2952m 05-22-2009 12_30 hrs, logging up ~ 20 ft/min, depth error <0.5 ft    :RMK2
ADAT.            NGVD29  :ADAT
RMK3. Mt Sopris, 2PCA Caliper (long arms)  SN 3427, 10-11-2010, 1430 hrs, logging up, 15 ft/m. error < 0.5 ft_  :RMK3
FTYP.     Potable water  :FTYP
RMK4. Mt Sopris  HFP, heat Pulse, SN 3122, 10-11-2010   1100 hrs, Ambient conditions (no pumping) logged down,, depth error < 0.5 ft  :RMK4
DUNT.               E/M  :DUNT
RMK5.                    :RMK5
LON.           911308.1  :LON
RMK6.                    :RMK6
DRDP.          473.5 ft  :DRDP
SOFT.                    :SOFT
LAT.           383548.9  :LAT
DFLD.          81.42 ft  :DFLD
MAGN.                    :MAGN
EREF.         617.26 ft  :EREF
HYDR. Pump removed well unused. ran caliper and heat pulse on 10/11/2010  LS (PVC csg has 0.7 ft stickup)  :HYDR
PROJ. Riverfront Superfund Site  :PROJ
FIID.                ZB  :FIID
DREF.      Land surface  :DREF
TIME.             11_30  :TIME
CASB.               101  :CASB
TVER.                    :TVER
ORIE.              Vert  :ORIE
#------------------------------------------------------------
~OTHER
#------------------------------------------------------------
#<------------------LOG DATA-------------------
#DEPTH	Caliper	Gamma	FCond 25'C	FCond	Temperature
#FT	IN	CPS	US/CM	US/CM	DEG_C
~A  DEPT[FT]    Caliper[    Gamma[cp    FCond 25    FCond[uS    Temperat
# ...
54.9930	6.10550	21.9699	57847.7	60924.7	19.0788
55.1543	6.09504	19.3270	57846.0	60930.3	19.0755
55.3156	6.10566	16.5570	57839.3	60931.4	19.0720
55.4769	6.10039	20.3296	57624.5	60713.3	19.0690
55.6382	6.10039	14.4069	57486.5	60575.2	19.0659
55.7995	6.10039	13.1097	57425.8	60519.0	19.0626
55.9608	6.10633	12.6769	57226.8	60317.3	19.0595
56.1221	6.10062	12.5040	57195.5	60292.7	19.0559
56.2834	6.10039	16.3885	57294.6	60405.4	19.0528
56.4447	6.10602	16.1458	57203.4	60317.1	19.0496
56.6060	6.09539	23.6217	57088.8	60204.2	19.0459
56.7673	6.10518	24.5836	57093.7	60217.3	19.0428
56.9286	6.09580	27.7579	57030.5	60158.3	19.0395
57.0900	6.10536	29.5752	56950.0	60081.5	19.0358
57.2513	6.10143	33.3550	56995.7	60138.0	19.0327
57.4126	6.10039	27.0561	56887.3	60032.0	19.0293
57.5739	6.10531	29.4482	56799.7	59947.6	19.0260
57.7352	6.09681	40.0573	56858.1	60017.3	19.0226
57.8965	6.10849	46.6866	56686.9	59845.2	19.0192
58.0578	6.09866	48.0827	56522.5	59680.1	19.0156
58.2191	6.10336	46.4633	56475.5	59638.6	19.0127
58.3804	6.09762	53.6483	56425.6	59594.4	19.0091
58.5417	6.10296	56.9920	56296.6	59467.1	19.0057
58.7030	6.10224	64.4538	56327.1	59507.8	19.0021
58.8643	6.10451	50.7363	56339.4	59529.0	18.9988
59.0257	6.10244	54.9380	56165.6	59353.4	18.9957
59.1870	6.11605	48.1308	55874.0	59053.3	18.9919
59.3483	6.10178	40.2230	55780.6	58962.6	18.9892
59.5096	6.09568	44.9935	55999.5	59201.9	18.9858
59.6709	6.09317	37.6333	55950.8	59158.9	18.9822
59.8322	6.09528	44.1820	55832.6	59042.1	18.9791
59.9935	6.09698	26.6173	55831.8	59048.8	18.9760
60.1548	6.09763	20.7091	55604.1	58816.0	18.9722
60.3161	6.09718	22.7426	55459.1	58671.4	18.9687
60.4774	6.09743	20.7949	55556.6	58782.9	18.9652
60.6387	6.09739	22.1253	55384.4	58608.8	18.9616
60.8000	6.09459	15.2958	55209.3	58432.1	18.9575
60.9613	6.09462	23.2509	55184.6	58414.3	18.9542
61.1227	6.09702	19.9195	55177.1	58414.4	18.9509
61.2840	6.09779	15.5098	55144.4	58387.3	18.9481
61.4453	6.09682	14.5650	55004.0	58246.3	18.9440
61.6066	6.09799	24.3643	54877.1	58120.0	18.9406
61.7679	6.01395	36.1369	54850.1	58099.3	18.9373
61.9292	5.96102	28.4972	54764.9	58016.9	18.9339
62.0905	6.10039	29.2120	54578.8	57827.5	18.9309
62.2518	6.09640	32.2319	54783.7	58051.8	18.9277
62.4131	6.09204	24.2466	54730.3	58002.5	18.9242
62.5744	6.10039	32.4468	54243.8	57494.3	18.9214
62.7357	6.09885	23.0552	54216.6	57472.1	18.9187
62.8970	6.09632	16.6559	54172.5	57432.1	18.9152
63.0583	6.09890	11.7512	53939.8	57192.9	18.9121
63.2197	6.09571	12.0523	53839.5	57093.2	18.9096
63.3810	6.09910	16.1010	54103.5	57379.9	18.9068
63.5423	6.09443	13.7844	54134.7	57419.7	18.9040
63.7036	6.09586	15.0136	53811.0	57083.0	18.9008
63.8649	6.09941	11.3773	53621.4	56889.0	18.8975
64.0262	6.09520	6.17628	53446.0	56709.8	18.8945
64.1875	6.10039	5.23582	53381.9	56649.2	18.8910
64.3488	6.09971	10.1478	53347.9	56620.1	18.8883
64.5101	6.09490	12.8719	53085.6	56347.6	18.8852
64.6714	6.09991	14.9747	52983.8	56246.2	18.8824
64.8327	6.09470	16.5268	53021.6	56292.7	18.8794
64.9940	6.10012	19.9167	52905.3	56175.6	18.8762
65.1554	6.09434	20.5522	52788.7	56058.7	18.8730
65.3167	6.09487	23.2199	52673.5	55942.5	18.8703
65.4780	6.09433	29.4704	52592.8	55862.7	18.8675
65.6393	6.10026	33.1585	52520.0	55791.7	18.8643
65.8006	6.10039	32.2469	52457.8	55732.1	18.8615
65.9619	6.08892	29.5773	52416.1	55694.1	18.8583
66.1232	6.09952	37.0203	52318.2	55596.2	18.8555
66.2845	6.09536	38.1482	52194.4	55470.6	18.8526
66.4458	6.09981	32.5313	52143.3	55422.9	18.8494
66.6071	6.09506	29.8938	52100.5	55383.7	18.8466
66.7684	6.10478	29.3422	51994.9	55276.9	18.8441
66.9297	6.09620	33.6653	51862.2	55140.8	18.8413
67.0910	6.09432	37.7332	51699.8	54973.5	18.8383
67.2524	6.09432	36.5522	51574.6	54846.3	18.8356
67.4137	6.09915	34.4735	51736.8	55025.0	18.8327
67.5750	6.09094	36.3587	51615.2	54901.4	18.8298
67.7363	6.09750	29.1244	51303.1	54575.3	18.8266
67.8976	6.09587	30.4814	51247.5	54521.1	18.8247
68.0589	6.09874	28.1875	51194.2	54469.5	18.8212
68.2202	6.09607	34.8015	51087.4	54361.7	18.8187
68.3815	6.09854	31.7991	50893.3	54160.2	18.8158
68.5428	6.10039	24.2869	50821.9	54089.2	18.8129
68.7041	6.09637	29.2414	50748.3	54015.8	18.8105
68.8654	6.09824	23.6433	50656.2	53922.3	18.8081
69.0267	6.09276	42.6900	50686.2	53959.0	18.8049
69.1881	6.09568	29.8491	50595.8	53868.0	18.8025
69.3494	6.09711	30.0627	50438.2	53705.5	18.7996
69.5107	6.09807	43.6665	50302.1	53565.7	18.7970
69.6720	6.09698	36.4031	50185.5	53446.2	18.7942
69.8333	6.09763	38.3061	50123.8	53385.6	18.7909
69.9946	6.09718	37.0543	50003.9	53263.2	18.7883
70.1559	6.09743	51.4770	49885.0	53141.2	18.7856
70.3172	6.10039	49.4386	49734.8	52985.8	18.7827
70.4785	6.09749	43.0564	49541.2	52784.5	18.7800
70.6398	6.09713	42.1717	49491.4	52736.5	18.7771
70.8011	6.09769	33.8038	49483.0	52732.3	18.7743
70.9624	6.09692	46.8076	49282.8	52524.0	18.7712
71.1237	6.09539	48.9914	49112.2	52347.0	18.7685
71.2851	6.09305	51.0194	49018.5	52251.5	18.7658
71.4464	6.09809	40.7488	48979.8	52215.0	18.7627
71.6077	6.09652	35.3628	48881.4	52115.2	18.7601
71.7690	6.10039	28.8502	48746.0	51975.8	18.7571
71.9303	6.09640	20.2145	48677.5	51907.8	18.7541
72.0916	6.09393	21.4995	48558.7	51786.0	18.7511
72.2529	6.10141	19.1889	48411.2	51633.6	18.7480
72.4142	6.09243	20.3861	48354.0	51578.1	18.7446
72.5755	6.09880	16.9679	48302.3	51528.7	18.7414
72.7368	6.09581	13.4269	48224.3	51450.7	18.7381
72.8981	6.10039	15.1347	48158.6	51385.6	18.7351
73.0594	6.09910	13.3691	47987.4	51207.7	18.7331
73.2208	6.09551	17.5314	47906.2	51125.8	18.7300
73.3821	6.10039	14.8676	47871.9	51094.4	18.7267
73.5434	6.09950	12.9165	47732.6	50950.9	18.7235
73.7047	6.09479	16.7853	47587.0	50800.7	18.7203
73.8660	6.09510	13.9062	47467.8	50678.8	18.7170
74.0273	6.10039	13.9098	47309.5	50515.1	18.7137
74.1886	6.09981	14.9417	47174.4	50375.6	18.7104
74.3499	6.09480	17.3437	47054.2	50252.4	18.7067
74.5112	6.10001	14.4232	46898.4	50091.8	18.7031
74.6725	6.09460	14.0943	46817.3	50010.2	18.7000
74.8338	6.10022	19.7136	46702.6	49892.5	18.6964
74.9951	6.09205	17.5846	46519.7	49702.4	18.6930
75.1564	5.90278	11.7547	46405.1	49585.3	18.6896
75.3178	6.10206	13.7684	46291.7	49469.3	18.6858
75.4791	6.08895	18.2603	46377.9	49566.9	18.6824
75.6404	6.10546	17.7389	46302.7	49492.0	18.6783
75.8017	6.08956	16.7235	46120.5	49302.8	18.6747
75.9630	6.09932	12.1726	46010.2	49190.8	18.6704
76.1243	6.09496	6.97843	45802.1	48974.1	18.6668
76.2856	6.09965	6.99341	45741.9	48915.0	18.6631
76.4469	6.09516	10.5558	45697.7	48873.7	18.6588
76.6082	6.09945	8.84125	45610.7	48786.3	18.6551
76.7695	6.10039	11.6136	45476.9	48648.9	18.6505
76.9308	6.09546	8.57839	45308.5	48475.3	18.6463
77.0921	6.09915	8.39320	45154.3	48316.1	18.6425
77.2535	6.09610	5.95307	45076.3	48238.4	18.6380
77.4148	6.09908	10.4103	45034.4	48199.2	18.6340
77.5761	6.09587	12.0106	44946.1	48110.0	18.6297
77.7374	6.09874	12.3246	44665.8	47815.5	18.6255
77.8987	6.10039	10.7013	44525.9	47671.3	18.6216
78.0600	6.09617	15.2662	44583.1	47738.1	18.6174
78.2213	6.09844	15.8719	44472.4	47625.2	18.6128
78.3826	6.09674	14.3622	44323.7	47471.6	18.6086
78.5439	6.09452	11.6731	44220.5	47367.0	18.6037
78.7052	6.09432	28.5072	44116.0	47260.6	18.5997
78.8665	6.09804	23.6791	44009.0	47150.9	18.5954
79.0278	6.12567	18.2286	43845.3	46980.7	18.5907
79.1891	6.15657	25.1671	43803.8	46941.8	18.5862
79.3505	6.18051	22.5798	43767.4	46908.1	18.5821
79.5118	6.18086	19.5821	43598.4	46732.0	18.5773
79.6731	6.17587	15.8901	43561.4	46697.8	18.5723
79.8344	6.17925	17.3273	43540.8	46681.2	18.5673
79.9957	6.17625	19.2746	43339.6	46471.1	18.5623
80.1570	6.17794	22.5002	43248.9	46379.2	18.5573
80.3183	6.17853	13.3730	43283.2	46421.4	18.5518
80.4796	6.17589	12.4491	43183.3	46319.8	18.5464
80.6409	6.18185	20.8823	43053.6	46185.3	18.5413
80.8022	6.18282	24.1933	42963.2	46093.0	18.5351
80.9635	6.17686	20.5831	42726.8	45843.9	18.5290
81.1248	6.17778	29.9170	21678.0	23260.7	18.3853
81.2862	6.18093	31.0242	450.741	498.329	17.2781
81.4475	6.17738	34.8965	473.030	549.690	16.2980
81.6088	6.18333	35.0840	456.156	550.218	15.9053
81.7701	6.17925	33.5291	449.338	550.892	15.7044
