~VERSION INFORMATION
VERS.               2.0  :CWLS LOG ASCII STANDARD - VERSION 2.0
WRAP.                NO  :ONE LINE PER DEPTH STEP
#------------------------------------------------------------
~WELL INFORMATION
STRT.FT         1.60000  :FIRST INDEX VALUE
STOP.FT         473.426  :LAST INDEX VALUE
STEP.FT        0.000000  :STEP
NULL.            -99999  :NULL VALUE
COMP. Beaver brand hats  :COMP
WELL.                    :WELL
FLD.                     :FIELD
LOC. well at SW corner of building 75 ft east of Hwy C, New Haven MO  :LOC
LATI.                    :LATITUDE
LONG.                    :LONGITUDE
GDAT.            /NAD83  :GDAT
SRVC.              USGS  :SRVC
CTRY.                    :COUNTRY
PROV.                    :PROVINCE
STAT.          Missouri  :STAT
CNTY.    Franklin (071)  :CNTY
DATE.        05/22/2009  :DATE
UWI.    383549091130801  :UWI
API.                     :API NUMBER
LIC.                     :LICENSE NUMBER
#------------------------------------------------------------
~CURVE INFORMATION
DEPT.FT                   :DEPTH
Caliper.IN                   :Caliper
Gamma.CPS                   :Gamma
FCond 25'C.US/CM                   :FCond 25'C
FCond.US/CM                   :FCond
Temperature.DEG_C                   :Temperature
#------------------------------------------------------------
~PARAMETER INFORMATION
OTID.        Beaver Hat  :OTID
BS.               6 in.  :BS
CASD.             6 in.  :CASD
STNM.   New Haven JS-25  :STNM
LOGU.        MWSC-Rolla  :LOGU
LMF.                 LS  :LMF
APD.             0.0 ft  :APD
RMKS. SWL 82.12 ft BTOC (81.42 ft LS).  zerod tool at LS (stickup = 0.70 ft)  :RMKS
RMK1.  Mt Sopris    2PFA+2PGA  Fluid tool,, SN 3427  05-22-2009  11_30  amlogging down ~10 ft/min, error <0.5 ft  :RMK1
CASX.               PVC  :CASX
RECB.        Schumacher  :RECB
OBSR. L. Gorday (Parsons Eng.)  :OBSR
RMK2. Mt Sopris  2PGA+2PFA  gamma, SN 2952m 05-22-2009 12_30 hrs, logging up ~ 20 ft/min, depth error <0.5 ft    :RMK2
ADAT.            NGVD29  :ADAT
RMK3. Mt Sopris, 2PCA Caliper (long arms)  SN 3427, 10-11-2010, 1430 hrs, logging up, 15 ft/m. error < 0.5 ft_  :RMK3
FTYP.     Potable water  :FTYP
RMK4. Mt Sopris  HFP, heat Pulse, SN 3122, 10-11-2010   1100 hrs, Ambient conditions (no pumping) logged down,, depth error < 0.5 ft  :RMK4
DUNT.               E/M  :DUNT
RMK5.                    :RMK5
LON.           911308.1  :LON
RMK6.                    :RMK6
DRDP.          473.5 ft  :DRDP
SOFT.                    :SOFT
LAT.           383548.9  :LAT
DFLD.          81.42 ft  :DFLD
MAGN.                    :MAGN
EREF.         617.26 ft  :EREF
HYDR. Pump removed well unused. ran caliper and heat pulse on 10/11/2010  LS (PVC csg has 0.7 ft stickup)  :HYDR
PROJ. Riverfront Superfund Site  :PROJ
FIID.                ZB  :FIID
DREF.      Land surface  :DREF
TIME.             11_30  :TIME
CASB.               101  :CASB
TVER.                    :TVER
ORIE.              Vert  :ORIE
#------------------------------------------------------------
~OTHER
#------------------------------------------------------------
#<------------------LOG DATA-------------------
#DEPTH	Caliper	Gamma	FCond 25'C	FCond	Temperature
#FT	IN	CPS	US/CM	US/CM	DEG_C
~A  DEPT[FT]    Caliper[    Gamma[cp    FCond 25    FCond[uS    Temperat
# ...
459.069	6.08262	13.0367	490.753	639.812	14.2527
459.231	6.08349	14.5129	490.784	639.835	14.2536
459.392	6.08483	11.5578	490.797	639.842	14.2543
459.553	6.07993	15.6543	490.831	639.884	14.2546
459.715	6.08306	13.4983	490.844	639.899	14.2551
459.876	6.08412	11.0736	490.842	639.889	14.2552
460.037	6.08540	11.5690	490.840	639.886	14.2549
460.199	6.07964	13.0654	490.823	639.869	14.2548
460.360	6.08221	12.9999	490.812	639.852	14.2550
460.521	6.07926	8.42397	490.798	639.831	14.2549
460.683	6.08124	8.37906	490.795	639.831	14.2539
460.844	6.07936	9.07969	490.825	639.869	14.2530
461.005	6.08288	8.42072	490.844	639.887	14.2524
461.167	6.08187	6.11524	490.845	639.890	14.2515
461.328	6.08430	12.7522	490.866	639.918	14.2520
461.489	6.09503	18.6938	490.870	639.921	14.2527
461.650	6.08306	15.7951	490.864	639.912	14.2555
461.812	6.08286	12.1895	490.863	639.911	14.2590
461.973	6.07872	10.1430	490.859	639.906	14.2648
462.134	6.07872	11.1733	490.853	639.899	14.2685
462.296	6.07872	13.4471	490.842	639.892	14.2709
462.457	6.08721	12.9975	490.860	639.914	14.2714
462.618	6.08194	13.0692	490.893	639.963	14.2713
462.780	6.08298	11.2618	490.876	639.980	14.2698
462.941	6.07903	9.30893	490.863	639.987	14.2702
463.102	6.07872	16.2413	490.881	639.989	14.2724
463.264	6.07872	18.9682	490.919	640.018	14.2735
463.425	6.08136	13.2424	490.939	640.050	14.2736
463.586	6.08287	13.1415	490.953	640.071	14.2740
463.747	6.07939	13.8362	490.969	640.075	14.2750
463.909	6.08121	13.0219	490.933	640.026	14.2744
464.070	6.07929	12.4648	490.919	640.022	14.2739
464.231	6.07872	11.8192	490.946	640.053	14.2742
464.393	6.07872	12.3696	490.961	640.060	14.2748
464.554	6.07872	16.6262	490.964	640.057	14.2743
464.715	6.07872	12.2724	490.943	640.022	14.2746
464.877	6.08504	11.4952	490.941	640.010	14.2749
465.038	6.08003	13.8286	490.969	640.043	14.2746
465.199	6.08123	10.9983	490.952	640.022	14.2743
465.361	6.08306	13.1392	490.941	640.008	14.2746
465.522	6.07732	18.1365	490.969	640.041	14.2757
465.683	6.08278	15.1007	490.988	640.074	14.2756
465.844	6.07795	14.4145	490.990	640.095	14.2748
466.006	6.07892	18.0168	490.992	640.099	14.2742
466.167	6.07789	12.7900	491.008	640.109	14.2733
466.328	6.08192	19.3968	490.992	640.094	14.2728
466.490	6.08158	8.91226	490.979	640.087	14.2726
466.651	6.07797	9.56495	490.999	640.110	14.2719
466.812	6.08102	20.2703	490.974	640.071	14.2711
466.974	6.07861	6.72281	490.969	640.063	14.2701
467.135	6.07869	14.4315	491.004	640.106	14.2694
467.296	6.07891	9.72204	491.025	640.117	14.2689
467.457	6.07840	26.0724	491.042	640.128	14.2677
467.619	6.08038	8.71991	491.022	640.112	14.2659
467.780	6.07777	6.71229	491.035	640.133	14.2649
467.941	6.07872	18.5027	491.073	640.185	14.2630
468.103	6.07872	16.2675	491.009	640.093	14.2637
468.264	6.07708	15.9584	490.986	640.046	14.2646
468.425	6.07705	14.5640	491.046	640.116	14.2658
468.587	6.08069	11.3138	491.070	640.146	14.2679
468.748	6.07872	16.0293	491.098	640.186	14.2712
468.909	6.07966	11.5575	491.108	640.199	14.2711
469.071	6.08084	9.03617	491.109	640.207	14.2709
469.232	6.07993	8.75000	491.115	640.223	14.2705
469.393	6.08148	12.1319	491.114	640.217	14.2707
469.555	6.07534	10.0284	491.148	640.250	14.2717
469.716	6.07304	7.86962	491.168	640.274	14.2743
469.877	6.08214	16.0966	491.158	640.262	14.2744
470.038	6.07872	20.7895	491.139	640.238	14.2755
470.200	6.07950	13.1335	491.139	640.238	14.2762
470.361	6.08306	8.59051	491.165	640.278	14.2764
470.522	6.08243	12.9968	491.143	640.246	14.2751
470.684	6.07891	11.1914	491.133	640.220	14.2725
470.845	6.08031	10.7211	491.173	640.268	14.2695
471.006	6.08170	11.0726	491.199	640.307	14.2653
471.168	6.08465	-99999.0	491.181	640.287	14.2622
471.329	6.08946	-99999.0	491.164	640.252	14.2603
471.490	6.08637	-99999.0	491.140	640.210	14.2561
471.652	6.09165	-99999.0	491.108	640.163	14.2514
471.813	6.08947	-99999.0	491.108	640.158	14.2460
471.974	6.09772	-99999.0	491.119	640.181	14.2422
472.135	6.09224	-99999.0	491.148	640.234	14.2372
472.297	-99999.0	-99999.0	491.174	640.276	14.2312
472.458	-99999.0	-99999.0	491.183	640.289	14.2267
472.619	-99999.0	-99999.0	491.149	640.260	14.2169
472.781	-99999.0	-99999.0	491.085	640.193	14.1695
472.942	-99999.0	-99999.0	491.060	640.164	14.1694
473.103	-99999.0	-99999.0	490.277	639.147	14.1691
473.265	-99999.0	-99999.0	488.638	637.004	-99999.0
473.426	-99999.0	-99999.0	-99999.0	-99999.0	-99999.0
