~VERSION INFORMATION
VERS.               2.0  :CWLS LOG ASCII STANDARD - VERSION 2.0
WRAP.                NO  :ONE LINE PER DEPTH STEP
#------------------------------------------------------------
~WELL INFORMATION
STRT.FT         1.60000  :FIRST INDEX VALUE
STOP.FT         473.426  :LAST INDEX VALUE
STEP.FT        0.000000  :STEP
NULL.            -99999  :NULL VALUE
COMP. Beaver brand hats  :COMP
WELL.                    :WELL
FLD.                     :FIELD
LOC. well at SW corner of building 75 ft east of Hwy C, New Haven MO  :LOC
LATI.                    :LATITUDE
LONG.                    :LONGITUDE
GDAT.            /NAD83  :GDAT
SRVC.              USGS  :SRVC
CTRY.                    :COUNTRY
PROV.                    :PROVINCE
STAT.          Missouri  :STAT
CNTY.    Franklin (071)  :CNTY
DATE.        05/22/2009  :DATE
UWI.    383549091130801  :UWI
API.                     :API NUMBER
LIC.                     :LICENSE NUMBER
#------------------------------------------------------------
~CURVE INFORMATION
DEPT.FT                   :DEPTH
Caliper.IN                   :Caliper
Gamma.CPS                   :Gamma
FCond 25'C.US/CM                   :FCond 25'C
FCond.US/CM                   :FCond
Temperature.DEG_C                   :Temperature
#------------------------------------------------------------
~PARAMETER INFORMATION
OTID.        Beaver Hat  :OTID
BS.               6 in.  :BS
CASD.             6 in.  :CASD
STNM.   New Haven JS-25  :STNM
LOGU.        MWSC-Rolla  :LOGU
LMF.                 LS  :LMF
APD.             0.0 ft  :APD
RMKS. SWL 82.12 ft BTOC (81.42 ft LS).  zerod tool at LS (stickup = 0.70 ft)  :RMKS
RMK1.  Mt Sopris    2PFA+2PGA  Fluid tool,, SN 3427  05-22-2009  11_30  amlogging down ~10 ft/min, error <0.5 ft  :RMK1
CASX.               PVC  :CASX
RECB.        Schumacher  :RECB
OBSR. L. Gorday (Parsons Eng.)  :OBSR
RMK2. Mt Sopris  2PGA+2PFA  gamma, SN 2952m 05-22-2009 12_30 hrs, logging up ~ 20 ft/min, depth error <0.5 ft    :RMK2
ADAT.            NGVD29  :ADAT
RMK3. Mt Sopris, 2PCA Caliper (long arms)  SN 3427, 10-11-2010, 1430 hrs, logging up, 15 ft/m. error < 0.5 ft_  :RMK3
FTYP.     Potable water  :FTYP
RMK4. Mt Sopris  HFP, heat Pulse, SN 3122, 10-11-2010   1100 hrs, Ambient conditions (no pumping) logged down,, depth error < 0.5 ft  :RMK4
DUNT.               E/M  :DUNT
RMK5.                    :RMK5
LON.           911308.1  :LON
RMK6.                    :RMK6
DRDP.          473.5 ft  :DRDP
SOFT.                    :SOFT
LAT.           383548.9  :LAT
DFLD.          81.42 ft  :DFLD
MAGN.                    :MAGN
EREF.         617.26 ft  :EREF
HYDR. Pump removed well unused. ran caliper and heat pulse on 10/11/2010  LS (PVC csg has 0.7 ft stickup)  :HYDR
PROJ. Riverfront Superfund Site  :PROJ
FIID.                ZB  :FIID
DREF.      Land surface  :DREF
TIME.             11_30  :TIME
CASB.               101  :CASB
TVER.                    :TVER
ORIE.              Vert  :ORIE
#------------------------------------------------------------
~OTHER
#------------------------------------------------------------
#<------------------LOG DATA-------------------
#DEPTH	Caliper	Gamma	FCond 25'C	FCond	Temperature
#FT	IN	CPS	US/CM	US/CM	DEG_C
~A  DEPT[FT]    Caliper[    Gamma[cp    FCond 25    FCond[uS    Temperat
# ...
81.9314	6.17925	34.0724	445.398	550.941	15.5817
82.0927	6.17925	38.7963	442.802	550.682	15.5100
82.2540	6.17738	41.7384	441.072	550.258	15.4772
82.4153	6.17533	32.7094	441.169	550.149	15.4978
82.5766	6.18116	35.4695	421.730	529.253	15.2157
82.7379	6.17098	31.1318	400.212	507.117	15.1891
82.8992	6.18489	37.2810	399.127	506.243	15.1810
83.0605	6.18134	29.4846	398.688	505.852	15.1751
83.2218	6.17515	17.2358	398.391	505.566	15.1719
83.3832	6.18356	14.6721	398.142	505.346	15.1666
83.5445	6.17475	20.6681	397.888	505.144	15.1626
83.7058	6.18396	14.2704	397.651	504.949	15.1577
83.8671	6.17361	7.25979	397.383	504.745	15.1503
84.0284	6.17821	9.26132	397.088	504.557	15.1411
84.1897	6.18495	11.6872	396.816	504.433	15.1308
84.3510	6.17925	13.1570	396.594	504.362	15.1221
84.5123	6.17925	12.3866	396.387	504.302	15.1138
84.6736	6.17918	11.6735	396.185	504.236	15.1071
84.8349	6.17322	11.6752	396.041	504.168	15.1046
84.9962	6.19100	9.87922	395.928	504.058	15.1040
85.1575	6.17813	11.4346	395.783	503.894	15.1019
85.3189	6.17343	15.1458	395.620	503.719	15.1000
85.4802	6.18445	14.7032	395.446	503.546	15.0968
85.6415	6.17426	13.1491	395.275	503.400	15.0932
85.8028	6.18701	10.9632	395.140	503.286	15.0918
85.9641	6.17506	14.1066	395.004	503.168	15.0882
86.1254	6.18364	23.4757	394.832	503.033	15.0826
86.2867	6.17507	20.4227	394.666	502.895	15.0792
86.4480	6.17821	17.2162	394.563	502.794	15.0773
86.6093	6.17925	19.4628	394.463	502.692	15.0743
86.7706	6.17925	27.4264	394.326	502.562	15.0722
86.9319	6.17925	19.5157	394.169	502.407	15.0697
87.0932	6.18388	22.4443	394.010	502.254	15.0670
87.2545	6.17628	25.7068	393.868	502.119	15.0642
87.4159	6.18203	40.7833	393.716	501.956	15.0614
87.5772	6.17668	47.9354	393.544	501.770	15.0574
87.7385	6.17741	51.2614	393.372	501.597	15.0537
87.8998	6.18337	49.2789	393.204	501.416	15.0514
88.0611	6.18131	56.3504	393.031	501.232	15.0491
88.2224	6.17534	44.0875	392.864	501.069	15.0467
88.3837	6.17943	36.3502	392.633	500.826	15.0426
88.5450	6.18075	26.3425	392.366	500.538	15.0390
88.7063	6.17925	18.0844	392.145	500.307	15.0365
88.8676	6.17925	11.6469	391.956	500.126	15.0338
89.0289	6.17585	12.7953	391.795	499.980	15.0311
89.1902	6.18311	13.4033	391.662	499.870	15.0277
89.3516	6.18177	5.10599	391.540	499.769	15.0245
89.5129	6.17940	11.0060	391.429	499.678	15.0214
89.6742	6.17931	6.17517	391.329	499.606	15.0190
89.8355	6.17609	6.55757	391.226	499.523	15.0169
89.9968	6.18206	7.68808	391.124	499.435	15.0157
90.1581	6.18262	10.9726	391.026	499.344	15.0144
90.3194	6.17925	10.6069	390.938	499.273	15.0127
90.4807	6.17925	10.0608	390.854	499.208	15.0104
90.6420	6.17925	5.24600	390.760	499.119	15.0087
90.8033	6.18072	6.99583	390.672	499.030	15.0072
90.9646	6.17952	9.70809	390.597	498.971	15.0051
91.1259	6.17738	9.68577	390.501	498.881	15.0042
91.2873	6.18133	7.66141	390.402	498.775	15.0023
91.4486	6.17697	9.07437	390.331	498.710	15.0013
91.6099	6.18304	7.71157	390.244	498.622	15.0005
91.7712	6.17806	10.7439	390.135	498.511	14.9993
91.9325	6.18084	10.6267	390.047	498.426	14.9984
92.0938	6.18235	9.74642	389.985	498.373	14.9973
92.2551	6.17596	13.4496	389.930	498.319	14.9970
92.4164	6.18275	13.3584	389.855	498.238	14.9961
92.5777	6.17674	14.2011	389.768	498.146	14.9959
92.7390	6.18814	12.4395	389.703	498.074	14.9957
92.9003	6.17450	15.5390	389.618	497.984	14.9939
93.0616	6.18098	19.4251	389.534	497.905	14.9911
93.2229	6.17847	17.8466	389.472	497.860	14.9887
93.3843	6.17430	17.1048	389.384	497.769	14.9877
93.5456	6.18275	13.3994	389.336	497.715	14.9869
93.7069	6.17973	15.5909	389.287	497.658	14.9866
93.8682	6.18495	15.8197	389.212	497.565	14.9857
94.0295	6.17935	14.2884	389.163	497.521	14.9839
94.1908	6.18105	15.9858	389.100	497.461	14.9828
94.3521	6.17331	13.7720	389.026	497.390	14.9815
94.5134	6.18307	17.4848	388.984	497.355	14.9821
94.6747	6.16812	19.3151	388.943	497.306	14.9820
94.8360	6.18465	18.4642	388.892	497.244	14.9815
94.9973	6.17385	22.4725	388.848	497.188	14.9812
95.1586	6.18445	19.6873	388.805	497.141	14.9806
95.3200	6.17979	20.0318	388.755	497.088	14.9801
95.4813	6.18469	21.2533	388.707	497.035	14.9792
95.6426	6.17466	21.7803	388.680	497.004	14.9781
95.8039	6.18365	22.4901	388.650	496.966	14.9762
95.9652	6.17507	27.9706	388.609	496.944	14.9738
96.1265	6.18324	20.2985	388.575	496.937	14.9736
96.2878	6.18040	20.8062	388.519	496.869	14.9740
96.4491	6.17925	27.9235	388.463	496.791	14.9744
96.6104	6.17925	29.8536	388.441	496.758	14.9744
96.7717	6.17925	27.3666	388.433	496.745	14.9747
96.9330	6.18624	21.7461	388.423	496.727	14.9747
97.0943	6.17738	23.5317	388.367	496.661	14.9746
97.2556	6.18183	19.1446	388.290	496.573	14.9743
97.4170	6.17689	27.1108	388.227	496.496	14.9740
97.5783	6.18554	16.3596	388.154	496.405	14.9735
97.7396	6.17934	23.2910	388.096	496.331	14.9731
97.9009	6.18102	23.5088	388.006	496.220	14.9724
98.0622	6.17769	29.3946	387.950	496.155	14.9717
98.2235	6.18061	17.3387	387.958	496.167	14.9708
98.3848	6.17810	24.4375	387.865	496.051	14.9695
98.5461	6.18372	18.9294	387.642	495.778	14.9684
98.7074	6.18116	33.2050	387.539	495.655	14.9675
98.8687	6.18461	31.8372	387.496	495.600	14.9659
99.0300	6.19910	22.2369	387.378	495.457	14.9645
99.1913	6.20042	32.6333	387.335	495.422	14.9631
99.3527	6.19144	26.0381	387.338	495.443	14.9619
99.5140	6.18822	39.3089	387.534	495.724	14.9598
99.6753	6.19011	21.6453	389.077	497.736	14.9575
99.8366	6.17095	31.8221	392.171	501.720	14.9559
99.9979	6.15672	19.4241	394.543	504.777	14.9552
100.159	6.16462	16.0443	396.193	506.909	14.9549
100.320	6.22339	14.2326	396.987	507.949	14.9545
100.482	6.35553	16.3478	396.245	507.022	14.9532
100.643	6.31705	11.2390	394.296	504.547	14.9515
100.804	6.13867	8.70460	392.567	502.364	14.9498
100.966	6.13471	8.61132	392.216	501.961	14.9463
101.127	6.13907	9.56477	392.581	502.490	14.9427
101.288	6.13610	8.94836	394.743	505.310	14.9404
101.450	6.15568	7.03984	396.716	507.873	14.9375
101.611	6.18012	10.0722	396.492	507.602	14.9355
101.772	6.20061	15.8999	396.098	507.087	14.9333
101.934	6.19936	17.7118	396.142	507.132	14.9315
102.095	6.18918	19.7481	396.381	507.423	14.9322
102.256	6.19641	22.5147	396.801	507.942	14.9324
102.418	6.17786	32.3543	396.814	507.956	14.9308
102.579	6.21161	32.6439	397.041	508.259	14.9286
102.740	6.13072	33.3530	397.337	508.639	14.9274
102.901	6.12994	28.8931	397.144	508.394	14.9270
103.063	6.12466	27.9335	397.277	508.569	14.9269
103.224	6.12350	26.9443	397.742	509.167	14.9260
103.385	6.11374	22.9174	397.865	509.318	14.9253
103.547	6.12814	18.7881	397.211	508.463	14.9252
103.708	6.13088	20.0944	396.456	507.486	14.9246
103.869	6.13400	23.0463	396.217	507.168	14.9245
104.031	6.13056	23.6519	396.148	507.068	14.9238
104.192	6.11700	19.6255	396.141	507.062	14.9219
104.353	6.13043	13.8571	396.084	507.000	14.9190
104.515	6.12489	14.9393	395.895	506.768	14.9158
104.676	6.12778	19.3468	395.758	506.603	14.9135
104.837	6.13616	21.7961	395.695	506.540	14.9123
104.998	6.15892	20.1987	395.752	506.645	14.9106
105.160	6.15019	22.6459	396.015	507.029	14.9088
105.321	6.16491	21.8616	396.154	507.238	14.9079
105.482	6.14621	19.7161	396.157	507.239	14.9076
105.644	6.16336	23.9406	396.144	507.201	14.9074
105.805	6.16210	32.4305	396.101	507.131	14.9072
105.966	6.15613	38.3676	396.089	507.124	14.9068
106.128	6.15981	40.4216	396.283	507.390	14.9061
106.289	6.16578	49.1022	396.487	507.674	14.9046
106.450	6.15788	58.1090	396.453	507.651	14.9038
106.612	6.16403	34.6478	396.429	507.629	14.9037
106.773	6.16270	36.5749	396.543	507.776	14.9035
106.934	6.15674	35.8760	396.665	507.939	14.9016
107.095	6.16342	32.6037	396.780	508.104	14.8993
107.257	6.17947	23.7865	396.827	508.163	14.8998
107.418	6.19737	14.4588	396.686	507.951	14.9008
107.579	6.22309	25.7833	396.679	507.914	14.9000
107.741	6.23316	25.8381	396.879	508.167	14.8980
107.902	6.24456	23.7116	396.886	508.198	14.8958
108.063	6.25927	30.3551	396.623	507.892	14.8938
108.225	6.25716	20.0051	396.316	507.520	14.8922
108.386	6.27839	26.4340	394.940	505.775	14.8912
108.547	6.30645	33.2513	392.892	503.172	14.8898
108.709	6.28065	37.2496	392.048	502.116	14.8877
