~VERSION INFORMATION
VERS.               2.0  :CWLS LOG ASCII STANDARD - VERSION 2.0
WRAP.                NO  :ONE LINE PER DEPTH STEP
#------------------------------------------------------------
~WELL INFORMATION
STRT.FT         1.60000  :FIRST INDEX VALUE
STOP.FT         473.426  :LAST INDEX VALUE
STEP.FT        0.000000  :STEP
NULL.            -99999  :NULL VALUE
COMP. Beaver brand hats  :COMP
WELL.                    :WELL
FLD.                     :FIELD
LOC. well at SW corner of building 75 ft east of Hwy C, New Haven MO  :LOC
LATI.                    :LATITUDE
LONG.                    :LONGITUDE
GDAT.            /NAD83  :GDAT
SRVC.              USGS  :SRVC
CTRY.                    :COUNTRY
PROV.                    :PROVINCE
STAT.          Missouri  :STAT
CNTY.    Franklin (071)  :CNTY
DATE.        05/22/2009  :DATE
UWI.    383549091130801  :UWI
API.                     :API NUMBER
LIC.                     :LICENSE NUMBER
#------------------------------------------------------------
~CURVE INFORMATION
DEPT.FT                   :DEPTH
Caliper.IN                   :Caliper
Gamma.CPS                   :Gamma
FCond 25'C.US/CM                   :FCond 25'C
FCond.US/CM                   :FCond
Temperature.DEG_C                   :Temperature
#------------------------------------------------------------
~PARAMETER INFORMATION
OTID.        Beaver Hat  :OTID
BS.               6 in.  :BS
CASD.             6 in.  :CASD
STNM.   New Haven JS-25  :STNM
LOGU.        MWSC-Rolla  :LOGU
LMF.                 LS  :LMF
APD.             0.0 ft  :APD
RMKS. SWL 82.12 ft BTOC (81.42 ft LS).  zerod tool at LS (stickup = 0.70 ft)  :RMKS
RMK1.  Mt Sopris    2PFA+2PGA  Fluid tool,, SN 3427  05-22-2009  11_30  amlogging down ~10 ft/min, error <0.5 ft  :RMK1
CASX.               PVC  :CASX
RECB.        Schumacher  :RECB
OBSR. L. Gorday (Parsons Eng.)  :OBSR
RMK2. Mt Sopris  2PGA+2PFA  gamma, SN 2952m 05-22-2009 12_30 hrs, logging up ~ 20 ft/min, depth error <0.5 ft    :RMK2
ADAT.            NGVD29  :ADAT
RMK3. Mt Sopris, 2PCA Caliper (long arms)  SN 3427, 10-11-2010, 1430 hrs, logging up, 15 ft/m. error < 0.5 ft_  :RMK3
FTYP.     Potable water  :FTYP
RMK4. Mt Sopris  HFP, heat Pulse, SN 3122, 10-11-2010   1100 hrs, Ambient conditions (no pumping) logged down,, depth error < 0.5 ft  :RMK4
DUNT.               E/M  :DUNT
RMK5.                    :RMK5
LON.           911308.1  :LON
RMK6.                    :RMK6
DRDP.          473.5 ft  :DRDP
SOFT.                    :SOFT
LAT.           383548.9  :LAT
DFLD.          81.42 ft  :DFLD
MAGN.                    :MAGN
EREF.         617.26 ft  :EREF
HYDR. Pump removed well unused. ran caliper and heat pulse on 10/11/2010  LS (PVC csg has 0.7 ft stickup)  :HYDR
PROJ. Riverfront Superfund Site  :PROJ
FIID.                ZB  :FIID
DREF.      Land surface  :DREF
TIME.             11_30  :TIME
CASB.               101  :CASB
TVER.                    :TVER
ORIE.              Vert  :ORIE
#------------------------------------------------------------
~OTHER
#------------------------------------------------------------
#<------------------LOG DATA-------------------
#DEPTH	Caliper	Gamma	FCond 25'C	FCond	Temperature
#FT	IN	CPS	US/CM	US/CM	DEG_C
~A  DEPT[FT]    Caliper[    Gamma[cp    FCond 25    FCond[uS    Temperat
# ...
135.808	6.15118	22.1353	369.641	475.413	14.6938
135.970	6.14810	22.2629	369.984	475.863	14.6920
136.131	6.12598	31.0551	370.009	475.911	14.6897
136.292	6.13094	32.0075	369.513	475.289	14.6873
136.453	6.14482	21.5385	369.239	474.969	14.6830
136.615	6.14892	30.2532	369.606	475.495	14.6789
136.776	6.15274	31.2514	370.009	476.061	14.6758
136.937	6.15499	34.7023	370.113	476.209	14.6741
137.099	6.15860	38.1944	369.724	475.684	14.6747
137.260	6.16106	44.3160	369.390	475.214	14.6751
137.421	6.16787	35.7577	369.668	475.571	14.6723
137.583	6.18642	37.9981	369.945	475.980	14.6691
137.744	6.19570	32.3671	369.930	475.994	14.6667
137.905	6.21758	29.7014	369.972	476.044	14.6664
138.067	6.24593	25.4737	370.137	476.228	14.6672
138.228	6.24282	18.2602	370.344	476.459	14.6679
138.389	6.21644	12.1192	370.492	476.619	14.6696
138.550	6.21317	14.6634	370.474	476.567	14.6712
138.712	6.21242	15.0963	370.415	476.462	14.6719
138.873	6.20532	8.28533	370.414	476.440	14.6723
139.034	6.23865	8.86197	370.235	476.206	14.6716
139.196	6.24515	10.5766	370.050	475.975	14.6711
139.357	6.23140	11.8481	370.239	476.226	14.6695
139.518	6.19283	11.7872	370.494	476.575	14.6676
139.680	6.16468	10.8032	370.579	476.716	14.6652
139.841	6.18568	5.07201	370.611	476.776	14.6638
140.002	6.20132	11.4917	370.633	476.796	14.6632
140.164	6.17050	9.31326	370.652	476.807	14.6621
140.325	6.17608	7.64430	370.689	476.848	14.6609
140.486	6.16712	9.48896	370.757	476.935	14.6589
140.648	6.15312	13.6465	371.397	477.769	14.6562
140.809	6.11631	10.1629	371.578	478.027	14.6550
140.970	6.15617	9.18682	371.484	477.928	14.6530
141.131	6.16106	9.66100	373.278	480.260	14.6516
141.293	6.16499	10.2833	378.827	487.432	14.6495
141.454	6.17218	14.1011	387.696	498.898	14.6466
141.615	6.09558	11.9502	396.221	510.003	14.6396
141.777	6.09971	8.88814	408.293	525.774	14.6306
141.938	6.09548	9.11422	426.038	548.900	14.6227
142.099	6.10598	11.9406	442.668	570.591	14.6150
142.261	6.10114	11.0281	447.918	577.655	14.6031
142.422	6.11307	10.3365	440.440	568.329	14.5943
142.583	6.12415	10.0405	447.132	577.188	14.5913
142.745	6.10719	10.3664	463.566	598.535	14.5886
142.906	6.11250	13.9833	463.897	599.064	14.5856
143.067	6.10659	14.5450	463.269	598.332	14.5828
143.228	6.10646	10.1188	469.146	605.988	14.5807
143.390	6.11793	12.4546	478.594	618.259	14.5801
143.551	6.10732	24.0452	486.619	628.708	14.5781
143.712	6.11752	33.3797	484.593	626.196	14.5759
143.874	6.11711	41.5409	477.969	617.727	14.5737
144.035	6.11306	37.6204	476.442	615.790	14.5739
144.196	6.13867	34.6339	478.437	618.366	14.5742
144.358	6.12234	36.7067	479.173	619.334	14.5730
144.519	6.11468	40.0640	482.191	623.268	14.5715
144.680	6.13248	36.4399	483.922	625.544	14.5696
144.842	6.12714	35.3398	484.950	626.904	14.5686
145.003	6.11048	35.4069	488.954	632.099	14.5676
145.164	6.10183	35.6886	493.066	637.451	14.5665
145.325	6.10491	18.3233	491.722	635.778	14.5642
145.487	6.10204	23.0157	487.882	630.866	14.5635
145.648	6.10039	23.3278	489.790	633.354	14.5634
145.809	6.10039	24.1226	496.037	641.437	14.5642
145.971	6.09627	23.1005	497.055	642.748	14.5647
146.132	6.10236	24.9670	495.108	640.232	14.5643
146.293	6.09863	22.1841	492.516	636.886	14.5641
146.455	6.09814	20.3662	487.567	630.491	14.5638
146.616	6.09668	28.7185	487.057	629.829	14.5639
146.777	6.09794	17.7474	489.296	632.717	14.5640
146.939	6.10039	27.5553	491.725	635.856	14.5635
147.100	6.09698	35.2222	492.579	636.982	14.5621
147.261	6.10094	19.2738	492.377	636.756	14.5609
147.422	6.10033	29.7611	493.059	637.660	14.5601
147.584	6.10080	17.9868	493.807	638.634	14.5594
147.745	6.10345	22.8478	493.706	638.504	14.5588
147.906	6.10329	28.1428	493.110	637.724	14.5590
148.068	6.10620	15.2641	492.946	637.508	14.5588
148.229	6.10345	25.8437	492.493	636.923	14.5587
148.390	6.10299	27.4360	491.491	635.625	14.5586
148.552	6.10646	28.4555	490.980	634.961	14.5584
148.713	6.10842	29.3080	490.612	634.487	14.5580
148.874	6.10954	18.7196	491.200	635.253	14.5577
149.036	6.11085	22.2952	491.496	635.644	14.5574
149.197	6.11611	20.8740	490.704	634.632	14.5570
149.358	6.12574	22.8172	490.642	634.558	14.5564
149.519	6.16067	12.3323	490.241	634.032	14.5565
149.681	6.16602	21.1633	490.417	634.251	14.5556
149.842	6.15737	20.5250	491.958	636.237	14.5552
150.003	6.16871	16.7908	492.659	637.139	14.5546
150.165	6.13994	23.4899	492.472	636.904	14.5542
150.326	6.14147	23.6013	492.682	637.186	14.5540
150.487	6.13936	23.6104	492.985	637.589	14.5537
150.649	6.14655	23.4005	493.070	637.712	14.5534
150.810	6.13896	23.5135	493.069	637.724	14.5526
150.971	6.14597	20.3871	492.967	637.591	14.5523
151.133	6.13072	14.9173	492.700	637.243	14.5520
151.294	6.12994	20.5181	492.906	637.515	14.5512
151.455	6.12398	25.1637	493.453	638.234	14.5500
151.616	6.12053	20.7500	493.538	638.354	14.5493
151.778	6.14073	23.9868	493.379	638.156	14.5485
151.939	6.15955	22.3832	493.546	638.380	14.5489
152.100	6.13624	16.6855	493.713	638.584	14.5495
152.262	6.12491	17.9999	493.924	638.844	14.5498
152.423	6.13345	16.6822	494.721	639.873	14.5507
152.584	6.13074	17.1669	496.023	641.555	14.5516
152.746	6.13072	21.5854	497.050	642.892	14.5511
152.907	6.11905	19.3580	496.605	642.355	14.5491
153.068	6.13006	13.2365	495.201	640.599	14.5465
153.230	6.13636	11.7239	494.075	639.198	14.5448
153.391	6.17904	15.6683	493.881	638.987	14.5435
153.552	6.17423	20.0716	494.281	639.510	14.5442
153.713	6.15187	19.2272	494.529	639.800	14.5455
153.875	6.15415	16.1476	494.345	639.526	14.5465
154.036	6.15499	23.0066	493.990	639.033	14.5473
154.197	6.15545	26.0219	493.889	638.883	14.5466
154.359	6.16002	13.2938	494.034	639.079	14.5458
154.520	6.16106	22.0647	494.135	639.212	14.5463
154.681	6.16578	21.4937	493.978	638.993	14.5475
154.843	6.17174	16.5765	494.018	639.021	14.5482
155.004	6.17771	12.9778	494.376	639.471	14.5475
155.165	6.18207	17.6997	494.358	639.455	14.5466
155.327	6.21492	19.6393	494.235	639.304	14.5458
155.488	6.26575	21.5537	493.976	638.980	14.5440
155.649	6.24945	16.4801	493.474	638.354	14.5421
155.810	6.22582	21.0076	493.452	638.354	14.5409
155.972	6.25304	23.9129	493.811	638.838	14.5403
156.133	6.27025	24.1642	494.006	639.105	14.5391
156.294	6.24426	11.4348	494.004	639.119	14.5385
156.456	6.19167	13.7046	492.162	636.755	14.5369
156.617	6.15308	26.2074	485.170	627.748	14.5350
156.778	6.13945	28.2963	483.436	625.560	14.5328
156.940	6.14341	23.0369	488.636	632.350	14.5304
157.101	6.15534	22.9469	491.055	635.545	14.5287
157.262	6.16953	19.2406	492.326	637.235	14.5286
157.424	6.16039	21.2704	493.039	638.177	14.5287
157.585	6.14866	15.0584	493.278	638.486	14.5284
157.746	6.16059	24.6692	493.618	638.921	14.5272
157.907	6.17179	33.2402	494.213	639.688	14.5276
158.069	6.17831	20.9607	494.418	639.941	14.5284
158.230	6.17176	25.9713	493.405	638.617	14.5292
158.391	6.17632	24.4327	493.182	638.300	14.5298
158.553	6.20342	29.2337	493.990	639.299	14.5302
158.714	6.18982	28.1349	493.903	639.127	14.5315
158.875	6.14661	32.2157	493.399	638.404	14.5341
159.037	6.13272	26.1381	493.033	637.880	14.5363
159.198	6.14625	31.6284	492.603	637.292	14.5380
159.359	6.18145	31.8284	492.163	636.698	14.5385
159.521	6.19890	29.6936	492.057	636.569	14.5377
159.682	6.18559	33.4951	492.054	636.603	14.5374
159.843	6.24346	26.6960	492.438	637.146	14.5373
160.004	6.15853	28.2986	492.759	637.590	14.5367
160.166	6.15879	35.3641	492.247	636.941	14.5364
160.327	6.19193	33.9146	491.847	636.418	14.5370
160.488	6.20124	31.2092	492.220	636.873	14.5373
160.650	6.23975	39.7078	492.802	637.600	14.5373
160.811	6.27202	51.1329	493.310	638.238	14.5380
160.972	6.28160	64.6275	493.800	638.846	14.5385
161.134	6.26884	66.0832	493.764	638.770	14.5386
161.295	6.20612	69.3083	493.236	638.057	14.5390
161.456	6.17319	71.9426	492.994	637.722	14.5388
161.618	6.17507	68.6745	492.977	637.689	14.5383
161.779	6.20159	68.3209	493.179	637.950	14.5375
161.940	6.15963	59.6059	493.389	638.220	14.5377
162.101	6.11143	48.4382	493.379	638.208	14.5376
162.263	6.11252	40.6176	493.303	638.110	14.5381
162.424	6.12440	31.1525	493.412	638.239	14.5389
162.585	6.14216	26.0304	493.585	638.450	14.5394
