~VERSION INFORMATION
VERS.               2.0  :CWLS LOG ASCII STANDARD - VERSION 2.0
WRAP.                NO  :ONE LINE PER DEPTH STEP
#------------------------------------------------------------
~WELL INFORMATION
STRT.FT         1.60000  :FIRST INDEX VALUE
STOP.FT         473.426  :LAST INDEX VALUE
STEP.FT        0.000000  :STEP
NULL.            -99999  :NULL VALUE
COMP. Beaver brand hats  :COMP
WELL.                    :WELL
FLD.                     :FIELD
LOC. well at SW corner of building 75 ft east of Hwy C, New Haven MO  :LOC
LATI.                    :LATITUDE
LONG.                    :LONGITUDE
GDAT.            /NAD83  :GDAT
SRVC.              USGS  :SRVC
CTRY.                    :COUNTRY
PROV.                    :PROVINCE
STAT.          Missouri  :STAT
CNTY.    Franklin (071)  :CNTY
DATE.        05/22/2009  :DATE
UWI.    383549091130801  :UWI
API.                     :API NUMBER
LIC.                     :LICENSE NUMBER
#------------------------------------------------------------
~CURVE INFORMATION
DEPT.FT                   :DEPTH
Caliper.IN                   :Caliper
Gamma.CPS                   :Gamma
FCond 25'C.US/CM                   :FCond 25'C
FCond.US/CM                   :FCond
Temperature.DEG_C                   :Temperature
#------------------------------------------------------------
~PARAMETER INFORMATION
OTID.        Beaver Hat  :OTID
BS.               6 in.  :BS
CASD.             6 in.  :CASD
STNM.   New Haven JS-25  :STNM
LOGU.        MWSC-Rolla  :LOGU
LMF.                 LS  :LMF
APD.             0.0 ft  :APD
RMKS. SWL 82.12 ft BTOC (81.42 ft LS).  zerod tool at LS (stickup = 0.70 ft)  :RMKS
RMK1.  Mt Sopris    2PFA+2PGA  Fluid tool,, SN 3427  05-22-2009  11_30  amlogging down ~10 ft/min, error <0.5 ft  :RMK1
CASX.               PVC  :CASX
RECB.        Schumacher  :RECB
OBSR. L. Gorday (Parsons Eng.)  :OBSR
RMK2. Mt Sopris  2PGA+2PFA  gamma, SN 2952m 05-22-2009 12_30 hrs, logging up ~ 20 ft/min, depth error <0.5 ft    :RMK2
ADAT.            NGVD29  :ADAT
RMK3. Mt Sopris, 2PCA Caliper (long arms)  SN 3427, 10-11-2010, 1430 hrs, logging up, 15 ft/m. error < 0.5 ft_  :RMK3
FTYP.     Potable water  :FTYP
RMK4. Mt Sopris  HFP, heat Pulse, SN 3122, 10-11-2010   1100 hrs, Ambient conditions (no pumping) logged down,, depth error < 0.5 ft  :RMK4
DUNT.               E/M  :DUNT
RMK5.                    :RMK5
LON.           911308.1  :LON
RMK6.                    :RMK6
DRDP.          473.5 ft  :DRDP
SOFT.                    :SOFT
LAT.           383548.9  :LAT
DFLD.          81.42 ft  :DFLD
MAGN.                    :MAGN
EREF.         617.26 ft  :EREF
HYDR. Pump removed well unused. ran caliper and heat pulse on 10/11/2010  LS (PVC csg has 0.7 ft stickup)  :HYDR
PROJ. Riverfront Superfund Site  :PROJ
FIID.                ZB  :FIID
DREF.      Land surface  :DREF
TIME.             11_30  :TIME
CASB.               101  :CASB
TVER.                    :TVER
ORIE.              Vert  :ORIE
#------------------------------------------------------------
~OTHER
#------------------------------------------------------------
#<------------------LOG DATA-------------------
#DEPTH	Caliper	Gamma	FCond 25'C	FCond	Temperature
#FT	IN	CPS	US/CM	US/CM	DEG_C
~A  DEPT[FT]    Caliper[    Gamma[cp    FCond 25    FCond[uS    Temperat
# ...
28.0545	6.09516	34.6055	48793.1	50654.5	19.4516
28.2158	6.09945	36.6548	48666.8	50526.7	19.4495
28.3771	6.09536	25.8605	48757.8	50624.7	19.4475
28.5384	6.09925	33.0536	48896.3	50771.9	19.4457
28.6997	6.09557	29.3638	49139.7	51028.5	19.4438
28.8611	6.10377	33.3666	49368.3	51269.7	19.4419
29.0224	6.09259	32.8780	49480.1	51388.8	19.4406
29.1837	6.09730	36.1139	49587.1	51502.4	19.4394
29.3450	6.09597	36.7321	49732.0	51655.2	19.4380
29.5063	6.09864	48.5735	49862.1	51792.5	19.4365
29.6676	6.09617	50.4209	49975.2	51912.0	19.4351
29.8289	6.09844	53.9321	50058.2	51999.8	19.4345
29.9902	6.09638	52.7208	50147.3	52093.8	19.4336
30.1515	6.10215	61.0952	50354.9	52311.8	19.4320
30.3128	6.09883	77.2411	50547.6	52514.7	19.4307
30.4741	6.09803	82.6780	50753.4	52731.0	19.4292
30.6354	6.09678	57.4397	50790.4	52772.0	19.4278
30.7967	6.09783	57.6579	50967.6	52958.9	19.4263
30.9581	6.09698	49.4303	51251.1	53256.7	19.4245
31.1194	6.09462	43.2179	51393.9	53408.2	19.4230
31.2807	6.09779	40.3223	51538.4	53560.6	19.4219
31.4420	6.10039	37.3723	51560.1	53584.3	19.4212
31.6033	6.09739	40.5678	51559.0	53584.4	19.4204
31.7646	6.09432	28.0539	51715.7	53749.3	19.4190
31.9259	6.09993	26.5072	51863.6	53905.7	19.4175
32.0872	6.10106	22.1496	52006.4	54057.1	19.4158
32.2485	6.09432	34.1780	52141.4	54201.3	19.4135
32.4098	6.09432	33.1520	52221.7	54289.4	19.4113
32.5711	6.09672	32.1589	52441.7	54522.1	19.4094
32.7324	6.09809	30.3696	52606.9	54697.9	19.4075
32.8938	6.01970	26.1291	52621.8	54717.3	19.4058
33.0551	5.95716	37.2284	52687.4	54789.8	19.4031
33.2164	6.09224	33.4618	52931.2	55047.7	19.4015
33.3777	6.09661	28.8321	53102.6	55229.9	19.3993
33.5390	6.09363	34.5616	53220.9	55357.3	19.3974
33.7003	6.10308	29.8234	53545.1	55698.2	19.3957
33.8616	6.09415	33.8003	53673.6	55834.9	19.3941
34.0229	6.09530	28.4366	53595.3	55756.5	19.3924
34.1842	6.09900	33.1816	53942.6	56121.4	19.3911
34.3455	6.09689	26.9880	54125.6	56315.4	19.3896
34.5068	6.10420	33.2891	54020.3	56210.0	19.3871
34.6681	6.09478	28.1668	54021.4	56216.9	19.3836
34.8294	6.09530	26.3919	54057.7	56260.1	19.3805
34.9908	6.09951	28.8102	54183.3	56395.8	19.3771
35.1521	6.09510	31.1129	54275.6	56497.5	19.3737
35.3134	6.09971	31.7549	54329.5	56558.9	19.3711
35.4747	6.09548	38.4662	54556.7	56799.9	19.3684
35.6360	6.10550	46.9619	54717.2	56971.3	19.3661
35.7973	6.09470	56.0846	54789.2	57050.4	19.3637
35.9586	6.10012	49.1281	55050.3	57326.1	19.3620
36.1199	6.09450	46.1182	55252.9	57540.8	19.3604
36.2812	6.10032	56.0597	55295.2	57588.6	19.3583
36.4425	6.09435	53.6590	55298.9	57596.4	19.3567
36.6038	6.10026	50.9444	55391.3	57697.1	19.3545
36.7651	6.09456	46.5619	55563.5	57881.7	19.3524
36.9265	6.10006	38.7589	55703.4	58032.4	19.3503
37.0878	6.10039	37.1864	55837.4	58177.2	19.3478
37.2491	6.10039	32.0331	55956.7	58307.4	19.3452
37.4104	6.09496	29.4302	56090.0	58452.3	19.3424
37.5717	6.09965	32.4889	56253.2	58628.3	19.3400
37.7330	6.09516	34.0809	56331.3	58716.0	19.3374
37.8943	6.09945	36.6869	56486.8	58883.3	19.3358
38.0556	6.09582	44.2780	56612.5	59019.1	19.3333
38.2169	6.09935	30.2935	56595.6	59005.9	19.3319
38.3782	6.09557	23.5379	56576.5	58990.6	19.3296
38.5395	6.09905	28.4157	56696.5	59121.2	19.3274
38.7008	6.10039	26.2871	56857.9	59294.3	19.3252
38.8621	6.10039	23.5738	56936.4	59381.0	19.3232
39.0235	6.09597	20.6213	56905.1	59353.9	19.3207
39.1848	6.09864	31.5477	56884.2	59337.6	19.3185
39.3461	6.10039	22.3714	57107.8	59576.0	19.3161
39.5074	6.10039	18.5647	57286.3	59767.9	19.3136
39.6687	6.10039	27.0528	57281.1	59767.9	19.3118
39.8300	6.10039	33.8636	57367.3	59863.5	19.3093
39.9913	6.10039	26.7356	57433.7	59938.3	19.3072
40.1526	6.09668	31.3431	57547.2	60061.5	19.3050
40.3139	6.10154	28.5511	57647.9	60171.8	19.3029
40.4752	6.09944	34.3157	57677.2	60207.2	19.3009
40.6365	6.09773	27.2282	57805.7	60346.1	19.2987
40.7978	6.10370	33.0006	57845.6	60393.3	19.2962
40.9592	6.10325	25.0389	57995.5	60555.6	19.2939
41.1205	6.09729	35.3638	58143.3	60715.3	19.2916
41.2818	6.10033	30.4865	58116.6	60692.0	19.2899
41.4431	6.10065	36.9297	58176.4	60759.5	19.2874
41.6044	6.09713	28.4264	58223.4	60813.6	19.2856
41.7657	6.09769	29.7508	58283.7	60881.1	19.2836
41.9270	6.10212	36.6307	58316.2	60920.0	19.2815
42.0883	6.10503	36.1521	58310.7	60919.1	19.2798
42.2496	6.09672	38.1089	58408.7	61026.5	19.2773
42.4109	6.10039	41.4767	58535.5	61164.2	19.2751
42.5722	6.10039	32.8624	58516.7	61149.9	19.2730
42.7335	6.09830	28.8379	58496.0	61133.5	19.2710
42.8948	6.09831	26.7955	58617.2	61265.0	19.2688
43.0562	6.10267	36.7436	58704.8	61361.1	19.2669
43.2175	6.09790	37.9681	58764.0	61427.9	19.2646
43.3788	6.10323	31.9729	58889.9	61564.8	19.2626
43.5401	6.09791	23.8074	59001.2	61686.3	19.2603
43.7014	6.10497	23.6719	58904.8	61590.6	19.2585
43.8627	6.09900	30.1882	58837.6	61525.2	19.2565
44.0240	6.09678	27.1444	58994.1	61694.7	19.2541
44.1853	6.10364	23.0853	59184.2	61899.5	19.2518
44.3466	6.09541	23.9587	59228.6	61950.9	19.2499
44.5079	6.10039	26.4790	59223.2	61950.4	19.2477
44.6692	6.10039	28.3989	59225.5	61958.0	19.2458
44.8305	6.10117	19.5032	59153.6	61887.6	19.2435
44.9919	6.10578	19.3104	59230.3	61973.2	19.2417
45.1532	6.10039	23.4785	59270.6	62020.6	19.2394
45.3145	6.10039	20.0980	59218.8	61971.7	19.2374
45.4758	6.10002	11.8256	59374.2	62139.2	19.2357
45.6371	6.09487	14.3451	59348.7	62116.9	19.2338
45.7984	6.10611	22.2745	59251.4	62019.8	19.2316
45.9597	6.09454	22.8204	59551.3	62339.5	19.2294
46.1210	6.11243	24.6497	59374.8	62159.8	19.2272
46.2823	6.09472	28.3997	59219.4	62002.6	19.2247
46.4436	6.10599	29.9839	59441.2	62241.1	19.2228
46.6049	6.10072	28.3012	59364.4	62166.1	19.2208
46.7662	6.10039	27.7846	59510.9	62324.7	19.2185
46.9276	6.10039	26.6620	59596.7	62420.1	19.2159
47.0889	6.10582	19.1852	59573.5	62402.2	19.2133
47.2502	6.10113	19.7947	59523.1	62355.9	19.2108
47.4115	6.10562	19.0932	59508.7	62347.0	19.2083
47.5728	6.09107	17.1919	59565.8	62412.6	19.2063
47.7341	6.09831	16.5500	59516.5	62366.3	19.2040
47.8954	6.10531	14.3622	59517.5	62373.1	19.2017
48.0567	6.10163	20.8858	59472.7	62331.7	19.1993
48.2180	6.10039	25.1401	59401.2	62263.2	19.1965
48.3793	6.09577	23.0271	59356.5	62223.2	19.1940
48.5406	6.10336	18.8130	59543.2	62425.1	19.1911
48.7019	6.09320	11.4180	59537.7	62425.2	19.1890
48.8632	6.10121	25.8196	59263.9	62144.0	19.1868
49.0246	6.10224	22.5197	59305.1	62193.0	19.1846
49.1859	6.10039	22.9692	59347.6	62243.4	19.1819
49.3472	6.10440	25.0080	59410.2	62315.9	19.1789
49.5085	6.10254	26.0872	59425.3	62338.4	19.1766
49.6698	6.10420	29.5425	59389.0	62306.5	19.1738
49.8311	6.09903	26.8290	59473.8	62402.2	19.1712
49.9924	6.10154	19.8140	59423.6	62355.9	19.1683
50.1537	6.10295	30.7983	59577.6	62524.5	19.1656
50.3150	6.10039	15.6952	59553.0	62506.3	19.1627
50.4763	6.10039	20.6738	59175.9	62117.5	19.1601
50.6376	6.10360	16.0877	59057.5	61999.4	19.1578
50.7989	6.10335	17.2573	58946.6	61889.2	19.1549
50.9603	6.10339	20.5910	58870.7	61816.2	19.1520
51.1216	6.10065	22.8932	58968.7	61926.2	19.1489
51.2829	6.09993	24.0812	59119.5	62092.1	19.1463
51.4442	6.10106	13.2748	59203.7	62187.5	19.1433
51.6055	6.09952	12.4839	59129.7	62117.1	19.1403
51.7668	6.10396	12.7218	58926.8	61911.5	19.1376
51.9281	6.10279	11.2994	58825.7	61812.4	19.1345
52.0894	6.10416	10.9465	58784.7	61776.8	19.1314
52.2507	6.10039	11.4060	58784.5	61783.7	19.1289
52.4120	6.10039	12.3887	58779.1	61784.8	19.1260
52.5733	6.10039	22.5626	58597.4	61601.4	19.1233
52.7346	6.09850	17.4927	58439.4	61442.7	19.1203
52.8959	6.09790	17.6739	58258.2	61259.0	19.1175
53.0573	6.10308	17.2027	58211.3	61217.0	19.1143
53.2186	6.09909	14.6222	58295.4	61313.4	19.1111
53.3799	6.10806	21.5175	58551.4	61590.6	19.1081
53.5412	6.09710	19.0463	58899.0	61964.3	19.1047
53.7025	6.10389	25.6242	58644.4	61704.2	19.1022
53.8638	6.09551	22.7222	58344.4	61395.7	19.0993
54.0251	6.10039	21.2311	58355.9	61415.0	19.0966
54.1864	6.09941	24.0835	58276.9	61339.1	19.0937
54.3477	6.09608	24.4800	58178.8	61243.2	19.0910
54.5090	6.10568	21.1537	58033.9	61098.7	19.0875
54.6703	6.10039	26.3358	57800.6	60861.0	19.0844
54.8316	6.10097	21.7794	57787.7	60854.6	19.0817
