~VERSION INFORMATION
VERS.               2.0  :CWLS LOG ASCII STANDARD - VERSION 2.0
WRAP.                NO  :ONE LINE PER DEPTH STEP
#------------------------------------------------------------
~WELL INFORMATION
STRT.FT         1.60000  :FIRST INDEX VALUE
STOP.FT         473.426  :LAST INDEX VALUE
STEP.FT        0.000000  :STEP
NULL.            -99999  :NULL VALUE
COMP. Beaver brand hats  :COMP
WELL.                    :WELL
FLD.                     :FIELD
LOC. well at SW corner of building 75 ft east of Hwy C, New Haven MO  :LOC
LATI.                    :LATITUDE
LONG.                    :LONGITUDE
GDAT.            /NAD83  :GDAT
SRVC.              USGS  :SRVC
CTRY.                    :COUNTRY
PROV.                    :PROVINCE
STAT.          Missouri  :STAT
CNTY.    Franklin (071)  :CNTY
DATE.        05/22/2009  :DATE
UWI.    383549091130801  :UWI
API.                     :API NUMBER
LIC.                     :LICENSE NUMBER
#------------------------------------------------------------
~CURVE INFORMATION
DEPT.FT                   :DEPTH
Caliper.IN                   :Caliper
Gamma.CPS                   :Gamma
FCond 25'C.US/CM                   :FCond 25'C
FCond.US/CM                   :FCond
Temperature.DEG_C                   :Temperature
#------------------------------------------------------------
~PARAMETER INFORMATION
OTID.        Beaver Hat  :OTID
BS.               6 in.  :BS
CASD.             6 in.  :CASD
STNM.   New Haven JS-25  :STNM
LOGU.        MWSC-Rolla  :LOGU
LMF.                 LS  :LMF
APD.             0.0 ft  :APD
RMKS. SWL 82.12 ft BTOC (81.42 ft LS).  zerod tool at LS (stickup = 0.70 ft)  :RMKS
RMK1.  Mt Sopris    2PFA+2PGA  Fluid tool,, SN 3427  05-22-2009  11_30  amlogging down ~10 ft/min, error <0.5 ft  :RMK1
CASX.               PVC  :CASX
RECB.        Schumacher  :RECB
OBSR. L. Gorday (Parsons Eng.)  :OBSR
RMK2. Mt Sopris  2PGA+2PFA  gamma, SN 2952m 05-22-2009 12_30 hrs, logging up ~ 20 ft/min, depth error <0.5 ft    :RMK2
ADAT.            NGVD29  :ADAT
RMK3. Mt Sopris, 2PCA Caliper (long arms)  SN 3427, 10-11-2010, 1430 hrs, logging up, 15 ft/m. error < 0.5 ft_  :RMK3
FTYP.     Potable water  :FTYP
RMK4. Mt Sopris  HFP, heat Pulse, SN 3122, 10-11-2010   1100 hrs, Ambient conditions (no pumping) logged down,, depth error < 0.5 ft  :RMK4
DUNT.               E/M  :DUNT
RMK5.                    :RMK5
LON.           911308.1  :LON
RMK6.                    :RMK6
DRDP.          473.5 ft  :DRDP
SOFT.                    :SOFT
LAT.           383548.9  :LAT
DFLD.          81.42 ft  :DFLD
MAGN.                    :MAGN
EREF.         617.26 ft  :EREF
HYDR. Pump removed well unused. ran caliper and heat pulse on 10/11/2010  LS (PVC csg has 0.7 ft stickup)  :HYDR
PROJ. Riverfront Superfund Site  :PROJ
FIID.                ZB  :FIID
DREF.      Land surface  :DREF
TIME.             11_30  :TIME
CASB.               101  :CASB
TVER.                    :TVER
ORIE.              Vert  :ORIE
#------------------------------------------------------------
~OTHER
#------------------------------------------------------------
#<------------------LOG DATA-------------------
#DEPTH	Caliper	Gamma	FCond 25'C	FCond	Temperature
#FT	IN	CPS	US/CM	US/CM	DEG_C
~A  DEPT[FT]    Caliper[    Gamma[cp    FCond 25    FCond[uS    Temperat
# ...
378.254	6.18323	23.9913	488.514	636.402	14.2495
378.415	6.18931	23.5019	488.560	636.478	14.2491
378.577	6.18426	31.4980	488.610	636.559	14.2483
378.738	6.17203	45.9492	488.592	636.551	14.2475
378.899	6.18674	53.0432	488.600	636.565	14.2472
379.061	6.17940	58.8725	488.582	636.524	14.2485
379.222	6.15284	54.6971	488.542	636.454	14.2493
379.383	6.14560	75.5941	488.526	636.449	14.2479
379.545	6.14760	59.7904	488.444	636.399	14.2455
379.706	6.14753	57.7996	488.363	636.359	14.2440
379.867	6.14757	82.4918	488.320	636.365	14.2429
380.029	6.14806	87.0704	488.271	636.368	14.2408
380.190	6.14758	79.9636	488.248	636.392	14.2392
380.351	6.14952	74.2835	488.257	636.441	14.2373
380.513	6.15209	70.1334	488.263	636.477	14.2361
380.674	6.15387	68.9383	488.294	636.529	14.2358
380.835	6.15658	65.2131	488.331	636.569	14.2360
380.996	6.15652	63.9393	488.313	636.519	14.2363
381.158	6.16190	68.5594	488.315	636.504	14.2356
381.319	6.16544	61.5223	488.367	636.573	14.2353
381.480	6.15972	54.0015	488.435	636.666	14.2344
381.642	6.16396	46.2186	488.512	636.764	14.2339
381.803	6.16241	42.1978	488.522	636.749	14.2346
381.964	6.16795	32.0941	488.497	636.672	14.2353
382.126	6.17285	24.6031	488.548	636.702	14.2355
382.287	6.17480	27.8191	488.669	636.840	14.2350
382.448	6.18218	22.2169	488.765	636.960	14.2348
382.609	6.15678	18.4671	488.814	637.002	14.2359
382.771	6.14543	24.8209	488.876	637.015	14.2384
382.932	6.15574	23.4243	488.946	637.013	14.2400
383.093	6.15262	24.9575	488.979	636.985	14.2409
383.255	6.15591	30.4782	488.960	636.930	14.2408
383.416	6.14992	35.0584	488.919	636.866	14.2405
383.577	6.14761	42.3817	488.873	636.803	14.2401
383.739	6.20320	54.7093	488.872	636.817	14.2402
383.900	6.20314	61.6239	488.884	636.854	14.2399
384.061	6.19083	69.1910	488.903	636.900	14.2400
384.223	6.18266	70.9448	488.924	636.951	14.2404
384.384	6.15712	62.4825	488.898	636.927	14.2416
384.545	6.16513	50.2113	488.812	636.822	14.2417
384.707	6.15655	37.2850	488.685	636.701	14.2411
384.868	6.16966	30.0311	488.628	636.678	14.2416
385.029	6.17396	26.4282	488.635	636.748	14.2394
385.190	6.19298	25.2576	488.643	636.821	14.2379
385.352	6.19151	25.5425	488.658	636.869	14.2372
385.513	6.18488	29.3452	488.659	636.869	14.2369
385.674	6.15520	37.4900	488.630	636.818	14.2371
385.836	6.14851	34.5821	488.661	636.843	14.2371
385.997	6.15128	31.1167	488.676	636.851	14.2369
386.158	6.15603	31.4293	488.624	636.774	14.2370
386.320	6.15644	30.8688	488.598	636.722	14.2373
386.481	6.16385	31.2473	488.573	636.696	14.2361
386.642	6.18462	22.5284	488.534	636.676	14.2352
386.804	6.23574	20.7868	488.479	636.638	14.2334
386.965	6.23422	10.3717	488.466	636.656	14.2322
387.126	6.20955	8.69051	488.451	636.665	14.2313
387.287	6.18143	10.0038	488.458	636.695	14.2312
387.449	6.17405	8.74750	488.511	636.768	14.2304
387.610	6.16479	13.3621	488.551	636.802	14.2303
387.771	6.18818	15.1833	488.604	636.835	14.2303
387.933	6.17063	12.9404	488.609	636.807	14.2306
388.094	6.20287	10.8010	488.587	636.740	14.2316
388.255	6.21498	12.6198	488.560	636.663	14.2323
388.417	6.18754	7.25925	488.475	636.519	14.2326
388.578	6.18771	10.1633	488.397	636.411	14.2321
388.739	6.21677	7.82205	488.356	636.400	14.2305
388.901	6.20307	7.20446	488.277	636.370	14.2283
389.062	6.18891	4.74959	488.230	636.380	14.2266
389.223	6.24211	12.4474	488.240	636.442	14.2253
389.384	6.29966	13.8686	488.275	636.515	14.2249
389.546	6.50032	19.2177	488.332	636.602	14.2252
389.707	6.44471	24.8343	488.358	636.635	14.2254
389.868	6.23571	24.0299	488.381	636.636	14.2272
390.030	6.21266	24.5759	488.418	636.643	14.2287
390.191	6.14816	30.2322	488.441	636.649	14.2298
390.352	6.14000	21.4489	488.470	636.671	14.2299
390.514	6.14000	30.6364	488.501	636.701	14.2303
390.675	6.14574	24.1470	488.507	636.697	14.2314
390.836	6.14675	24.3086	488.518	636.700	14.2315
390.998	6.15981	32.4951	488.507	636.683	14.2314
391.159	6.18005	31.3543	488.475	636.647	14.2309
391.320	6.17373	47.6709	488.468	636.653	14.2306
391.481	6.13772	53.7764	488.467	636.668	14.2306
391.643	6.14334	37.3474	488.494	636.709	14.2307
391.804	6.16184	44.8450	488.562	636.794	14.2302
391.965	6.17707	36.6696	488.612	636.857	14.2297
392.127	6.18804	37.7936	488.592	636.813	14.2308
392.288	6.20042	31.2105	488.528	636.696	14.2311
392.449	6.18450	25.6846	488.465	636.589	14.2313
392.611	6.17486	23.6557	488.432	636.567	14.2288
392.772	6.17250	22.0704	488.448	636.642	14.2264
392.933	6.17606	28.7216	488.414	636.657	14.2240
393.095	6.22969	27.2405	488.375	636.657	14.2232
393.256	6.21669	18.7170	488.407	636.719	14.2236
393.417	6.17767	19.0695	488.452	636.776	14.2250
393.578	6.14203	21.8013	488.487	636.799	14.2265
393.740	6.18212	19.3528	488.486	636.762	14.2267
393.901	6.17175	20.5270	488.460	636.692	14.2270
394.062	6.12213	23.0964	488.436	636.638	14.2269
394.224	6.12405	24.6302	488.423	636.620	14.2260
394.385	6.13520	23.7607	488.398	636.604	14.2243
394.546	6.14700	26.3370	488.400	636.627	14.2233
394.708	6.19470	28.9947	488.434	636.686	14.2225
394.869	6.18321	27.7513	488.487	636.773	14.2229
395.030	6.16223	24.3710	488.485	636.774	14.2238
395.192	6.16911	15.2665	488.451	636.722	14.2240
395.353	6.15786	16.5432	488.468	636.731	14.2240
395.514	6.17613	18.4799	488.427	636.725	14.2209
395.675	6.17546	19.4734	488.495	636.836	14.2222
395.837	6.23398	20.4685	488.641	636.951	14.2245
395.998	6.18475	20.5465	488.671	636.928	14.2264
396.159	6.13619	18.1651	488.685	636.906	14.2267
396.321	6.14436	20.9057	488.711	636.915	14.2258
396.482	6.18439	18.8462	488.711	636.919	14.2230
396.643	6.20541	12.2946	488.682	636.901	14.2225
396.805	6.22931	18.7424	488.666	636.889	14.2226
396.966	6.20590	18.4357	488.643	636.880	14.2224
397.127	6.18746	14.0299	488.597	636.846	14.2229
397.289	6.20790	12.6779	488.553	636.800	14.2231
397.450	6.27467	11.3141	488.527	636.769	14.2237
397.611	6.33231	20.0308	488.480	636.726	14.2238
397.772	6.39055	13.9833	488.443	636.731	14.2217
397.934	6.35922	14.7401	488.509	636.882	14.2203
398.095	6.31097	16.3037	488.639	637.081	14.2203
398.256	6.37768	25.0675	488.730	637.186	14.2208
398.418	6.49833	21.5302	488.762	637.175	14.2224
398.579	6.44131	18.7589	488.787	637.123	14.2246
398.740	6.30531	22.3659	488.821	637.086	14.2260
398.902	6.25287	18.9412	488.810	637.030	14.2257
399.063	6.30275	19.5695	488.724	636.905	14.2253
399.224	6.33771	27.9713	488.645	636.802	14.2253
399.386	6.29068	38.6657	488.615	636.805	14.2237
399.547	6.25766	43.4670	488.633	636.892	14.2224
399.708	6.23747	62.4847	488.669	636.996	14.2213
399.869	6.19530	55.7158	488.671	637.047	14.2211
400.031	6.20565	52.4690	488.659	637.050	14.2212
400.192	6.21006	54.2216	488.673	637.069	14.2212
400.353	6.15824	40.0722	488.660	637.042	14.2220
400.515	6.15941	42.3518	488.630	636.983	14.2222
400.676	6.16167	42.6212	488.632	636.975	14.2225
400.837	6.16716	32.2424	488.634	636.981	14.2222
400.999	6.16248	24.8520	488.624	636.977	14.2217
401.160	6.16403	26.8234	488.580	636.936	14.2208
401.321	6.16618	22.8217	488.541	636.909	14.2198
401.483	6.19774	20.6070	488.542	636.933	14.2194
401.644	6.27396	23.4781	488.555	636.970	14.2196
401.805	6.36787	17.9515	488.563	636.987	14.2203
401.966	6.39811	16.0424	488.561	636.962	14.2216
402.128	6.30170	17.2633	488.590	636.984	14.2214
402.289	6.34870	15.1120	488.634	637.053	14.2215
402.450	6.35965	13.4328	488.684	637.112	14.2237
402.612	6.21263	19.4854	488.783	637.184	14.2274
402.773	6.17136	23.5442	488.855	637.199	14.2303
402.934	6.20271	27.3495	488.888	637.171	14.2320
403.096	6.19427	35.5010	488.865	637.088	14.2330
403.257	6.21377	37.0746	488.799	636.971	14.2335
403.418	6.18375	34.2359	488.784	636.949	14.2328
403.580	6.19589	36.5768	488.741	636.930	14.2308
403.741	6.19886	33.1202	488.688	636.925	14.2281
403.902	6.20872	28.7884	488.660	636.970	14.2251
404.063	6.20825	31.4212	488.600	636.962	14.2231
404.225	6.17055	33.7371	488.590	636.995	14.2214
404.386	6.18246	37.9578	488.602	637.037	14.2210
404.547	6.22474	41.0953	488.594	637.029	14.2211
404.709	6.21378	40.2067	488.580	637.003	14.2216
404.870	6.24929	33.8252	488.563	636.992	14.2206
405.031	6.27121	22.6567	488.539	636.986	14.2201
