~VERSION INFORMATION
VERS.               2.0  :CWLS LOG ASCII STANDARD - VERSION 2.0
WRAP.                NO  :ONE LINE PER DEPTH STEP
#------------------------------------------------------------
~WELL INFORMATION
STRT.FT         1.60000  :FIRST INDEX VALUE
STOP.FT         473.426  :LAST INDEX VALUE
STEP.FT        0.000000  :STEP
NULL.            -99999  :NULL VALUE
COMP. Beaver brand hats  :COMP
WELL.                    :WELL
FLD.                     :FIELD
LOC. well at SW corner of building 75 ft east of Hwy C, New Haven MO  :LOC
LATI.                    :LATITUDE
LONG.                    :LONGITUDE
GDAT.            /NAD83  :GDAT
SRVC.              USGS  :SRVC
CTRY.                    :COUNTRY
PROV.                    :PROVINCE
STAT.          Missouri  :STAT
CNTY.    Franklin (071)  :CNTY
DATE.        05/22/2009  :DATE
UWI.    383549091130801  :UWI
API.                     :API NUMBER
LIC.                     :LICENSE NUMBER
#------------------------------------------------------------
~CURVE INFORMATION
DEPT.FT                   :DEPTH
Caliper.IN                   :Caliper
Gamma.CPS                   :Gamma
FCond 25'C.US/CM                   :FCond 25'C
FCond.US/CM                   :FCond
Temperature.DEG_C                   :Temperature
#------------------------------------------------------------
~PARAMETER INFORMATION
OTID.        Beaver Hat  :OTID
BS.               6 in.  :BS
CASD.             6 in.  :CASD
STNM.   New Haven JS-25  :STNM
LOGU.        MWSC-Rolla  :LOGU
LMF.                 LS  :LMF
APD.             0.0 ft  :APD
RMKS. SWL 82.12 ft BTOC (81.42 ft LS).  zerod tool at LS (stickup = 0.70 ft)  :RMKS
RMK1.  Mt Sopris    2PFA+2PGA  Fluid tool,, SN 3427  05-22-2009  11_30  amlogging down ~10 ft/min, error <0.5 ft  :RMK1
CASX.               PVC  :CASX
RECB.        Schumacher  :RECB
OBSR. L. Gorday (Parsons Eng.)  :OBSR
RMK2. Mt Sopris  2PGA+2PFA  gamma, SN 2952m 05-22-2009 12_30 hrs, logging up ~ 20 ft/min, depth error <0.5 ft    :RMK2
ADAT.            NGVD29  :ADAT
RMK3. Mt Sopris, 2PCA Caliper (long arms)  SN 3427, 10-11-2010, 1430 hrs, logging up, 15 ft/m. error < 0.5 ft_  :RMK3
FTYP.     Potable water  :FTYP
RMK4. Mt Sopris  HFP, heat Pulse, SN 3122, 10-11-2010   1100 hrs, Ambient conditions (no pumping) logged down,, depth error < 0.5 ft  :RMK4
DUNT.               E/M  :DUNT
RMK5.                    :RMK5
LON.           911308.1  :LON
RMK6.                    :RMK6
DRDP.          473.5 ft  :DRDP
SOFT.                    :SOFT
LAT.           383548.9  :LAT
DFLD.          81.42 ft  :DFLD
MAGN.                    :MAGN
EREF.         617.26 ft  :EREF
HYDR. Pump removed well unused. ran caliper and heat pulse on 10/11/2010  LS (PVC csg has 0.7 ft stickup)  :HYDR
PROJ. Riverfront Superfund Site  :PROJ
FIID.                ZB  :FIID
DREF.      Land surface  :DREF
TIME.             11_30  :TIME
CASB.               101  :CASB
TVER.                    :TVER
ORIE.              Vert  :ORIE
#------------------------------------------------------------
~OTHER
#------------------------------------------------------------
#<------------------LOG DATA-------------------
#DEPTH	Caliper	Gamma	FCond 25'C	FCond	Temperature
#FT	IN	CPS	US/CM	US/CM	DEG_C
~A  DEPT[FT]    Caliper[    Gamma[cp    FCond 25    FCond[uS    Temperat
1.60000	-99999.0	-99999.0	-99999.0	-99999.0	-99999.0
1.76131	-99999.0	92.8564	-99999.0	-99999.0	-99999.0
1.92262	-99999.0	88.9669	-99999.0	-99999.0	-99999.0
2.08392	-99999.0	95.4914	-99999.0	-99999.0	-99999.0
2.24523	-99999.0	97.2527	-99999.0	-99999.0	-99999.0
2.40654	-99999.0	91.8365	-99999.0	-99999.0	-99999.0
2.56785	-99999.0	101.373	-99999.0	-99999.0	-99999.0
2.72916	-99999.0	105.527	-99999.0	-99999.0	-99999.0
2.89046	-99999.0	105.982	-99999.0	-99999.0	-99999.0
3.05177	-99999.0	94.3429	-99999.0	-99999.0	-99999.0
3.21308	-99999.0	79.2769	-99999.0	-99999.0	-99999.0
3.37439	-99999.0	75.6551	-99999.0	-99999.0	15.6053
3.53570	-99999.0	98.1462	-99999.0	-99999.0	15.6034
3.69700	-99999.0	114.737	-99999.0	-99999.0	15.6017
3.85831	-99999.0	103.888	-99999.0	-99999.0	15.6014
4.01962	-99999.0	93.2085	-99999.0	-99999.0	16.0356
4.18093	-99999.0	84.5403	-99999.0	-99999.0	19.7303
4.34224	-99999.0	95.2987	34114.5	34974.9	19.7254
4.50354	-99999.0	101.033	34191.7	35061.2	19.7204
4.66485	-99999.0	108.650	34237.4	35115.6	19.7149
4.82616	-99999.0	86.6563	34340.8	35229.7	19.7097
4.98747	-99999.0	84.2426	34422.3	35321.7	19.7039
5.14878	-99999.0	97.5297	34463.9	35373.3	19.6980
5.31008	-99999.0	92.0719	34580.3	35501.9	19.6925
5.47139	-99999.0	87.2043	34662.9	35596.3	19.6857
5.63270	-99999.0	82.4449	34728.4	35673.5	19.6799
5.79401	-99999.0	88.9925	34831.6	35789.3	19.6737
5.95532	-99999.0	93.1142	34860.3	35828.7	19.6675
6.11662	-99999.0	96.3566	34939.2	35920.3	19.6611
6.27793	-99999.0	94.8453	35020.3	36013.9	19.6550
6.43924	-99999.0	94.3898	35053.2	36057.6	19.6490
6.60055	-99999.0	106.050	35119.8	36136.4	19.6425
6.76186	-99999.0	99.5019	35200.5	36230.1	19.6360
6.92316	-99999.0	97.4061	35298.1	36340.6	19.6300
7.08447	-99999.0	100.677	35368.0	36422.5	19.6237
7.24578	-99999.0	96.6087	35428.4	36494.7	19.6177
7.40709	-99999.0	105.498	35498.6	36577.2	19.6118
7.56840	-99999.0	106.537	35584.6	36675.7	19.6063
7.72970	-99999.0	93.5113	35672.3	36775.7	19.6004
7.89101	-99999.0	87.3260	35764.4	36881.1	19.5941
8.05232	-99999.0	95.6749	35801.7	36930.0	19.5883
8.21363	-99999.0	95.8923	35785.7	36923.5	19.5827
8.37494	-99999.0	82.9622	35863.5	37013.4	19.5774
8.53624	-99999.0	87.2495	35944.5	37106.4	19.5722
8.69755	-99999.0	87.4200	36062.1	37236.8	19.5674
8.85886	-99999.0	93.4182	36231.1	37420.4	19.5626
9.02017	-99999.0	78.7090	36270.2	37469.9	19.5578
9.18148	-99999.0	64.6365	36277.4	37486.4	19.5522
9.34278	-99999.0	62.6179	36370.3	37591.6	19.5473
9.50409	-99999.0	60.2333	36407.7	37639.2	19.5421
9.66540	-99999.0	53.4963	36451.4	37693.0	19.5372
9.82671	-99999.0	59.1030	36555.9	37809.5	19.5326
9.98802	-99999.0	51.6316	36670.7	37936.1	19.5285
10.1493	-99999.0	51.8932	36723.9	37998.7	19.5246
10.3106	-99999.0	54.4927	36706.2	37987.4	19.5210
10.4719	-99999.0	50.4979	36728.3	38016.1	19.5183
10.6332	-99999.0	52.0144	36809.9	38105.1	19.5165
10.7946	-99999.0	64.4071	36930.2	38234.3	19.5138
10.9559	-99999.0	62.8454	37039.2	38352.4	19.5111
11.1172	-99999.0	66.8426	37104.5	38424.9	19.5086
11.2785	-99999.0	51.5191	37174.8	38503.5	19.5051
11.4398	-99999.0	42.9375	37283.6	38622.2	19.5021
11.6011	-99999.0	55.8069	37402.2	38751.2	19.4986
11.7624	-99999.0	61.9440	37482.3	38840.0	19.4957
11.9237	-99999.0	42.2570	37608.6	38976.6	19.4925
12.0850	-99999.0	51.6404	37653.0	39028.6	19.4894
12.2463	-99999.0	39.2711	37671.8	39054.9	19.4852
12.4076	-99999.0	44.9816	37748.3	39141.0	19.4820
12.5689	-99999.0	33.5809	37793.7	39193.8	19.4795
12.7303	-99999.0	34.0573	37885.9	39294.4	19.4770
12.8916	-99999.0	35.3184	38001.8	39419.4	19.4744
13.0529	-99999.0	34.9008	38087.9	39512.9	19.4727
13.2142	-99999.0	35.7035	38211.9	39644.4	19.4720
13.3755	-99999.0	35.8250	38331.9	39771.2	19.4708
13.5368	-99999.0	45.5501	38345.3	39787.8	19.4693
13.6981	-99999.0	48.6964	38414.7	39862.5	19.4685
13.8594	-99999.0	41.0917	38528.6	39983.2	19.4671
14.0207	-99999.0	42.9267	38649.6	40111.2	19.4661
14.1820	-99999.0	39.9998	38744.0	40210.9	19.4657
14.3433	-99999.0	48.3352	38779.1	40247.9	19.4660
14.5046	-99999.0	54.2286	38817.2	40287.7	19.4663
14.6659	-99999.0	36.2137	38921.0	40395.6	19.4663
14.8273	-99999.0	29.9279	39063.6	40544.0	19.4657
14.9886	-99999.0	31.1926	39184.1	40670.2	19.4652
15.1499	-99999.0	42.3563	39223.6	40712.3	19.4648
15.3112	-99999.0	30.2361	39232.4	40722.3	19.4646
15.4725	-99999.0	36.3625	39345.5	40841.2	19.4639
15.6338	-99999.0	37.0495	39495.6	40998.4	19.4633
15.7951	-99999.0	22.8215	39593.7	41102.3	19.4619
15.9564	-99999.0	26.0525	39682.4	41197.3	19.4605
16.1177	-99999.0	31.3466	39781.1	41302.2	19.4595
16.2790	-99999.0	32.2579	39862.7	41388.8	19.4588
16.4403	-99999.0	30.1918	39970.3	41501.8	19.4586
16.6016	-99999.0	24.6507	40046.7	41581.6	19.4583
16.7630	-99999.0	22.6375	40107.4	41645.1	19.4577
16.9243	6.13417	24.4040	40220.2	41762.7	19.4578
17.0856	6.14080	21.5842	40372.9	41920.9	19.4582
17.2469	6.13094	21.1728	40499.7	42051.4	19.4591
17.4082	6.13072	22.5153	40574.9	42127.7	19.4605
17.5695	6.13482	15.7244	40699.9	42255.3	19.4615
17.7308	6.13807	19.1793	40797.7	42355.0	19.4626
17.8921	6.13139	23.0513	40829.1	42386.0	19.4638
18.0534	6.13072	14.7659	40928.2	42487.7	19.4642
18.2147	6.12539	13.9077	41057.4	42620.7	19.4651
18.3760	6.13226	15.8519	41182.7	42749.2	19.4660
18.5373	6.12090	11.6992	41260.7	42828.7	19.4666
18.6986	6.13367	12.7686	41293.3	42862.3	19.4662
18.8600	6.13186	19.5231	41429.9	43004.8	19.4660
19.0213	6.13555	21.8499	41580.3	43161.7	19.4653
19.1826	6.12734	23.9967	41727.1	43315.6	19.4644
19.3439	6.13390	21.4264	41870.1	43465.5	19.4636
19.5052	6.20459	27.6125	42020.4	43622.7	19.4631
19.6665	5.98032	31.1566	42120.2	43727.0	19.4630
19.8278	6.03487	31.9783	42107.5	43713.4	19.4637
19.9891	6.09854	38.1413	42210.2	43818.6	19.4643
20.1504	6.09627	34.3378	42372.5	43985.1	19.4653
20.3117	6.09834	32.2115	42501.4	44116.3	19.4665
20.4730	6.09648	25.5540	42604.2	44221.1	19.4664
20.6343	6.09814	34.4613	42684.4	44305.3	19.4647
20.7957	6.09668	42.0616	42813.0	44441.2	19.4640
20.9570	6.09793	49.6641	42972.7	44608.4	19.4637
21.1183	6.09688	48.0349	43110.5	44753.0	19.4621
21.2796	6.09773	30.0262	43260.3	44910.7	19.4611
21.4409	6.09708	55.5445	43376.2	45032.0	19.4611
21.6022	6.09753	67.5765	43468.1	45127.1	19.4613
21.7635	6.09729	58.2605	43590.5	45252.8	19.4622
21.9248	6.09733	55.1470	43590.6	45250.4	19.4636
22.0861	6.09749	45.3070	43736.0	45398.2	19.4650
22.2474	6.09713	28.8759	43954.0	45621.7	19.4662
22.4087	6.09499	25.5301	44063.2	45732.6	19.4674
22.5700	6.09605	28.8476	44253.3	45927.5	19.4679
22.7313	6.10146	28.1381	44395.7	46073.4	19.4682
22.8927	6.09672	46.4218	44478.5	46157.9	19.4690
23.0540	6.09809	30.9553	44530.4	46210.6	19.4691
23.2153	6.09652	26.4383	44608.4	46290.5	19.4695
23.3766	6.10039	24.5340	44720.5	46406.1	19.4694
23.5379	6.09840	29.6157	44886.1	46577.2	19.4699
23.6992	6.09621	16.2103	45075.2	46772.0	19.4705
23.8605	6.09860	17.9141	45193.7	46893.7	19.4711
24.0218	6.09601	15.4660	45353.7	47058.2	19.4720
24.1831	6.09721	25.0841	45484.3	47191.2	19.4733
24.3444	6.09123	30.7608	45539.6	47245.8	19.4742
24.5057	6.10039	30.7799	45653.1	47361.3	19.4750
24.6670	6.10039	24.9232	45788.1	47499.8	19.4755
24.8284	6.09802	24.7329	45941.3	47657.9	19.4751
24.9897	6.09150	31.8775	46049.6	47770.5	19.4742
25.1510	6.10351	33.1427	45968.3	47687.2	19.4737
25.3123	6.08904	31.3663	46132.5	47859.1	19.4724
25.4736	6.09452	27.1547	46516.9	48259.9	19.4712
25.6349	6.09971	33.3087	46638.2	48387.5	19.4699
25.7962	6.09490	32.5448	46730.0	48485.2	19.4685
25.9575	6.09991	25.5741	46912.3	48675.6	19.4682
26.1188	6.09470	29.1055	47113.0	48884.4	19.4675
26.2801	6.10012	34.2960	47246.4	49023.5	19.4668
26.4414	6.09450	33.6281	47359.5	49141.4	19.4664
26.6027	6.10033	45.4141	47503.0	49290.8	19.4658
26.7640	6.09490	47.4368	47595.2	49387.5	19.4646
26.9254	6.10027	33.9244	47639.7	49435.3	19.4637
27.0867	6.09456	32.3766	47705.9	49505.7	19.4624
27.2480	6.10579	34.2089	47837.5	49644.7	19.4610
27.4093	6.09457	37.5558	47937.4	49751.4	19.4592
27.5706	6.09980	34.8180	48076.0	49899.1	19.4570
27.7319	6.09496	35.1913	48264.6	50099.2	19.4547
27.8932	6.09965	33.9857	48630.9	50483.1	19.4533
