~VERSION INFORMATION
VERS.               2.0  :CWLS LOG ASCII STANDARD - VERSION 2.0
WRAP.                NO  :ONE LINE PER DEPTH STEP
#------------------------------------------------------------
~WELL INFORMATION
STRT.FT         1.60000  :FIRST INDEX VALUE
STOP.FT         473.426  :LAST INDEX VALUE
STEP.FT        0.000000  :STEP
NULL.            -99999  :NULL VALUE
COMP. Beaver brand hats  :COMP
WELL.                    :WELL
FLD.                     :FIELD
LOC. well at SW corner of building 75 ft east of Hwy C, New Haven MO  :LOC
LATI.                    :LATITUDE
LONG.                    :LONGITUDE
GDAT.            /NAD83  :GDAT
SRVC.              USGS  :SRVC
CTRY.                    :COUNTRY
PROV.                    :PROVINCE
STAT.          Missouri  :STAT
CNTY.    Franklin (071)  :CNTY
DATE.        05/22/2009  :DATE
UWI.    383549091130801  :UWI
API.                     :API NUMBER
LIC.                     :LICENSE NUMBER
#------------------------------------------------------------
~CURVE INFORMATION
DEPT.FT                   :DEPTH
Caliper.IN                   :Caliper
Gamma.CPS                   :Gamma
FCond 25'C.US/CM                   :FCond 25'C
FCond.US/CM                   :FCond
Temperature.DEG_C                   :Temperature
#------------------------------------------------------------
~PARAMETER INFORMATION
OTID.        Beaver Hat  :OTID
BS.               6 in.  :BS
CASD.             6 in.  :CASD
STNM.   New Haven JS-25  :STNM
LOGU.        MWSC-Rolla  :LOGU
LMF.                 LS  :LMF
APD.             0.0 ft  :APD
RMKS. SWL 82.12 ft BTOC (81.42 ft LS).  zerod tool at LS (stickup = 0.70 ft)  :RMKS
RMK1.  Mt Sopris    2PFA+2PGA  Fluid tool,, SN 3427  05-22-2009  11_30  amlogging down ~10 ft/min, error <0.5 ft  :RMK1
CASX.               PVC  :CASX
RECB.        Schumacher  :RECB
OBSR. L. Gorday (Parsons Eng.)  :OBSR
RMK2. Mt Sopris  2PGA+2PFA  gamma, SN 2952m 05-22-2009 12_30 hrs, logging up ~ 20 ft/min, depth error <0.5 ft    :RMK2
ADAT.            NGVD29  :ADAT
RMK3. Mt Sopris, 2PCA Caliper (long arms)  SN 3427, 10-11-2010, 1430 hrs, logging up, 15 ft/m. error < 0.5 ft_  :RMK3
FTYP.     Potable water  :FTYP
RMK4. Mt Sopris  HFP, heat Pulse, SN 3122, 10-11-2010   1100 hrs, Ambient conditions (no pumping) logged down,, depth error < 0.5 ft  :RMK4
DUNT.               E/M  :DUNT
RMK5.                    :RMK5
LON.           911308.1  :LON
RMK6.                    :RMK6
DRDP.          473.5 ft  :DRDP
SOFT.                    :SOFT
LAT.           383548.9  :LAT
DFLD.          81.42 ft  :DFLD
MAGN.                    :MAGN
EREF.         617.26 ft  :EREF
HYDR. Pump removed well unused. ran caliper and heat pulse on 10/11/2010  LS (PVC csg has 0.7 ft stickup)  :HYDR
PROJ. Riverfront Superfund Site  :PROJ
FIID.                ZB  :FIID
DREF.      Land surface  :DREF
TIME.             11_30  :TIME
CASB.               101  :CASB
TVER.                    :TVER
ORIE.              Vert  :ORIE
#------------------------------------------------------------
~OTHER
#------------------------------------------------------------
#<------------------LOG DATA-------------------
#DEPTH	Caliper	Gamma	FCond 25'C	FCond	Temperature
#FT	IN	CPS	US/CM	US/CM	DEG_C
~A  DEPT[FT]    Caliper[    Gamma[cp    FCond 25    FCond[uS    Temperat
# ...
432.131	6.15332	11.9147	489.142	637.963	14.2148
432.292	6.12680	12.6523	489.206	638.058	14.2155
432.454	6.13038	12.9834	489.182	638.026	14.2161
432.615	6.12829	12.6824	489.189	638.025	14.2163
432.776	6.15672	14.1152	489.195	638.034	14.2157
432.938	6.15861	15.8899	489.188	638.026	14.2159
433.099	6.22146	20.1437	489.165	638.004	14.2147
433.260	6.20014	22.0800	489.145	637.997	14.2140
433.422	6.14913	19.8654	489.144	637.999	14.2134
433.583	6.14388	19.5194	489.171	638.035	14.2132
433.744	6.19699	19.4710	489.205	638.069	14.2134
433.905	6.17683	20.7914	489.218	638.072	14.2136
434.067	6.19392	23.6396	489.229	638.072	14.2141
434.228	6.23065	20.5539	489.205	638.037	14.2140
434.389	6.24615	18.4801	489.154	637.965	14.2144
434.551	6.22932	17.8161	489.132	637.920	14.2148
434.712	6.18214	14.1711	489.149	637.944	14.2142
434.873	6.19920	14.2378	489.137	637.945	14.2133
435.035	6.22199	14.4549	489.105	637.916	14.2119
435.196	6.21226	13.9937	489.080	637.890	14.2108
435.357	6.18847	15.0315	489.061	637.874	14.2096
435.519	6.18602	12.2082	489.083	637.927	14.2084
435.680	6.20644	12.4358	489.117	637.991	14.2074
435.841	6.24150	11.8091	489.119	637.993	14.2070
436.002	6.30145	10.4923	489.138	637.993	14.2070
436.164	6.21888	15.9918	489.178	638.022	14.2069
436.325	6.16817	12.9743	489.221	638.062	14.2076
436.486	6.21992	8.46535	489.233	638.065	14.2074
436.648	6.24901	11.1047	489.289	638.129	14.2082
436.809	6.24028	11.4666	489.367	638.221	14.2116
436.970	6.19491	12.1173	489.367	638.211	14.2162
437.132	6.15682	8.44440	489.371	638.186	14.2181
437.293	6.22044	12.1425	489.394	638.169	14.2190
437.454	6.25880	5.57052	489.386	638.127	14.2190
437.616	6.21697	8.99047	489.371	638.104	14.2179
437.777	6.18451	11.8586	489.367	638.119	14.2161
437.938	6.17395	9.67003	489.323	638.089	14.2147
438.099	6.17187	7.61547	489.277	638.040	14.2142
438.261	6.19689	6.63742	489.311	638.096	14.2135
438.422	6.21370	10.5350	489.342	638.149	14.2134
438.583	6.21791	9.73405	489.334	638.146	14.2148
438.745	6.22356	10.7610	489.277	638.080	14.2155
438.906	6.19979	12.9521	489.218	638.001	14.2160
439.067	6.18705	11.7782	489.229	638.023	14.2157
439.229	6.19527	5.48844	489.253	638.071	14.2155
439.390	6.20715	7.21205	489.299	638.157	14.2145
439.551	6.22813	12.2364	489.348	638.243	14.2139
439.713	6.28040	8.33046	489.371	638.264	14.2139
439.874	6.29403	11.8382	489.355	638.224	14.2136
440.035	6.29105	14.0150	489.383	638.244	14.2140
440.196	6.33703	14.7831	489.434	638.313	14.2140
440.358	6.46709	15.5329	489.463	638.364	14.2147
440.519	6.46391	21.9027	489.454	638.342	14.2152
440.680	6.35506	27.0526	489.455	638.328	14.2151
440.842	6.32130	19.6543	489.526	638.412	14.2153
441.003	6.21297	20.7652	489.573	638.461	14.2149
441.164	6.22495	18.5036	489.584	638.471	14.2135
441.326	6.19935	17.1904	489.597	638.490	14.2126
441.487	6.20394	16.0999	489.632	638.535	14.2129
441.648	6.24994	19.5425	489.609	638.501	14.2137
441.810	6.22977	15.4476	489.564	638.439	14.2133
441.971	6.18646	11.5457	489.566	638.441	14.2126
442.132	6.22241	11.4364	489.550	638.424	14.2119
442.293	6.23771	8.29174	489.532	638.414	14.2122
442.455	6.35872	12.8346	489.532	638.431	14.2128
442.616	6.59578	14.4137	489.535	638.448	14.2121
442.777	6.62016	12.7733	489.531	638.448	14.2121
442.939	6.60312	11.9993	489.517	638.434	14.2121
443.100	6.77277	10.6508	489.504	638.418	14.2129
443.261	6.28007	12.5838	489.511	638.436	14.2127
443.423	6.18283	7.49806	489.518	638.463	14.2147
443.584	6.13411	6.59659	489.488	638.416	14.2177
443.745	6.11491	10.0489	489.479	638.384	14.2207
443.907	6.11339	7.58294	489.505	638.406	14.2237
444.068	6.11720	8.36091	489.535	638.449	14.2250
444.229	6.12146	9.15110	489.555	638.486	14.2251
444.390	6.11473	9.43808	489.550	638.484	14.2241
444.552	6.12417	9.38861	489.563	638.487	14.2240
444.713	6.14399	10.0553	489.601	638.534	14.2231
444.874	6.12126	9.75308	489.636	638.597	14.2234
445.036	6.12036	9.22089	489.654	638.621	14.2236
445.197	6.15510	11.4203	489.656	638.604	14.2244
445.358	6.15520	12.2715	489.683	638.611	14.2251
445.520	6.15221	13.1582	489.721	638.638	14.2261
445.681	6.16165	16.8518	489.739	638.644	14.2265
445.842	6.16539	13.4530	489.753	638.659	14.2263
446.004	6.12420	16.9970	489.767	638.680	14.2262
446.165	5.99855	11.6461	489.777	638.694	14.2256
446.326	6.04515	14.4318	489.766	638.685	14.2250
446.487	6.09766	9.34222	489.766	638.693	14.2253
446.649	6.09871	16.1639	489.786	638.723	14.2255
446.810	6.10039	13.2879	489.752	638.685	14.2249
446.971	6.10039	11.8853	489.698	638.619	14.2256
447.133	6.10039	14.2850	489.710	638.643	14.2259
447.294	6.10039	7.32245	489.711	638.667	14.2262
447.455	6.09810	9.29252	489.675	638.635	14.2273
447.617	6.09828	10.8592	489.749	638.745	14.2275
447.778	6.09824	7.59696	489.816	638.832	14.2282
447.939	6.09398	9.54477	489.791	638.794	14.2284
448.101	6.09172	13.9452	489.792	638.798	14.2290
448.262	6.09559	17.5705	489.821	638.828	14.2296
448.423	6.09853	10.6535	489.858	638.864	14.2316
448.584	6.09427	11.0607	489.899	638.905	14.2334
448.746	6.09344	16.0675	489.932	638.936	14.2350
448.907	6.09606	14.3445	489.932	638.929	14.2359
449.068	6.09606	14.2047	489.938	638.937	14.2368
449.230	6.09456	11.9354	489.988	638.994	14.2375
449.391	6.09457	5.99268	489.989	638.998	14.2371
449.552	6.09768	11.3806	489.975	638.981	14.2376
449.714	6.09015	9.90315	490.000	638.996	14.2373
449.875	6.09030	12.6589	490.049	639.040	14.2378
450.036	6.09812	11.9487	490.095	639.071	14.2386
450.198	6.09279	15.7601	490.111	639.072	14.2397
450.359	6.09598	10.2054	490.096	639.041	14.2401
450.520	6.09579	10.3930	490.083	639.023	14.2401
450.681	6.09521	9.89557	490.115	639.068	14.2397
450.843	6.09250	9.62956	490.161	639.130	14.2395
451.004	6.09535	10.0000	490.165	639.137	14.2389
451.165	6.09235	9.21523	490.137	639.107	14.2385
451.327	6.09541	9.71611	490.132	639.096	14.2387
451.488	6.09162	7.20858	490.142	639.100	14.2385
451.649	6.09606	6.83519	490.131	639.094	14.2379
451.811	6.09606	9.90470	490.141	639.117	14.2377
451.972	6.09633	13.0806	490.176	639.174	14.2373
452.133	6.09979	11.7648	490.149	639.141	14.2379
452.295	6.08764	7.34815	490.327	639.267	14.2432
452.456	6.09599	6.35461	490.555	639.442	14.2443
452.617	6.09108	8.25566	490.574	639.431	14.2453
452.779	6.09171	10.7047	490.580	639.425	14.2462
452.940	6.08755	12.8281	490.593	639.439	14.2473
453.101	6.08644	13.2113	490.580	639.431	14.2461
453.262	6.09135	12.9496	490.555	639.427	14.2446
453.424	6.08777	13.3584	490.548	639.446	14.2437
453.585	6.09127	12.8283	490.503	639.413	14.2430
453.746	6.08791	12.5681	490.473	639.400	14.2436
453.908	6.09113	15.0403	490.464	639.402	14.2446
454.069	6.08806	17.9848	490.453	639.400	14.2456
454.230	6.09098	14.8543	490.471	639.450	14.2467
454.392	6.08820	13.7063	490.465	639.476	14.2478
454.553	6.09084	8.97449	490.442	639.469	14.2475
454.714	6.08757	10.7118	490.426	639.456	14.2467
454.876	6.09046	14.4771	490.415	639.439	14.2454
455.037	6.08849	14.5788	490.450	639.490	14.2438
455.198	6.09055	9.79786	490.503	639.577	14.2429
455.359	6.08792	12.9541	490.517	639.597	14.2428
455.521	6.08709	8.95222	490.528	639.595	14.2436
455.682	6.08445	9.66912	490.560	639.619	14.2457
455.843	6.08019	8.62112	490.594	639.643	14.2481
456.005	6.08970	13.5697	490.595	639.627	14.2502
456.166	6.08775	14.3571	490.610	639.629	14.2514
456.327	6.08836	10.2830	490.640	639.667	14.2510
456.489	6.08398	4.24370	490.645	639.681	14.2505
456.650	6.08625	17.4684	490.649	639.685	14.2504
456.811	6.08685	13.6899	490.649	639.680	14.2505
456.973	6.08306	16.7426	490.660	639.703	14.2502
457.134	6.08535	18.5660	490.662	639.711	14.2504
457.295	6.09183	17.4049	490.650	639.679	14.2504
457.456	6.09176	15.4161	490.651	639.677	14.2491
457.618	6.08915	11.1615	490.673	639.709	14.2489
457.779	6.09137	12.3269	490.709	639.754	14.2487
457.940	6.08979	13.4802	490.719	639.779	14.2486
458.102	6.09111	15.9064	490.696	639.755	14.2494
458.263	6.09207	14.8125	490.737	639.804	14.2502
458.424	6.08850	14.5711	490.742	639.816	14.2504
458.586	6.08679	13.1051	490.699	639.765	14.2504
458.747	6.08187	10.7630	490.721	639.793	14.2508
458.908	6.08589	11.9589	490.729	639.800	14.2511
