~VERSION INFORMATION
VERS.               2.0  :CWLS LOG ASCII STANDARD - VERSION 2.0
WRAP.                NO  :ONE LINE PER DEPTH STEP
#------------------------------------------------------------
~WELL INFORMATION
STRT.FT         1.60000  :FIRST INDEX VALUE
STOP.FT         473.426  :LAST INDEX VALUE
STEP.FT        0.000000  :STEP
NULL.            -99999  :NULL VALUE
COMP. Beaver brand hats  :COMP
WELL.                    :WELL
FLD.                     :FIELD
LOC. well at SW corner of building 75 ft east of Hwy C, New Haven MO  :LOC
LATI.                    :LATITUDE
LONG.                    :LONGITUDE
GDAT.            /NAD83  :GDAT
SRVC.              USGS  :SRVC
CTRY.                    :COUNTRY
PROV.                    :PROVINCE
STAT.          Missouri  :STAT
CNTY.    Franklin (071)  :CNTY
DATE.        05/22/2009  :DATE
UWI.    383549091130801  :UWI
API.                     :API NUMBER
LIC.                     :LICENSE NUMBER
#------------------------------------------------------------
~CURVE INFORMATION
DEPT.FT                   :DEPTH
Caliper.IN                   :Caliper
Gamma.CPS                   :Gamma
FCond 25'C.US/CM                   :FCond 25'C
FCond.US/CM                   :FCond
Temperature.DEG_C                   :Temperature
#------------------------------------------------------------
~PARAMETER INFORMATION
OTID.        Beaver Hat  :OTID
BS.               6 in.  :BS
CASD.             6 in.  :CASD
STNM.   New Haven JS-25  :STNM
LOGU.        MWSC-Rolla  :LOGU
LMF.                 LS  :LMF
APD.             0.0 ft  :APD
RMKS. SWL 82.12 ft BTOC (81.42 ft LS).  zerod tool at LS (stickup = 0.70 ft)  :RMKS
RMK1.  Mt Sopris    2PFA+2PGA  Fluid tool,, SN 3427  05-22-2009  11_30  amlogging down ~10 ft/min, error <0.5 ft  :RMK1
CASX.               PVC  :CASX
RECB.        Schumacher  :RECB
OBSR. L. Gorday (Parsons Eng.)  :OBSR
RMK2. Mt Sopris  2PGA+2PFA  gamma, SN 2952m 05-22-2009 12_30 hrs, logging up ~ 20 ft/min, depth error <0.5 ft    :RMK2
ADAT.            NGVD29  :ADAT
RMK3. Mt Sopris, 2PCA Caliper (long arms)  SN 3427, 10-11-2010, 1430 hrs, logging up, 15 ft/m. error < 0.5 ft_  :RMK3
FTYP.     Potable water  :FTYP
RMK4. Mt Sopris  HFP, heat Pulse, SN 3122, 10-11-2010   1100 hrs, Ambient conditions (no pumping) logged down,, depth error < 0.5 ft  :RMK4
DUNT.               E/M  :DUNT
RMK5.                    :RMK5
LON.           911308.1  :LON
RMK6.                    :RMK6
DRDP.          473.5 ft  :DRDP
SOFT.                    :SOFT
LAT.           383548.9  :LAT
DFLD.          81.42 ft  :DFLD
MAGN.                    :MAGN
EREF.         617.26 ft  :EREF
HYDR. Pump removed well unused. ran caliper and heat pulse on 10/11/2010  LS (PVC csg has 0.7 ft stickup)  :HYDR
PROJ. Riverfront Superfund Site  :PROJ
FIID.                ZB  :FIID
DREF.      Land surface  :DREF
TIME.             11_30  :TIME
CASB.               101  :CASB
TVER.                    :TVER
ORIE.              Vert  :ORIE
#------------------------------------------------------------
~OTHER
#------------------------------------------------------------
#<------------------LOG DATA-------------------
#DEPTH	Caliper	Gamma	FCond 25'C	FCond	Temperature
#FT	IN	CPS	US/CM	US/CM	DEG_C
~A  DEPT[FT]    Caliper[    Gamma[cp    FCond 25    FCond[uS    Temperat
# ...
405.193	6.43279	16.0771	488.525	636.992	14.2189
405.354	6.43409	11.4465	488.535	637.029	14.2178
405.515	6.23564	13.3995	488.520	637.015	14.2174
405.677	6.21510	11.9565	488.499	636.986	14.2171
405.838	6.29276	15.9393	488.517	637.007	14.2170
405.999	6.26262	13.1631	488.538	637.033	14.2176
406.160	6.20377	12.8884	488.563	637.069	14.2179
406.322	6.29500	11.6303	488.616	637.144	14.2173
406.483	6.34522	10.5175	488.654	637.195	14.2170
406.644	6.27416	13.9012	488.647	637.168	14.2175
406.806	6.24918	16.1697	488.646	637.132	14.2188
406.967	6.29460	16.1392	488.661	637.128	14.2191
407.128	6.28559	11.8358	488.655	637.122	14.2189
407.290	6.28594	11.7904	488.663	637.146	14.2189
407.451	6.23100	16.2942	488.659	637.145	14.2192
407.612	6.22308	13.8119	488.680	637.167	14.2185
407.774	6.24599	17.7350	488.698	637.192	14.2184
407.935	6.27063	14.0500	488.692	637.171	14.2180
408.096	6.26015	13.9490	488.701	637.176	14.2180
408.257	6.18889	18.5842	488.717	637.199	14.2184
408.419	6.16511	19.5023	488.721	637.196	14.2179
408.580	6.19494	24.9873	488.732	637.211	14.2169
408.741	6.23394	21.8410	488.775	637.286	14.2161
408.903	6.24751	21.9220	488.788	637.308	14.2170
409.064	6.21113	25.2576	488.781	637.284	14.2179
409.225	6.20556	22.0797	488.848	637.361	14.2186
409.387	6.25042	17.7503	488.897	637.400	14.2202
409.548	6.24861	14.7906	488.895	637.363	14.2202
409.709	6.19693	17.0449	488.920	637.370	14.2200
409.871	6.17192	12.2108	488.914	637.362	14.2192
410.032	6.17809	8.50336	488.882	637.334	14.2190
410.193	6.21721	10.3259	488.878	637.328	14.2189
410.354	6.28471	16.0532	488.886	637.334	14.2192
410.516	6.28307	14.1331	488.879	637.323	14.2189
410.677	6.22705	14.1297	488.865	637.292	14.2189
410.838	6.19164	12.7494	488.817	637.216	14.2193
411.000	6.20885	14.3900	488.758	637.153	14.2176
411.161	6.25105	20.9258	488.723	637.160	14.2154
411.322	6.22947	13.0094	488.727	637.217	14.2148
411.484	6.25290	12.3580	488.703	637.222	14.2145
411.645	6.28050	21.8977	488.628	637.143	14.2150
411.806	6.23959	20.9624	488.591	637.091	14.2151
411.968	6.26863	15.1318	488.576	637.079	14.2147
412.129	6.23530	14.3297	488.594	637.136	14.2132
412.290	6.18684	16.9750	488.628	637.218	14.2138
412.451	6.23456	13.0255	488.610	637.218	14.2150
412.613	6.25815	12.6626	488.650	637.274	14.2162
412.774	6.25205	13.4446	488.698	637.331	14.2166
412.935	6.24375	13.8178	488.694	637.319	14.2169
413.097	6.16368	12.9832	488.723	637.337	14.2173
413.258	6.14916	12.3867	488.742	637.357	14.2174
413.419	6.23082	15.2977	488.760	637.390	14.2173
413.581	6.22782	13.0110	488.810	637.444	14.2175
413.742	6.28677	12.7533	488.853	637.482	14.2177
413.903	6.29103	16.9020	488.918	637.542	14.2183
414.065	6.40560	13.3779	489.007	637.620	14.2187
414.226	6.30795	11.4500	489.039	637.627	14.2193
414.387	6.33683	13.4675	489.031	637.585	14.2194
414.548	6.38301	11.6067	488.988	637.503	14.2200
414.710	6.19265	10.5079	489.020	637.515	14.2207
414.871	6.17405	11.6074	489.055	637.554	14.2208
415.032	6.15501	13.9927	488.987	637.491	14.2204
415.194	6.14491	17.1375	488.963	637.490	14.2191
415.355	6.15838	20.9453	488.978	637.529	14.2178
415.516	6.15332	22.1916	488.976	637.553	14.2159
415.678	6.15226	23.5002	488.922	637.520	14.2138
415.839	6.14549	22.0128	488.866	637.465	14.2133
416.000	6.14268	14.9293	488.839	637.438	14.2137
416.162	6.15662	16.5198	488.848	637.456	14.2143
416.323	6.25154	20.9015	488.875	637.498	14.2148
416.484	6.53511	27.6775	488.866	637.488	14.2150
416.646	6.40675	25.3073	488.869	637.489	14.2156
416.807	6.22361	18.3962	488.865	637.489	14.2162
416.968	6.17389	20.5595	488.909	637.561	14.2156
417.129	6.16972	25.1916	488.939	637.621	14.2149
417.291	6.16133	32.9382	488.916	637.613	14.2145
417.452	6.17580	31.4101	488.924	637.630	14.2151
417.613	6.19502	28.6201	488.923	637.615	14.2158
417.775	6.21296	28.4973	488.975	637.683	14.2158
417.936	6.22674	31.7716	489.035	637.770	14.2162
418.097	6.22814	36.3712	489.028	637.760	14.2170
418.259	6.24276	25.8055	489.018	637.728	14.2185
418.420	6.22429	28.7756	489.032	637.713	14.2192
418.581	6.18239	25.3176	489.046	637.699	14.2193
418.742	6.16774	19.1135	489.084	637.726	14.2194
418.904	6.16556	21.1834	489.127	637.759	14.2197
419.065	6.15737	15.0577	489.105	637.706	14.2203
419.226	6.14033	10.0120	489.053	637.613	14.2213
419.388	6.14188	10.9321	489.016	637.546	14.2212
419.549	6.15493	19.7519	488.997	637.529	14.2203
419.710	6.15582	21.3542	488.982	637.536	14.2186
419.872	6.17747	15.2807	488.979	637.563	14.2165
420.033	6.20282	15.2341	488.979	637.593	14.2152
420.194	6.20005	13.2050	488.961	637.590	14.2140
420.356	6.19577	14.2667	488.964	637.605	14.2135
420.517	6.19351	15.4864	488.947	637.593	14.2131
420.678	6.19648	10.0372	488.889	637.519	14.2131
420.840	6.17214	8.12369	488.875	637.506	14.2129
421.001	6.17839	11.5969	488.872	637.509	14.2130
421.162	6.18789	11.9265	488.819	637.448	14.2125
421.323	6.22607	8.95382	488.756	637.392	14.2118
421.485	6.26375	10.0299	488.693	637.340	14.2110
421.646	6.28936	11.4405	488.660	637.326	14.2102
421.807	6.27307	7.53228	488.644	637.337	14.2094
421.969	6.24516	6.33787	488.618	637.328	14.2101
422.130	6.30179	7.30505	488.604	637.324	14.2101
422.291	6.19544	7.02361	488.559	637.284	14.2102
422.453	6.24913	7.66076	488.522	637.253	14.2104
422.614	6.22605	8.47713	488.495	637.249	14.2095
422.775	6.22055	7.38393	488.481	637.271	14.2092
422.937	6.15749	6.23654	488.480	637.296	14.2090
423.098	6.17604	7.66038	488.498	637.327	14.2087
423.259	6.21726	10.7838	488.500	637.345	14.2070
423.420	6.21305	14.5075	488.524	637.385	14.2066
423.582	6.21305	13.0401	488.613	637.491	14.2056
423.743	6.14844	9.98891	488.706	637.615	14.2053
423.904	6.20641	11.8049	488.755	637.668	14.2056
424.066	6.24150	14.3048	488.758	637.636	14.2066
424.227	6.33197	15.2861	488.759	637.599	14.2077
424.388	6.28732	12.0229	488.788	637.612	14.2083
424.550	6.33310	9.35893	488.871	637.707	14.2085
424.711	6.45304	9.88468	488.927	637.777	14.2089
424.872	6.54719	16.2116	488.956	637.813	14.2105
425.034	6.54871	17.1414	489.018	637.882	14.2117
425.195	6.67605	10.2279	489.040	637.890	14.2128
425.356	6.98793	12.7360	489.026	637.828	14.2144
425.517	7.48116	16.1377	489.027	637.779	14.2158
425.679	7.28381	15.9129	489.053	637.781	14.2161
425.840	6.54578	12.4850	489.082	637.819	14.2152
426.001	6.42310	16.7228	489.050	637.789	14.2151
426.163	6.29000	17.0271	489.004	637.728	14.2149
426.324	6.27668	12.9725	488.989	637.713	14.2141
426.485	6.33759	9.17381	488.960	637.692	14.2127
426.647	6.25214	8.55667	488.928	637.675	14.2111
426.808	6.17523	12.1033	488.942	637.716	14.2092
426.969	6.15826	13.3830	488.965	637.764	14.2080
427.131	6.16217	8.69898	488.992	637.809	14.2077
427.292	6.21847	12.4370	489.035	637.859	14.2076
427.453	6.33467	8.04762	489.100	637.931	14.2074
427.614	6.43338	8.14086	489.157	637.988	14.2085
427.776	6.35715	16.2636	489.188	637.994	14.2118
427.937	6.29501	12.0278	489.256	638.037	14.2147
428.098	6.36771	11.7740	489.299	638.065	14.2152
428.260	6.38118	9.07200	489.309	638.072	14.2152
428.421	6.32160	12.2396	489.318	638.081	14.2154
428.582	6.31614	10.7885	489.312	638.051	14.2160
428.744	6.32778	12.1565	489.325	638.030	14.2170
428.905	6.34106	15.0114	489.359	638.057	14.2169
429.066	6.33805	20.5151	489.412	638.137	14.2176
429.228	6.27317	24.2418	489.390	638.131	14.2176
429.389	6.24772	23.9490	489.321	638.055	14.2180
429.550	6.22308	30.3226	489.358	638.102	14.2183
429.711	6.18272	25.0752	489.392	638.150	14.2181
429.873	6.18422	21.5685	489.369	638.118	14.2178
430.034	6.21131	23.9222	489.368	638.120	14.2174
430.195	6.25124	18.4487	489.361	638.123	14.2170
430.357	6.20604	15.1339	489.349	638.118	14.2159
430.518	6.15168	12.7572	489.346	638.129	14.2147
430.679	6.16446	11.1500	489.336	638.126	14.2146
430.841	6.18004	10.1430	489.282	638.052	14.2141
431.002	6.19082	15.5013	489.226	637.985	14.2140
431.163	6.16723	12.3797	489.186	637.947	14.2139
431.325	6.17490	14.4061	489.170	637.934	14.2148
431.486	6.17218	13.6897	489.192	637.968	14.2153
431.647	6.14584	10.7061	489.186	637.975	14.2150
431.808	6.15667	11.7326	489.148	637.944	14.2147
431.970	6.15643	13.9361	489.091	637.882	14.2147
