~VERSION INFORMATION
VERS.               2.0  :CWLS LOG ASCII STANDARD - VERSION 2.0
WRAP.                NO  :ONE LINE PER DEPTH STEP
#------------------------------------------------------------
~WELL INFORMATION
STRT.FT         1.60000  :FIRST INDEX VALUE
STOP.FT         473.426  :LAST INDEX VALUE
STEP.FT        0.000000  :STEP
NULL.            -99999  :NULL VALUE
COMP. Beaver brand hats  :COMP
WELL.                    :WELL
FLD.                     :FIELD
LOC. well at SW corner of building 75 ft east of Hwy C, New Haven MO  :LOC
LATI.                    :LATITUDE
LONG.                    :LONGITUDE
GDAT.            /NAD83  :GDAT
SRVC.              USGS  :SRVC
CTRY.                    :COUNTRY
PROV.                    :PROVINCE
STAT.          Missouri  :STAT
CNTY.    Franklin (071)  :CNTY
DATE.        05/22/2009  :DATE
UWI.    383549091130801  :UWI
API.                     :API NUMBER
LIC.                     :LICENSE NUMBER
#------------------------------------------------------------
~CURVE INFORMATION
DEPT.FT                   :DEPTH
Caliper.IN                   :Caliper
Gamma.CPS                   :Gamma
FCond 25'C.US/CM                   :FCond 25'C
FCond.US/CM                   :FCond
Temperature.DEG_C                   :Temperature
#------------------------------------------------------------
~PARAMETER INFORMATION
OTID.        Beaver Hat  :OTID
BS.               6 in.  :BS
CASD.             6 in.  :CASD
STNM.   New Haven JS-25  :STNM
LOGU.        MWSC-Rolla  :LOGU
LMF.                 LS  :LMF
APD.             0.0 ft  :APD
RMKS. SWL 82.12 ft BTOC (81.42 ft LS).  zerod tool at LS (stickup = 0.70 ft)  :RMKS
RMK1.  Mt Sopris    2PFA+2PGA  Fluid tool,, SN 3427  05-22-2009  11_30  amlogging down ~10 ft/min, error <0.5 ft  :RMK1
CASX.               PVC  :CASX
RECB.        Schumacher  :RECB
OBSR. L. Gorday (Parsons Eng.)  :OBSR
RMK2. Mt Sopris  2PGA+2PFA  gamma, SN 2952m 05-22-2009 12_30 hrs, logging up ~ 20 ft/min, depth error <0.5 ft    :RMK2
ADAT.            NGVD29  :ADAT
RMK3. Mt Sopris, 2PCA Caliper (long arms)  SN 3427, 10-11-2010, 1430 hrs, logging up, 15 ft/m. error < 0.5 ft_  :RMK3
FTYP.     Potable water  :FTYP
RMK4. Mt Sopris  HFP, heat Pulse, SN 3122, 10-11-2010   1100 hrs, Ambient conditions (no pumping) logged down,, depth error < 0.5 ft  :RMK4
DUNT.               E/M  :DUNT
RMK5.                    :RMK5
LON.           911308.1  :LON
RMK6.                    :RMK6
DRDP.          473.5 ft  :DRDP
SOFT.                    :SOFT
LAT.           383548.9  :LAT
DFLD.          81.42 ft  :DFLD
MAGN.                    :MAGN
EREF.         617.26 ft  :EREF
HYDR. Pump removed well unused. ran caliper and heat pulse on 10/11/2010  LS (PVC csg has 0.7 ft stickup)  :HYDR
PROJ. Riverfront Superfund Site  :PROJ
FIID.                ZB  :FIID
DREF.      Land surface  :DREF
TIME.             11_30  :TIME
CASB.               101  :CASB
TVER.                    :TVER
ORIE.              Vert  :ORIE
#------------------------------------------------------------
~OTHER
#------------------------------------------------------------
#<------------------LOG DATA-------------------
#DEPTH	Caliper	Gamma	FCond 25'C	FCond	Temperature
#FT	IN	CPS	US/CM	US/CM	DEG_C
~A  DEPT[FT]    Caliper[    Gamma[cp    FCond 25    FCond[uS    Temperat
# ...
162.747	6.15485	23.9810	493.598	638.461	14.5385
162.908	6.16066	23.2915	493.503	638.340	14.5371
163.069	6.17765	20.6093	493.343	638.153	14.5358
163.231	6.18469	22.0629	493.315	638.145	14.5342
163.392	6.18532	24.4179	493.567	638.514	14.5322
163.553	6.19578	15.3286	493.805	638.863	14.5306
163.715	6.19745	18.1730	493.829	638.914	14.5298
163.876	6.16729	26.9390	493.725	638.782	14.5293
164.037	6.21031	12.8697	493.681	638.722	14.5287
164.198	6.27480	10.7492	493.692	638.733	14.5287
164.360	6.32152	11.3161	493.537	638.537	14.5276
164.521	6.36327	16.2937	492.421	637.114	14.5260
164.682	6.42764	18.5502	490.111	634.153	14.5251
164.844	6.41082	18.7630	489.125	632.910	14.5235
165.005	6.34582	12.2005	490.444	634.659	14.5218
165.166	6.27423	10.8664	491.827	636.481	14.5209
165.328	6.23970	12.9232	492.835	637.791	14.5214
165.489	6.20391	15.1070	493.233	638.293	14.5231
165.650	6.19432	13.9227	492.251	637.000	14.5253
165.812	6.19745	22.0824	491.279	635.718	14.5264
165.973	6.19543	27.5088	491.173	635.576	14.5266
166.134	6.22501	34.4737	491.339	635.823	14.5256
166.295	6.29162	24.8311	491.533	636.110	14.5252
166.457	6.26998	35.3397	491.887	636.600	14.5238
166.618	6.18122	42.7165	492.385	637.279	14.5230
166.779	6.16531	23.9293	492.747	637.769	14.5231
166.941	6.19831	27.1250	492.623	637.617	14.5232
167.102	6.26724	21.8735	492.671	637.673	14.5229
167.263	6.29872	31.2080	492.961	638.034	14.5228
167.425	6.19177	37.7470	492.765	637.761	14.5230
167.586	6.11267	25.9748	492.864	637.864	14.5238
167.747	6.14735	28.6902	492.812	637.769	14.5249
167.909	6.17319	28.0548	491.943	636.617	14.5257
168.070	6.16403	21.7289	490.226	634.376	14.5257
168.231	6.15190	25.2418	488.643	632.333	14.5242
168.392	6.14840	32.2092	488.833	632.609	14.5226
168.554	6.13565	18.3995	490.370	634.648	14.5212
168.715	6.14254	25.3490	491.218	635.774	14.5217
168.876	6.14402	34.4624	491.439	636.049	14.5225
169.038	6.10629	31.5821	491.489	636.101	14.5220
169.199	6.11451	31.7436	491.364	635.929	14.5214
169.360	6.14315	42.8345	491.733	636.410	14.5204
169.522	6.17296	47.1308	492.128	636.931	14.5203
169.683	6.19988	50.0497	492.426	637.318	14.5202
169.844	6.16455	61.1505	492.394	637.281	14.5200
170.006	6.16371	75.7851	492.445	637.333	14.5199
170.167	6.20794	96.1550	492.508	637.377	14.5194
170.328	6.23419	102.249	492.618	637.482	14.5199
170.489	6.16349	94.1160	493.256	638.282	14.5207
170.651	6.10568	75.9531	493.837	639.036	14.5215
170.812	6.10107	57.8059	493.608	638.750	14.5227
170.973	6.10640	45.2954	493.058	638.039	14.5232
171.135	6.10547	36.1587	492.833	637.744	14.5231
171.296	6.10039	28.2644	492.684	637.540	14.5229
171.457	6.10039	31.0679	492.627	637.473	14.5225
171.619	6.10074	34.9615	492.784	637.721	14.5217
171.780	6.11245	32.3200	492.618	637.549	14.5208
171.941	6.10648	28.3861	492.119	636.936	14.5196
172.103	6.11239	25.8178	491.567	636.275	14.5186
172.264	6.16452	25.0736	491.491	636.236	14.5175
172.425	6.16709	27.8803	491.782	636.651	14.5160
172.586	6.16712	40.6981	491.962	636.899	14.5153
172.748	6.12839	44.2132	492.149	637.136	14.5145
172.909	6.11922	40.3301	492.340	637.367	14.5147
173.070	6.11859	45.8714	492.363	637.368	14.5151
173.232	6.12382	48.4646	492.119	637.014	14.5162
173.393	6.11347	47.5161	492.192	637.076	14.5169
173.554	6.12239	46.2834	492.473	637.430	14.5171
173.716	6.11973	53.6962	492.358	637.268	14.5179
173.877	6.12166	51.0982	492.352	637.245	14.5176
174.038	6.11944	53.7150	492.549	637.506	14.5159
174.200	6.11859	63.1630	492.558	637.523	14.5161
174.361	6.12147	45.8279	492.559	637.513	14.5168
174.522	6.12848	56.2896	492.558	637.507	14.5167
174.683	6.13072	54.3614	492.445	637.363	14.5162
174.845	6.12650	46.7153	492.556	637.499	14.5164
175.006	6.11942	64.4430	492.729	637.714	14.5162
175.167	6.12606	61.7491	492.592	637.525	14.5164
175.329	6.11898	49.5963	492.748	637.713	14.5159
175.490	6.12397	48.9060	492.981	638.018	14.5144
175.651	6.12330	48.3517	493.041	638.111	14.5130
175.813	6.12220	58.0852	493.119	638.223	14.5125
175.974	6.12115	52.3560	492.943	637.979	14.5129
176.135	6.12200	55.7311	492.525	637.420	14.5127
176.297	6.12135	33.8781	492.208	637.038	14.5114
176.458	6.12500	40.4086	492.345	637.303	14.5084
176.619	6.13213	46.4601	492.640	637.790	14.5054
176.780	6.14113	48.2929	492.795	638.039	14.5056
176.942	6.15737	59.9399	492.769	637.987	14.5062
177.103	6.16963	33.8616	492.485	637.583	14.5061
177.264	6.18252	27.9399	492.233	637.217	14.5062
177.426	6.20360	33.8446	492.094	637.032	14.5050
177.587	6.18598	16.9043	491.876	636.785	14.5045
177.748	6.13043	26.1733	491.611	636.482	14.5035
177.910	6.11184	20.3427	490.882	635.572	14.5026
178.071	6.11472	27.0592	490.244	634.772	14.5022
178.232	6.11440	25.2446	490.642	635.301	14.5020
178.394	6.11171	25.7073	490.960	635.686	14.5032
178.555	6.12125	24.1630	490.706	635.300	14.5040
178.716	6.11680	25.1791	490.081	634.428	14.5061
178.878	6.11421	32.1724	489.094	633.095	14.5064
179.039	6.11960	28.5514	488.589	632.445	14.5049
179.200	6.12597	32.1540	489.225	633.319	14.5027
179.361	6.13540	28.8872	489.395	633.602	14.5003
179.523	6.13248	26.2377	489.177	633.375	14.4990
179.684	6.13975	25.8190	490.198	634.742	14.4972
179.845	6.14394	30.3077	490.807	635.556	14.4970
180.007	6.14999	39.0609	490.705	635.427	14.4979
180.168	6.15722	32.6137	490.404	635.030	14.4988
180.329	6.16400	26.9091	490.387	634.990	14.5000
180.491	6.13810	34.4698	490.977	635.744	14.4994
180.652	6.10249	30.8237	490.375	634.961	14.4998
180.813	6.12310	26.8176	489.146	633.348	14.5008
180.975	6.13035	25.1729	489.508	633.799	14.5009
181.136	6.12521	18.8109	489.500	633.799	14.5006
181.297	6.13644	19.0625	488.276	632.221	14.5005
181.458	6.12480	20.9917	487.868	631.704	14.5001
181.620	6.13673	18.2958	488.308	632.308	14.4989
181.781	6.13085	15.1002	488.821	633.017	14.4975
181.942	6.14399	13.7857	489.171	633.525	14.4957
182.104	6.13148	13.6426	489.090	633.468	14.4946
182.265	6.15889	11.1847	488.928	633.284	14.4942
182.426	6.13088	7.60321	489.187	633.640	14.4927
182.588	6.14130	5.74586	489.303	633.826	14.4907
182.749	6.13946	4.62186	489.439	634.023	14.4898
182.910	6.13709	0.518924	489.657	634.305	14.4894
183.072	6.15217	1.41517	489.523	634.118	14.4899
183.233	6.15087	3.71607	488.969	633.372	14.4909
183.394	5.94716	8.55803	488.940	633.296	14.4918
183.555	6.08355	6.39358	489.601	634.121	14.4924
183.717	6.11183	9.41909	488.229	632.312	14.4929
183.878	6.11024	13.4602	485.294	628.475	14.4931
184.039	6.11676	10.1089	485.812	629.137	14.4928
184.201	6.12301	17.8525	488.354	632.449	14.4922
184.362	6.12466	12.4590	489.172	633.496	14.4939
184.523	6.13309	12.7576	488.636	632.729	14.4961
184.685	6.14577	17.3223	488.406	632.358	14.4975
184.846	6.14528	14.4092	489.580	633.830	14.4985
185.007	6.14036	8.50646	490.809	635.396	14.4993
185.169	6.12235	14.9373	490.685	635.205	14.5005
185.330	6.10847	10.9846	488.748	632.653	14.5012
185.491	6.10985	16.4345	486.506	629.724	14.5004
185.652	6.10550	9.89061	485.284	628.182	14.4976
185.814	6.11062	7.92653	485.171	628.138	14.4941
185.975	6.12069	6.80586	485.774	629.026	14.4900
186.136	6.11720	9.48751	486.588	630.175	14.4870
186.298	6.12184	16.0518	487.118	630.922	14.4861
186.459	6.12171	11.8605	487.152	630.955	14.4875
186.620	6.13285	17.2341	487.503	631.340	14.4896
186.782	6.14505	9.96628	488.340	632.358	14.4907
186.943	6.14036	15.9447	488.567	632.601	14.4922
187.104	6.14892	22.3760	488.670	632.685	14.4934
187.266	6.15392	26.9926	489.305	633.470	14.4941
187.427	6.15669	27.8348	489.133	633.203	14.4955
187.588	6.15190	36.8842	488.807	632.734	14.4964
187.749	6.15718	29.9216	488.967	632.953	14.4950
187.911	6.15725	41.3835	489.127	633.190	14.4946
188.072	6.16163	56.5410	489.351	633.473	14.4950
188.233	6.18635	63.9897	489.491	633.641	14.4954
188.395	6.18228	62.7966	489.472	633.602	14.4972
188.556	6.16374	74.8099	489.419	633.511	14.4976
188.717	6.15369	82.1849	489.454	633.567	14.4959
188.879	6.14975	79.8780	489.610	633.808	14.4937
189.040	6.14892	72.1816	489.674	633.917	14.4932
189.201	6.15922	62.9991	489.584	633.811	14.4928
189.363	6.18926	67.9485	489.579	633.819	14.4923
189.524	6.15544	65.2156	489.778	634.088	14.4916
