~VERSION INFORMATION
VERS.               2.0  :CWLS LOG ASCII STANDARD - VERSION 2.0
WRAP.                NO  :ONE LINE PER DEPTH STEP
#------------------------------------------------------------
~WELL INFORMATION
STRT.FT         1.60000  :FIRST INDEX VALUE
STOP.FT         473.426  :LAST INDEX VALUE
STEP.FT        0.000000  :STEP
NULL.            -99999  :NULL VALUE
COMP. Beaver brand hats  :COMP
WELL.                    :WELL
FLD.                     :FIELD
LOC. well at SW corner of building 75 ft east of Hwy C, New Haven MO  :LOC
LATI.                    :LATITUDE
LONG.                    :LONGITUDE
GDAT.            /NAD83  :GDAT
SRVC.              USGS  :SRVC
CTRY.                    :COUNTRY
PROV.                    :PROVINCE
STAT.          Missouri  :STAT
CNTY.    Franklin (071)  :CNTY
DATE.        05/22/2009  :DATE
UWI.    383549091130801  :UWI
API.                     :API NUMBER
LIC.                     :LICENSE NUMBER
#------------------------------------------------------------
~CURVE INFORMATION
DEPT.FT                   :DEPTH
Caliper.IN                   :Caliper
Gamma.CPS                   :Gamma
FCond 25'C.US/CM                   :FCond 25'C
FCond.US/CM                   :FCond
Temperature.DEG_C                   :Temperature
#------------------------------------------------------------
~PARAMETER INFORMATION
OTID.        Beaver Hat  :OTID
BS.               6 in.  :BS
CASD.             6 in.  :CASD
STNM.   New Haven JS-25  :STNM
LOGU.        MWSC-Rolla  :LOGU
LMF.                 LS  :LMF
APD.             0.0 ft  :APD
RMKS. SWL 82.12 ft BTOC (81.42 ft LS).  zerod tool at LS (stickup = 0.70 ft)  :RMKS
RMK1.  Mt Sopris    2PFA+2PGA  Fluid tool,, SN 3427  05-22-2009  11_30  amlogging down ~10 ft/min, error <0.5 ft  :RMK1
CASX.               PVC  :CASX
RECB.        Schumacher  :RECB
OBSR. L. Gorday (Parsons Eng.)  :OBSR
RMK2. Mt Sopris  2PGA+2PFA  gamma, SN 2952m 05-22-2009 12_30 hrs, logging up ~ 20 ft/min, depth error <0.5 ft    :RMK2
ADAT.            NGVD29  :ADAT
RMK3. Mt Sopris, 2PCA Caliper (long arms)  SN 3427, 10-11-2010, 1430 hrs, logging up, 15 ft/m. error < 0.5 ft_  :RMK3
FTYP.     Potable water  :FTYP
RMK4. Mt Sopris  HFP, heat Pulse, SN 3122, 10-11-2010   1100 hrs, Ambient conditions (no pumping) logged down,, depth error < 0.5 ft  :RMK4
DUNT.               E/M  :DUNT
RMK5.                    :RMK5
LON.           911308.1  :LON
RMK6.                    :RMK6
DRDP.          473.5 ft  :DRDP
SOFT.                    :SOFT
LAT.           383548.9  :LAT
DFLD.          81.42 ft  :DFLD
MAGN.                    :MAGN
EREF.         617.26 ft  :EREF
HYDR. Pump removed well unused. ran caliper and heat pulse on 10/11/2010  LS (PVC csg has 0.7 ft stickup)  :HYDR
PROJ. Riverfront Superfund Site  :PROJ
FIID.                ZB  :FIID
DREF.      Land surface  :DREF
TIME.             11_30  :TIME
CASB.               101  :CASB
TVER.                    :TVER
ORIE.              Vert  :ORIE
#------------------------------------------------------------
~OTHER
#------------------------------------------------------------
#<------------------LOG DATA-------------------
#DEPTH	Caliper	Gamma	FCond 25'C	FCond	Temperature
#FT	IN	CPS	US/CM	US/CM	DEG_C
~A  DEPT[FT]    Caliper[    Gamma[cp    FCond 25    FCond[uS    Temperat
# ...
297.439	6.16018	27.1704	487.803	633.884	14.3462
297.600	6.13042	32.1335	487.771	633.881	14.3446
297.762	6.10601	29.7434	487.741	633.888	14.3429
297.923	6.10591	25.8248	487.716	633.891	14.3422
298.084	6.11227	30.1557	487.712	633.904	14.3413
298.245	6.10105	29.0520	487.682	633.879	14.3409
298.407	6.10603	31.9460	487.642	633.838	14.3404
298.568	6.10092	31.8328	487.604	633.808	14.3391
298.729	6.10039	24.5830	487.582	633.806	14.3383
298.891	6.11009	24.5169	487.702	633.982	14.3374
299.052	6.11760	31.2376	487.878	634.229	14.3372
299.213	6.12885	20.6314	487.993	634.361	14.3387
299.375	6.13301	19.2272	488.054	634.362	14.3412
299.536	6.12139	24.9210	488.092	634.304	14.3432
299.697	6.13483	28.6574	488.107	634.220	14.3449
299.858	6.13900	14.7114	488.050	634.080	14.3459
300.020	6.14656	22.5945	487.988	633.977	14.3459
300.181	6.12507	28.6875	487.991	634.006	14.3443
300.342	6.11693	34.2682	488.021	634.118	14.3421
300.504	6.10947	22.6827	487.991	634.159	14.3401
300.665	6.11375	25.2837	487.894	634.065	14.3404
300.826	6.12630	27.9046	487.835	633.975	14.3414
300.988	6.13985	21.1154	487.892	634.032	14.3414
301.149	6.14736	22.7212	487.939	634.114	14.3400
301.310	6.15308	17.8143	487.930	634.148	14.3389
301.472	6.14777	11.0731	487.899	634.124	14.3392
301.633	6.15370	11.9868	487.841	634.035	14.3392
301.794	6.16808	18.9461	487.794	633.961	14.3390
301.956	6.15954	13.9992	487.761	633.914	14.3389
302.117	6.14050	14.9554	487.736	633.898	14.3376
302.278	6.14165	14.5127	487.724	633.926	14.3357
302.439	6.14384	17.4452	487.686	633.920	14.3346
302.601	6.13080	18.4702	487.614	633.852	14.3338
302.762	6.13222	14.3595	487.653	633.919	14.3337
302.923	6.15636	11.8471	487.749	634.060	14.3335
303.085	6.18683	7.36585	487.743	634.062	14.3343
303.246	6.17584	9.53795	487.657	633.921	14.3359
303.407	6.13770	10.9094	487.623	633.840	14.3361
303.569	6.14772	16.2856	487.712	633.966	14.3339
303.730	6.17485	14.4139	487.837	634.174	14.3320
303.891	6.18627	14.9189	487.947	634.344	14.3317
304.053	6.15418	14.3300	488.042	634.427	14.3340
304.214	6.12800	13.5625	488.165	634.489	14.3369
304.375	6.11935	18.6006	488.258	634.500	14.3397
304.536	6.11546	18.6794	488.221	634.358	14.3423
304.698	6.11968	20.1300	488.174	634.231	14.3439
304.859	6.11252	17.0465	488.134	634.164	14.3435
305.020	6.11496	20.7218	488.028	634.051	14.3422
305.182	6.11866	26.6077	487.984	634.031	14.3409
305.343	6.10473	30.2851	488.050	634.169	14.3390
305.504	6.10147	27.7384	488.087	634.278	14.3378
305.666	6.10393	33.2719	488.091	634.318	14.3373
305.827	6.09577	27.6695	487.997	634.200	14.3371
305.988	6.10119	28.4519	487.834	634.000	14.3351
306.150	6.10591	30.9567	487.749	633.963	14.3309
306.311	6.10529	27.2185	487.679	633.999	14.3268
306.472	6.10092	26.8480	487.657	634.070	14.3245
306.633	6.10547	28.0344	487.681	634.149	14.3235
306.795	6.10039	25.8992	487.673	634.136	14.3249
306.956	6.10067	29.4376	487.711	634.148	14.3254
307.117	6.10628	32.1852	487.780	634.203	14.3264
307.279	6.10046	27.2239	487.727	634.095	14.3273
307.440	6.10643	26.3308	487.632	633.940	14.3273
307.601	6.10592	33.0166	487.664	633.977	14.3263
307.763	6.10060	36.3640	487.692	634.037	14.3246
307.924	6.10560	28.1350	487.612	633.954	14.3241
308.085	6.10591	27.2107	487.551	633.888	14.3228
308.247	6.11194	32.8125	487.557	633.924	14.3214
308.408	6.10660	26.8191	487.563	633.967	14.3199
308.569	6.10591	28.6995	487.512	633.932	14.3193
308.730	6.11161	27.0519	487.472	633.898	14.3195
308.892	6.10693	30.4287	487.571	634.041	14.3185
309.053	6.10591	34.6067	487.769	634.313	14.3189
309.214	6.10143	32.9041	487.932	634.508	14.3217
309.376	6.09600	31.5240	487.981	634.499	14.3254
309.537	6.09917	24.7222	487.966	634.361	14.3298
309.698	6.10501	31.8110	487.989	634.276	14.3325
309.860	6.10193	29.2378	487.982	634.206	14.3326
310.021	6.10039	31.1565	487.904	634.089	14.3321
310.182	6.10432	28.8741	487.836	634.014	14.3308
310.344	6.09785	29.4894	487.782	633.992	14.3281
310.505	6.10219	34.8415	487.739	634.002	14.3257
310.666	6.10225	41.1771	487.725	634.056	14.3227
310.827	6.10822	31.0174	487.785	634.208	14.3206
310.989	6.14305	38.8400	487.826	634.310	14.3192
311.150	6.13067	25.6527	487.871	634.374	14.3196
311.311	6.10846	19.8082	487.907	634.398	14.3205
311.473	6.10933	21.5294	487.878	634.322	14.3217
311.634	6.11452	24.9589	487.887	634.277	14.3235
311.795	6.11122	22.9377	487.866	634.208	14.3245
311.957	6.11287	20.0694	487.835	634.150	14.3246
312.118	6.11209	36.6452	487.835	634.166	14.3227
312.279	6.11410	19.0378	487.874	634.260	14.3208
312.441	6.14384	30.6728	487.866	634.286	14.3196
312.602	6.13627	29.4229	487.805	634.220	14.3191
312.763	6.10039	27.7134	487.791	634.196	14.3187
312.924	6.10299	39.4535	487.775	634.164	14.3182
313.086	6.10396	34.4831	487.810	634.221	14.3170
313.247	6.10759	27.1585	487.851	634.303	14.3162
313.408	6.11378	33.1573	487.833	634.314	14.3152
313.570	6.10391	35.2801	487.837	634.343	14.3153
313.731	6.11087	31.7253	487.870	634.383	14.3161
313.892	6.12800	35.4672	487.848	634.336	14.3175
314.054	6.11901	28.4243	487.847	634.309	14.3190
314.215	6.11468	42.9872	487.902	634.368	14.3193
314.376	6.12137	33.4313	487.899	634.369	14.3197
314.538	6.11671	36.4893	487.865	634.329	14.3191
314.699	6.11616	34.6026	487.855	634.311	14.3188
314.860	6.13009	24.3295	487.874	634.331	14.3187
315.021	6.12598	29.0381	487.896	634.371	14.3184
315.183	6.12042	28.3872	487.902	634.382	14.3190
315.344	6.12846	27.8636	487.923	634.414	14.3187
315.505	6.13028	25.5058	487.993	634.509	14.3184
315.667	6.12837	31.6598	488.046	634.564	14.3190
315.828	6.13108	31.7840	488.034	634.502	14.3214
315.989	6.13162	24.0284	488.046	634.458	14.3223
316.151	6.12000	25.4394	488.084	634.527	14.3188
316.312	6.15031	23.3733	488.086	634.598	14.3171
316.473	6.16588	22.7169	488.087	634.599	14.3180
316.635	6.15607	21.1203	488.102	634.558	14.3193
316.796	6.16631	19.2030	488.124	634.519	14.3210
316.957	6.13886	20.8960	488.122	634.466	14.3220
317.118	6.12801	16.9712	488.052	634.363	14.3218
317.280	6.13660	13.1378	487.970	634.279	14.3209
317.441	6.13361	14.8405	487.907	634.249	14.3194
317.602	6.15382	13.7490	487.876	634.274	14.3178
317.764	6.15550	10.9220	487.817	634.254	14.3170
317.925	6.15504	16.2056	487.723	634.171	14.3165
318.086	6.14956	19.7821	487.764	634.263	14.3149
318.248	6.16443	20.9784	487.798	634.353	14.3133
318.409	6.15658	15.2620	487.723	634.281	14.3132
318.570	6.19742	8.16473	487.663	634.191	14.3135
318.732	6.18689	13.2591	487.635	634.141	14.3128
318.893	6.17013	18.5688	487.633	634.158	14.3116
319.054	6.17107	11.5154	487.610	634.176	14.3102
319.215	6.15490	14.6485	487.564	634.162	14.3093
319.377	6.13994	15.4080	487.525	634.134	14.3090
319.538	6.12610	22.0321	487.501	634.115	14.3079
319.699	6.12245	20.8809	487.521	634.161	14.3069
319.861	6.12834	16.9031	487.568	634.247	14.3065
320.022	6.12497	27.3020	487.601	634.304	14.3066
320.183	6.14454	24.5887	487.662	634.369	14.3074
320.345	6.20648	25.5129	487.761	634.449	14.3086
320.506	6.23346	26.1908	487.808	634.452	14.3091
320.667	6.18807	17.2727	487.779	634.366	14.3090
320.829	6.16848	17.0535	487.806	634.378	14.3078
320.990	6.17910	15.1396	487.902	634.509	14.3067
321.151	6.14927	19.7777	487.962	634.592	14.3065
321.312	6.13582	15.7687	488.001	634.617	14.3073
321.474	6.15685	12.8821	488.023	634.595	14.3079
321.635	6.16975	16.8669	488.060	634.592	14.3091
321.796	6.17491	19.2011	488.077	634.575	14.3105
321.958	6.17541	18.8948	488.024	634.484	14.3128
322.119	6.18323	24.6199	487.945	634.368	14.3131
322.280	6.22728	10.7876	487.865	634.275	14.3129
322.442	6.21916	13.1108	487.812	634.242	14.3120
322.603	6.16342	11.3050	487.790	634.268	14.3094
322.764	6.16179	16.9833	487.756	634.304	14.3067
322.926	6.15303	15.3225	487.729	634.325	14.3060
323.087	6.15420	10.9507	487.703	634.296	14.3055
323.248	6.15306	14.8463	487.652	634.235	14.3040
323.409	6.13614	7.80682	487.603	634.202	14.3025
323.571	6.15866	7.01235	487.592	634.222	14.3011
323.732	6.19861	7.77793	487.577	634.231	14.2997
323.893	6.15568	14.8336	487.486	634.144	14.2987
324.055	6.15717	14.9417	487.410	634.059	14.2979
324.216	6.18547	14.5088	487.401	634.059	14.2967
