~VERSION INFORMATION
VERS.               2.0  :CWLS LOG ASCII STANDARD - VERSION 2.0
WRAP.                NO  :ONE LINE PER DEPTH STEP
#------------------------------------------------------------
~WELL INFORMATION
STRT.FT         1.60000  :FIRST INDEX VALUE
STOP.FT         473.426  :LAST INDEX VALUE
STEP.FT        0.000000  :STEP
NULL.            -99999  :NULL VALUE
COMP. Beaver brand hats  :COMP
WELL.                    :WELL
FLD.                     :FIELD
LOC. well at SW corner of building 75 ft east of Hwy C, New Haven MO  :LOC
LATI.                    :LATITUDE
LONG.                    :LONGITUDE
GDAT.            /NAD83  :GDAT
SRVC.              USGS  :SRVC
CTRY.                    :COUNTRY
PROV.                    :PROVINCE
STAT.          Missouri  :STAT
CNTY.    Franklin (071)  :CNTY
DATE.        05/22/2009  :DATE
UWI.    383549091130801  :UWI
API.                     :API NUMBER
LIC.                     :LICENSE NUMBER
#------------------------------------------------------------
~CURVE INFORMATION
DEPT.FT                   :DEPTH
Caliper.IN                   :Caliper
Gamma.CPS                   :Gamma
FCond 25'C.US/CM                   :FCond 25'C
FCond.US/CM                   :FCond
Temperature.DEG_C                   :Temperature
#------------------------------------------------------------
~PARAMETER INFORMATION
OTID.        Beaver Hat  :OTID
BS.               6 in.  :BS
CASD.             6 in.  :CASD
STNM.   New Haven JS-25  :STNM
LOGU.        MWSC-Rolla  :LOGU
LMF.                 LS  :LMF
APD.             0.0 ft  :APD
RMKS. SWL 82.12 ft BTOC (81.42 ft LS).  zerod tool at LS (stickup = 0.70 ft)  :RMKS
RMK1.  Mt Sopris    2PFA+2PGA  Fluid tool,, SN 3427  05-22-2009  11_30  amlogging down ~10 ft/min, error <0.5 ft  :RMK1
CASX.               PVC  :CASX
RECB.        Schumacher  :RECB
OBSR. L. Gorday (Parsons Eng.)  :OBSR
RMK2. Mt Sopris  2PGA+2PFA  gamma, SN 2952m 05-22-2009 12_30 hrs, logging up ~ 20 ft/min, depth error <0.5 ft    :RMK2
ADAT.            NGVD29  :ADAT
RMK3. Mt Sopris, 2PCA Caliper (long arms)  SN 3427, 10-11-2010, 1430 hrs, logging up, 15 ft/m. error < 0.5 ft_  :RMK3
FTYP.     Potable water  :FTYP
RMK4. Mt Sopris  HFP, heat Pulse, SN 3122, 10-11-2010   1100 hrs, Ambient conditions (no pumping) logged down,, depth error < 0.5 ft  :RMK4
DUNT.               E/M  :DUNT
RMK5.                    :RMK5
LON.           911308.1  :LON
RMK6.                    :RMK6
DRDP.          473.5 ft  :DRDP
SOFT.                    :SOFT
LAT.           383548.9  :LAT
DFLD.          81.42 ft  :DFLD
MAGN.                    :MAGN
EREF.         617.26 ft  :EREF
HYDR. Pump removed well unused. ran caliper and heat pulse on 10/11/2010  LS (PVC csg has 0.7 ft stickup)  :HYDR
PROJ. Riverfront Superfund Site  :PROJ
FIID.                ZB  :FIID
DREF.      Land surface  :DREF
TIME.             11_30  :TIME
CASB.               101  :CASB
TVER.                    :TVER
ORIE.              Vert  :ORIE
#------------------------------------------------------------
~OTHER
#------------------------------------------------------------
#<------------------LOG DATA-------------------
#DEPTH	Caliper	Gamma	FCond 25'C	FCond	Temperature
#FT	IN	CPS	US/CM	US/CM	DEG_C
~A  DEPT[FT]    Caliper[    Gamma[cp    FCond 25    FCond[uS    Temperat
# ...
216.624	6.15463	19.1464	482.866	626.111	14.4402
216.785	6.09852	27.2263	482.401	625.419	14.4418
216.946	6.10190	24.6555	482.236	625.154	14.4412
217.108	6.09813	21.4085	481.875	624.695	14.4404
217.269	6.10608	28.1714	481.302	623.990	14.4389
217.430	6.10466	24.3444	480.867	623.483	14.4371
217.591	6.10377	25.1380	480.829	623.501	14.4353
217.753	6.10934	21.8776	481.199	624.048	14.4337
217.914	6.10174	22.4657	481.481	624.468	14.4319
218.075	6.10464	23.3470	482.055	625.244	14.4307
218.237	6.10156	18.2297	483.178	626.723	14.4303
218.398	6.10720	17.1487	484.257	628.127	14.4319
218.559	6.11144	25.6682	484.400	628.256	14.4361
218.721	6.10726	26.2796	484.118	627.768	14.4406
218.882	6.11158	24.8825	483.928	627.370	14.4444
219.043	6.11238	23.8483	483.650	626.891	14.4463
219.204	6.11154	26.0909	483.442	626.586	14.4458
219.366	6.11368	21.3844	482.922	625.929	14.4448
219.527	6.12370	17.9611	482.234	625.079	14.4425
219.688	6.11314	12.7391	481.790	624.580	14.4393
219.850	6.12310	15.3308	481.844	624.750	14.4372
220.011	6.13731	22.4379	482.253	625.384	14.4359
220.172	6.15514	16.5180	482.503	625.800	14.4340
220.334	6.16707	13.3955	482.093	625.337	14.4319
220.495	6.10181	15.6343	481.304	624.364	14.4308
220.656	6.11206	14.3141	481.144	624.227	14.4288
220.818	6.15840	14.6239	481.717	625.037	14.4276
220.979	6.10471	17.6866	482.324	625.839	14.4271
221.140	6.10592	23.6480	482.789	626.398	14.4283
221.301	6.10596	26.0408	483.520	627.301	14.4283
221.463	6.10106	21.4985	483.614	627.385	14.4297
221.624	6.10039	25.3846	482.785	626.202	14.4332
221.785	6.10039	27.2641	482.067	625.169	14.4347
221.947	6.09536	21.7812	481.749	624.746	14.4339
222.108	6.09925	20.1697	481.643	624.662	14.4317
222.269	6.11004	27.2117	481.645	624.736	14.4294
222.431	6.11166	22.3181	482.037	625.320	14.4269
222.592	6.09839	22.7456	482.375	625.825	14.4257
222.753	6.10337	14.9996	481.983	625.348	14.4244
222.915	6.10204	19.5357	481.666	624.947	14.4235
223.076	6.09607	25.1532	481.934	625.296	14.4229
223.237	6.10276	29.5169	482.526	626.068	14.4217
223.399	6.10646	28.2708	483.097	626.818	14.4208
223.560	6.09842	37.7610	483.515	627.355	14.4212
223.721	6.10180	35.9519	483.899	627.823	14.4221
223.882	6.10244	50.9472	484.091	628.037	14.4237
224.044	6.09701	32.7038	484.193	628.111	14.4264
224.205	6.10177	34.4706	484.289	628.149	14.4290
224.366	6.10295	40.4936	484.677	628.561	14.4327
224.528	6.10039	28.9301	485.206	629.170	14.4356
224.689	6.10039	34.9750	485.206	629.109	14.4368
224.850	6.10360	48.4343	484.663	628.346	14.4373
225.012	6.10646	52.8108	484.354	627.915	14.4372
225.173	6.10345	42.9655	484.664	628.315	14.4371
225.334	6.10303	46.9471	485.062	628.841	14.4368
225.496	6.10336	66.1886	485.463	629.381	14.4361
225.657	6.10309	55.6702	485.822	629.842	14.4366
225.818	6.10125	47.9179	485.744	629.685	14.4388
225.979	6.09910	61.9035	485.191	628.891	14.4415
226.141	6.10372	54.8271	484.720	628.228	14.4423
226.302	6.10499	65.7842	484.794	628.329	14.4405
226.463	6.11013	61.3148	484.924	628.559	14.4381
226.625	6.10400	54.4432	484.617	628.241	14.4367
226.786	6.10438	68.9696	484.396	628.020	14.4357
226.947	6.12251	73.8978	484.422	628.104	14.4347
227.109	6.13685	78.6681	484.383	628.097	14.4336
227.270	6.11659	82.5046	484.365	628.133	14.4308
227.431	6.10853	67.5137	484.631	628.559	14.4283
227.593	6.10337	73.7398	485.175	629.326	14.4267
227.754	6.10975	72.7867	485.424	629.686	14.4255
227.915	6.10296	68.5382	485.409	629.671	14.4262
228.076	6.11231	59.1244	485.403	629.630	14.4270
228.238	6.11162	49.4172	485.416	629.579	14.4292
228.399	6.11252	64.4008	485.584	629.702	14.4314
228.560	6.11252	72.3028	485.821	629.927	14.4329
228.722	6.11252	69.7794	485.954	630.042	14.4334
228.883	6.11240	76.5161	485.743	629.725	14.4337
229.044	6.11210	78.7644	485.465	629.324	14.4335
229.206	6.11811	65.7180	485.542	629.418	14.4333
229.367	6.11245	53.5868	485.635	629.579	14.4315
229.528	6.11119	51.8134	485.357	629.265	14.4307
229.689	6.10680	52.6486	485.086	628.927	14.4300
229.851	6.11844	44.3924	485.101	628.953	14.4294
230.012	6.10596	35.0326	485.111	628.968	14.4292
230.173	6.11832	30.8767	485.031	628.869	14.4286
230.335	6.12230	30.2284	485.044	628.906	14.4275
230.496	6.12454	32.3842	485.075	628.982	14.4264
230.657	6.13592	33.0559	485.002	628.915	14.4254
230.819	6.15892	34.2911	484.902	628.805	14.4252
230.980	6.29143	26.2027	484.733	628.617	14.4247
231.141	6.37741	23.3331	484.585	628.467	14.4242
231.303	6.38051	22.1314	484.837	628.835	14.4231
231.464	6.28200	12.4493	485.425	629.618	14.4226
231.625	6.19380	10.5769	485.763	630.063	14.4218
231.787	6.18239	9.76782	485.805	630.131	14.4212
231.948	6.14144	8.91970	485.770	630.082	14.4207
232.109	6.13545	11.3837	485.780	630.075	14.4203
232.270	6.15949	8.38433	485.914	630.224	14.4203
232.432	6.16246	4.92399	485.983	630.275	14.4210
232.593	6.19722	6.81469	485.842	630.038	14.4224
232.754	6.23151	16.0952	485.748	629.857	14.4232
232.916	6.23148	23.4330	485.844	629.952	14.4227
233.077	6.24987	20.9332	485.968	630.139	14.4212
233.238	6.22271	33.0136	486.021	630.276	14.4193
233.400	6.19569	44.5069	486.074	630.398	14.4191
233.561	6.18965	46.5614	486.217	630.583	14.4211
233.722	6.18289	37.5856	486.154	630.469	14.4232
233.884	6.17564	31.2738	485.976	630.182	14.4251
234.045	6.17670	26.7329	485.854	629.976	14.4258
234.206	6.17243	32.3214	485.725	629.804	14.4246
234.367	6.17584	36.2077	485.702	629.803	14.4227
234.529	6.18107	22.3329	485.782	629.938	14.4216
234.690	6.17558	28.5735	485.952	630.169	14.4209
234.851	6.17564	45.5394	486.114	630.391	14.4204
235.013	6.18374	45.6720	486.209	630.506	14.4215
235.174	6.21234	32.5417	486.100	630.324	14.4228
235.335	6.26130	29.4884	485.945	630.076	14.4247
235.497	6.29854	24.7490	486.076	630.201	14.4268
235.658	6.26613	32.7545	486.264	630.429	14.4284
235.819	6.19879	31.2871	486.340	630.536	14.4294
235.981	6.19286	21.2346	486.379	630.609	14.4298
236.142	6.18752	22.3740	486.328	630.559	14.4302
236.303	6.17710	27.3932	486.272	630.487	14.4306
236.464	6.15565	27.5723	486.270	630.488	14.4293
236.626	6.18038	23.3249	486.157	630.363	14.4282
236.787	6.22132	19.4607	485.915	630.075	14.4275
236.948	6.25683	27.6111	485.741	629.882	14.4263
237.110	6.24900	17.1729	485.580	629.747	14.4231
237.271	6.17384	14.6375	485.426	629.656	14.4194
237.432	6.18014	18.5345	485.477	629.847	14.4153
237.594	6.17972	23.5627	485.388	629.823	14.4138
237.755	6.16809	27.0489	485.196	629.618	14.4125
237.916	6.16715	33.0549	485.142	629.563	14.4121
238.078	6.14129	31.9862	485.151	629.569	14.4120
238.239	6.12514	30.5011	485.192	629.615	14.4119
238.400	6.12676	33.7463	485.199	629.625	14.4113
238.561	6.11964	29.5355	485.317	629.770	14.4124
238.723	6.12823	27.3500	485.580	630.081	14.4129
238.884	6.13007	30.2930	485.799	630.339	14.4130
239.045	6.12296	30.9171	485.902	630.448	14.4134
239.207	6.13035	26.8863	485.993	630.540	14.4142
239.368	6.12251	34.4623	486.169	630.721	14.4156
239.529	6.12473	39.6280	486.259	630.771	14.4167
239.691	6.13069	31.5823	486.151	630.568	14.4174
239.852	6.12262	26.8177	486.129	630.484	14.4182
240.013	6.13306	24.9400	486.219	630.556	14.4186
240.175	6.12514	26.3005	486.284	630.609	14.4189
240.336	6.13285	26.5491	486.337	630.670	14.4185
240.497	6.12845	30.4795	486.416	630.786	14.4174
240.658	6.13587	32.5378	486.427	630.837	14.4160
240.820	6.12903	25.5258	486.319	630.746	14.4144
240.981	6.13272	27.5666	486.315	630.773	14.4127
241.142	6.13628	31.0364	486.384	630.888	14.4109
241.304	6.13405	29.9922	486.383	630.913	14.4097
241.465	6.15095	26.7547	486.350	630.880	14.4095
241.626	6.14227	32.3981	486.361	630.890	14.4093
241.788	6.13255	41.4403	486.426	630.981	14.4093
241.949	6.14123	46.2094	486.460	631.028	14.4097
242.110	6.14780	30.0121	486.458	630.985	14.4114
242.272	6.15776	30.6507	486.397	630.850	14.4130
242.433	6.14927	33.2373	486.324	630.742	14.4127
242.594	6.14336	31.3773	486.287	630.731	14.4111
242.755	6.15521	36.5320	486.266	630.781	14.4085
242.917	6.18297	31.8878	486.258	630.866	14.4062
243.078	6.18453	23.9596	486.238	630.941	14.4040
243.239	6.15394	27.1581	486.186	630.953	14.4028
243.401	6.13562	24.1545	486.143	630.935	14.4023
