~VERSION INFORMATION
VERS.               2.0  :CWLS LOG ASCII STANDARD - VERSION 2.0
WRAP.                NO  :ONE LINE PER DEPTH STEP
#------------------------------------------------------------
~WELL INFORMATION
STRT.FT         1.60000  :FIRST INDEX VALUE
STOP.FT         473.426  :LAST INDEX VALUE
STEP.FT        0.000000  :STEP
NULL.            -99999  :NULL VALUE
COMP. Beaver brand hats  :COMP
WELL.                    :WELL
FLD.                     :FIELD
LOC. well at SW corner of building 75 ft east of Hwy C, New Haven MO  :LOC
LATI.                    :LATITUDE
LONG.                    :LONGITUDE
GDAT.            /NAD83  :GDAT
SRVC.              USGS  :SRVC
CTRY.                    :COUNTRY
PROV.                    :PROVINCE
STAT.          Missouri  :STAT
CNTY.    Franklin (071)  :CNTY
DATE.        05/22/2009  :DATE
UWI.    383549091130801  :UWI
API.                     :API NUMBER
LIC.                     :LICENSE NUMBER
#------------------------------------------------------------
~CURVE INFORMATION
DEPT.FT                   :DEPTH
Caliper.IN                   :Caliper
Gamma.CPS                   :Gamma
FCond 25'C.US/CM                   :FCond 25'C
FCond.US/CM                   :FCond
Temperature.DEG_C                   :Temperature
#------------------------------------------------------------
~PARAMETER INFORMATION
OTID.        Beaver Hat  :OTID
BS.               6 in.  :BS
CASD.             6 in.  :CASD
STNM.   New Haven JS-25  :STNM
LOGU.        MWSC-Rolla  :LOGU
LMF.                 LS  :LMF
APD.             0.0 ft  :APD
RMKS. SWL 82.12 ft BTOC (81.42 ft LS).  zerod tool at LS (stickup = 0.70 ft)  :RMKS
RMK1.  Mt Sopris    2PFA+2PGA  Fluid tool,, SN 3427  05-22-2009  11_30  amlogging down ~10 ft/min, error <0.5 ft  :RMK1
CASX.               PVC  :CASX
RECB.        Schumacher  :RECB
OBSR. L. Gorday (Parsons Eng.)  :OBSR
RMK2. Mt Sopris  2PGA+2PFA  gamma, SN 2952m 05-22-2009 12_30 hrs, logging up ~ 20 ft/min, depth error <0.5 ft    :RMK2
ADAT.            NGVD29  :ADAT
RMK3. Mt Sopris, 2PCA Caliper (long arms)  SN 3427, 10-11-2010, 1430 hrs, logging up, 15 ft/m. error < 0.5 ft_  :RMK3
FTYP.     Potable water  :FTYP
RMK4. Mt Sopris  HFP, heat Pulse, SN 3122, 10-11-2010   1100 hrs, Ambient conditions (no pumping) logged down,, depth error < 0.5 ft  :RMK4
DUNT.               E/M  :DUNT
RMK5.                    :RMK5
LON.           911308.1  :LON
RMK6.                    :RMK6
DRDP.          473.5 ft  :DRDP
SOFT.                    :SOFT
LAT.           383548.9  :LAT
DFLD.          81.42 ft  :DFLD
MAGN.                    :MAGN
EREF.         617.26 ft  :EREF
HYDR. Pump removed well unused. ran caliper and heat pulse on 10/11/2010  LS (PVC csg has 0.7 ft stickup)  :HYDR
PROJ. Riverfront Superfund Site  :PROJ
FIID.                ZB  :FIID
DREF.      Land surface  :DREF
TIME.             11_30  :TIME
CASB.               101  :CASB
TVER.                    :TVER
ORIE.              Vert  :ORIE
#------------------------------------------------------------
~OTHER
#------------------------------------------------------------
#<------------------LOG DATA-------------------
#DEPTH	Caliper	Gamma	FCond 25'C	FCond	Temperature
#FT	IN	CPS	US/CM	US/CM	DEG_C
~A  DEPT[FT]    Caliper[    Gamma[cp    FCond 25    FCond[uS    Temperat
# ...
243.562	6.12823	31.2074	486.192	630.978	14.4038
243.723	6.12338	28.5486	486.280	631.028	14.4058
243.885	6.13733	26.5402	486.430	631.141	14.4086
244.046	6.14952	22.0659	486.538	631.189	14.4103
244.207	6.12698	10.6989	486.542	631.121	14.4114
244.369	6.12312	21.4524	486.652	631.208	14.4117
244.530	6.17096	10.0341	486.737	631.285	14.4109
244.691	6.19639	20.3196	486.708	631.239	14.4099
244.852	6.17869	18.0527	486.724	631.246	14.4098
245.014	6.14821	18.0603	486.802	631.314	14.4097
245.175	6.12608	16.3068	486.764	631.247	14.4086
245.336	6.13660	12.8734	486.595	631.033	14.4080
245.498	6.14718	13.4236	486.364	630.730	14.4076
245.659	6.14660	11.3087	486.290	630.648	14.4060
245.820	6.14303	20.9025	486.407	630.891	14.4017
245.982	6.12786	22.0245	486.399	631.009	14.3992
246.143	6.12245	26.4625	486.327	630.991	14.3999
246.304	6.13639	39.9338	486.288	630.956	14.4016
246.466	6.18651	53.2727	486.313	630.991	14.4020
246.627	6.23306	62.1888	486.401	631.109	14.4016
246.788	6.21766	57.1992	486.480	631.224	14.4010
246.949	6.17384	45.8064	486.538	631.317	14.4005
247.111	6.18266	40.2029	486.631	631.431	14.4014
247.272	6.19871	41.5795	486.725	631.502	14.4034
247.433	6.21447	35.1388	486.792	631.522	14.4051
247.595	6.21472	33.5516	486.897	631.596	14.4074
247.756	6.27887	31.8657	486.971	631.633	14.4101
247.917	6.53484	29.7958	487.016	631.640	14.4119
248.079	6.79821	28.5771	487.041	631.633	14.4132
248.240	6.69420	31.9197	486.955	631.484	14.4145
248.401	6.30392	27.4940	486.863	631.346	14.4142
248.563	6.28997	18.2200	486.859	631.375	14.4121
248.724	6.18381	15.9215	486.845	631.441	14.4084
248.885	6.16156	17.0488	486.775	631.459	14.4058
249.046	6.17177	15.3412	486.735	631.482	14.4047
249.208	6.16106	16.0325	486.803	631.603	14.4042
249.369	6.16106	17.1512	486.860	631.680	14.4046
249.530	6.13730	17.1546	486.842	631.618	14.4065
249.692	6.15483	22.5757	486.857	631.585	14.4078
249.853	6.18370	32.6575	486.888	631.595	14.4086
250.014	6.22938	42.5319	486.857	631.539	14.4095
250.176	6.24482	44.0199	486.884	631.571	14.4091
250.337	6.17981	46.7247	487.005	631.748	14.4088
250.498	6.15173	56.9378	487.132	631.934	14.4088
250.660	6.14987	66.5153	487.177	631.990	14.4098
250.821	6.18500	67.8812	487.094	631.823	14.4122
250.982	6.20281	63.6917	487.032	631.669	14.4137
251.143	6.17383	59.9385	486.990	631.601	14.4128
251.305	6.19596	53.4331	486.938	631.582	14.4102
251.466	6.17904	45.3496	486.891	631.590	14.4078
251.627	6.17208	37.2417	486.800	631.536	14.4058
251.789	6.17743	24.3996	486.663	631.415	14.4038
251.950	6.17805	23.3410	486.522	631.290	14.4009
252.111	6.19174	30.7400	486.457	631.282	14.3983
252.273	6.19132	18.7195	486.441	631.333	14.3962
252.434	6.18638	13.2079	486.394	631.323	14.3942
252.595	6.19116	17.5253	486.358	631.289	14.3933
252.757	6.17279	19.7721	486.354	631.276	14.3926
252.918	6.14371	16.5199	486.377	631.299	14.3921
253.079	6.15407	15.6030	486.468	631.391	14.3932
253.241	6.17435	11.8781	486.547	631.439	14.3950
253.402	6.16872	13.6344	486.599	631.442	14.3966
253.563	6.21220	10.7758	486.669	631.468	14.3983
253.724	6.19037	16.8817	486.780	631.549	14.3993
253.886	6.14191	16.5677	486.792	631.523	14.3994
254.047	6.15298	14.3744	486.702	631.371	14.4000
254.208	6.15286	9.65215	486.678	631.317	14.3996
254.370	6.15507	10.8949	486.665	631.314	14.3985
254.531	6.16682	12.3218	486.602	631.282	14.3965
254.692	6.17916	11.0765	486.515	631.232	14.3947
254.854	6.18776	13.8538	486.441	631.199	14.3934
255.015	6.17857	13.1369	486.359	631.168	14.3917
255.176	6.15186	16.4504	486.312	631.167	14.3908
255.337	6.11419	20.7209	486.341	631.241	14.3900
255.499	6.11534	15.1862	486.401	631.349	14.3896
255.660	6.11976	20.7527	486.411	631.372	14.3899
255.821	6.13457	20.9152	486.381	631.314	14.3902
255.983	6.12543	28.3640	486.418	631.346	14.3905
256.144	6.10365	19.1941	486.488	631.444	14.3902
256.305	6.11004	20.1087	486.568	631.562	14.3896
256.467	6.10631	23.5653	486.655	631.665	14.3906
256.628	6.10591	26.8834	486.703	631.683	14.3930
256.789	6.10603	22.8746	486.771	631.690	14.3966
256.951	6.10634	15.2895	486.830	631.673	14.3989
257.112	6.10591	21.1620	486.851	631.615	14.4009
257.273	6.10709	27.9520	486.804	631.518	14.4004
257.435	6.11145	31.3321	486.769	631.520	14.3978
257.596	6.10599	22.1442	486.806	631.650	14.3959
257.757	6.10567	25.1281	486.787	631.693	14.3953
257.918	6.10107	28.3985	486.772	631.705	14.3958
258.080	6.10693	27.8660	486.811	631.745	14.3968
258.241	6.11103	28.7380	486.856	631.769	14.3977
258.402	6.10646	25.5962	486.864	631.749	14.3978
258.564	6.10643	21.4562	486.834	631.685	14.3984
258.725	6.10592	18.6813	486.812	631.647	14.3988
258.886	6.10638	22.6294	486.813	631.690	14.3967
259.048	6.10042	26.6113	486.782	631.708	14.3958
259.209	6.10039	23.4183	486.726	631.683	14.3946
259.370	6.11631	18.4762	486.704	631.689	14.3943
259.531	6.11172	15.8086	486.699	631.700	14.3936
259.693	6.11244	22.5713	486.669	631.694	14.3919
259.854	6.11152	29.2494	486.570	631.620	14.3896
260.015	6.12130	25.7308	486.481	631.561	14.3878
260.177	6.10840	22.9482	486.456	631.581	14.3855
260.338	6.10598	27.6017	486.399	631.575	14.3826
260.499	6.10637	26.2337	486.347	631.564	14.3813
260.661	6.11514	22.7473	486.332	631.578	14.3800
260.822	6.11335	23.7466	486.348	631.620	14.3790
260.983	6.11165	17.6951	486.380	631.675	14.3782
261.145	6.12173	34.3149	486.417	631.729	14.3782
261.306	6.12003	27.8859	486.481	631.805	14.3791
261.467	6.12558	25.4031	486.546	631.869	14.3797
261.629	6.13882	28.7112	486.618	631.933	14.3805
261.790	6.14011	28.9286	486.674	631.968	14.3813
261.951	6.15434	22.1616	486.744	632.007	14.3825
262.112	6.15694	17.1368	486.860	632.088	14.3842
262.274	6.16266	19.1015	486.933	632.103	14.3863
262.435	6.17867	16.5827	486.989	632.099	14.3876
262.596	6.18393	19.4562	487.025	632.092	14.3877
262.758	6.24727	15.1936	487.033	632.065	14.3882
262.919	6.24126	16.1513	487.054	632.076	14.3878
263.080	6.18149	16.7301	487.074	632.117	14.3869
263.242	6.16788	19.5566	487.071	632.136	14.3862
263.403	6.17860	23.5402	487.028	632.096	14.3858
263.564	6.19712	27.3355	487.049	632.129	14.3856
263.725	6.18474	47.7441	487.062	632.159	14.3849
263.887	6.18210	47.5522	487.054	632.164	14.3848
264.048	6.22386	52.3651	487.086	632.225	14.3840
264.209	6.25771	37.7595	487.135	632.314	14.3830
264.371	6.23303	50.2701	487.217	632.436	14.3822
264.532	6.17255	59.1095	487.261	632.484	14.3821
264.693	6.15031	41.4987	487.279	632.473	14.3832
264.855	6.13915	27.8013	487.303	632.462	14.3848
265.016	6.13473	29.8209	487.357	632.500	14.3851
265.177	6.13559	27.6907	487.359	632.487	14.3849
265.339	6.14110	23.6758	487.296	632.390	14.3849
265.500	6.15935	21.6679	487.298	632.375	14.3846
265.661	6.16523	21.9693	487.266	632.353	14.3831
265.823	6.15568	19.3030	487.210	632.320	14.3833
265.984	6.14024	24.8946	487.174	632.310	14.3846
266.145	6.13435	25.6649	487.085	632.241	14.3854
266.306	6.13733	24.6989	487.001	632.195	14.3833
266.468	6.13849	22.1343	487.001	632.278	14.3812
266.629	6.13550	23.5016	487.011	632.362	14.3798
266.790	6.13126	22.5385	486.967	632.342	14.3805
266.952	6.13299	26.6954	486.924	632.275	14.3818
267.113	6.13206	26.0240	486.881	632.187	14.3824
267.274	6.13900	23.4377	486.846	632.153	14.3809
267.436	6.13793	27.8252	486.792	632.138	14.3790
267.597	6.13165	29.7482	486.698	632.085	14.3766
267.758	6.13900	27.9017	486.651	632.091	14.3750
267.920	6.13882	29.0669	486.649	632.156	14.3729
268.081	6.13693	28.5241	486.656	632.207	14.3724
268.242	6.13890	25.9570	486.749	632.311	14.3732
268.403	6.13669	27.9328	486.922	632.484	14.3743
268.565	6.13359	24.3820	487.058	632.582	14.3768
268.726	6.14281	23.2490	487.151	632.599	14.3798
268.887	6.13908	27.3129	487.243	632.617	14.3828
269.049	6.14271	27.6736	487.306	632.604	14.3851
269.210	6.14963	28.5656	487.341	632.563	14.3869
269.371	6.14337	20.0361	487.359	632.511	14.3880
269.533	6.14939	17.9437	487.376	632.497	14.3879
269.694	6.14904	23.7996	487.391	632.519	14.3871
269.855	6.14504	20.3951	487.436	632.586	14.3862
270.017	6.15402	21.5884	487.408	632.555	14.3858
270.178	6.19751	17.6016	487.289	632.401	14.3862
270.339	6.16358	13.1454	487.243	632.343	14.3863
